~VERSION INFORMATION
VERS.           2.0   :CWLS Log ASCII Standard - VERSION 2.0
WRAP.           NO    :One Line per depth step
PROD.  Schlumberger   :LAS Producer
PROG.  DLIS to ASCII 9C2-303                           :LAS Program name and version
CREA.        2001/08/27 19:21                          :LAS Creation date {YYYY/MM/DD hh:mm}
SOURCE.     AIT_TLD_MCFL_CNL_015PUP.DLIS               :DLIS File Name
FILE-ID.     015                                       :File Identification Number
#--------------------------------------------------
~WELL INFORMATION
#MNEM.UNIT      DATA             DESCRIPTION
#---- ------ --------------   -----------------------------
STRT .F       1500.00        :START DEPTH     
STOP .F         63.50        :STOP DEPTH     
STEP .F         -0.50       :STEP     
NULL .          -999.25      :NULL VALUE
COMP .        DOUBLE EAGLE PETROLEUM                   :COMPANY
WELL .        COW CREEK UNIT 43-12                     :WELL
FLD  .        COW CREEK                                :FIELD
LOC  .        476' FEL & 1738' FSL                     :LOCATION
PROV .        CARBON                                   :PROVINCE
UWI  .        NE/SE                                    :UNIQUE WELL ID
LIC  .        4900721918                               :API NUMBER
CTRY .        CA                                       :COUNTRY (WWW code)
DATE .        27-Aug-2001                              :LOG DATE {DD-MMM-YYYY}
SRVC .        Schlumberger                             :SERVICE COMPANY
LATI .DEG     41.37037                                 :LATITUDE
LONG .DEG     -107.68952                               :LONGITUDE
GDAT .                                                 :GeoDetic Datum
 API .                                      4900721918 :API NUMBER
USGS.         E934                                     :USGS Number
UTM-N.        4583363.54                               :Northing
UTM-E.        275067.57                                :Easting
CORE.         N/A                                      :Core/Log Offset
#-----------------------------------------------------------------------------
~PARAMETER INFORMATION
#MNEM.UNIT    VALUE                      DESCRIPTION
#---- -----   --------------------       ------------------------
CN   .        DOUBLE EAGLE PETROLEUM     :Company Name
WN   .        COW CREEK UNIT 43-12       :Well Name
FN   .        COW CREEK                  :Field Name
FL   .        476' FEL & 1738' FSL       :Field Location
COUN .        CARBON                     :County or Rig Name
STAT .        WYOMING                    :State or Province
NATI .                                   :Nation
DATE .        27-Aug-2001                :Date as Month-Day-Year
APIN .        049-007-21918              :API Serial Number
UWID .                                   :Unique Well Identification Number
RUN  .          1                        :RUN NUMBER
PDAT .        GROUND LEVEL               :Permanent Datum
EREF .F         6716.000000              :Elevation of Permanent Datum above Mean Sea Level
DREF .          KELLY BUSHING            :Logging Measured From (Name of Logging Elevation Reference)
APD  .F          12.000000               :Elevation of Depth Reference (LMF) above Permanent Datum
#-----------------------------------------------------------------------------
~CURVE INFORMATION
#MNEM.UNIT   API CODE                                  DESCRIPTION
#---- -----  --------                                  -----------------------
DEPT .F                                                :DEPTH (BOREHOLE) {F9.2}
GR   .GAPI                                             :Gamma-Ray {F12.3}
HCAL .IN                                               :HRCC Cal. Caliper {F12.3}
AHT10.OHMM                                             :Array Induction Two Foot Resistivity A10 {F12.3}
AHT20.OHMM                                             :Array Induction Two Foot Resistivity A20 {F12.3}
AHT30.OHMM                                             :Array Induction Two Foot Resistivity A30 {F12.3}
AHT60.OHMM                                             :Array Induction Two Foot Resistivity A60 {F12.3}
AHT90.OHMM                                             :Array Induction Two Foot Resistivity A90 {F12.3}
NPOR .CFCF                                             :Enhanced Thermal Neutron Porosity {F12.3}
DPHZ .CFCF                                             :HRDD Standard Resolution Density Porosity {F12.3}
RHOZ .G/C3                                             :HRDD Standard Resolution Formation Density {F12.3}
HDRA .G/C3                                             :HRDD Density Correction {F12.3}
PEFZ .                                                 :HRDD Standard Resolution Formation Photoelectric Factor {F12.3}
IHV  .F3                                               :Integrated Hole Volume {F12.3}
TENS .LBF                                              :Cable Tension {F12.3}
#-----------------------------------------------------------------------------
# 
#    DEPT        GR         HCAL        AHT10       AHT20       AHT30       AHT60       AHT90       NPOR        DPHZ        RHOZ        HDRA        PEFZ         IHV        TENS
#
~A  
# ...
  1207.50      76.800       2.988      14.489      16.668      17.174      18.103      17.650       0.283       0.151       2.401       0.032       4.892      14.250    1061.000
  1207.00      66.727       2.988      14.509      16.908      17.785      18.287      18.075       0.298       0.135       2.427       0.038       5.093      14.274    1077.000
  1206.50      67.555       2.988      14.845      17.810      18.470      18.957      18.665       0.304       0.137       2.423       0.045       5.247      14.299    1072.000
  1206.00      75.273       2.988      14.030      16.978      17.651      17.855      17.606       0.323       0.158       2.389       0.041       5.115      14.323    1097.000
  1205.50      84.363       2.988      13.148      16.036      16.480      16.739      16.674       0.371       0.176       2.360       0.028       4.702      14.347    1085.000
  1205.00      83.914       2.988      12.358      15.132      15.623      15.801      15.733       0.337       0.174       2.363       0.017       4.210      14.372    1068.000
  1204.50      81.877       2.988      12.022      14.712      15.152      15.316      15.303       0.323       0.162       2.383       0.014       3.862      14.396    1066.000
  1204.00      72.787       2.988      12.239      15.097      15.440      15.513      15.601       0.310       0.167       2.375       0.010       3.658      14.420    1103.000
  1203.50      69.541       2.988      12.696      15.894      16.444      16.762      16.697       0.297       0.173       2.364       0.002       3.522      14.445    1166.000
  1203.00      70.322       2.988      13.936      17.480      18.045      18.371      18.440       0.316       0.174       2.363      -0.007       3.441      14.469    1120.000
  1202.50      72.844       2.988      15.072      20.179      20.685      20.981      21.080       0.316       0.165       2.378      -0.008       3.454      14.493    1208.000
  1202.00      77.743       2.988      14.989      20.263      20.911      21.133      21.735       0.308       0.172       2.366      -0.008       3.465      14.518    1180.000
  1201.50      71.958       2.988      14.468      19.789      20.406      20.921      21.225       0.331       0.195       2.328      -0.005       3.449      14.542    1170.000
  1201.00      65.177       2.988      14.149      19.378      20.199      20.793      21.229       0.314       0.225       2.279      -0.007       3.398      14.566    1135.000
  1200.50      49.483       2.988      15.323      20.906      21.611      22.264      22.770       0.306       0.244       2.247      -0.012       3.366      14.591    1128.000
  1200.00      45.764       2.988      17.231      23.520      24.324      25.346      25.895       0.281       0.252       2.234      -0.017       3.342      14.615    1118.000
  1199.50      44.661       2.988      18.357      25.998      26.889      27.962      28.581       0.292       0.255       2.229      -0.020       3.303      14.639    1139.000
  1199.00      41.764       2.988      18.490      26.873      28.334      29.484      30.458       0.298       0.262       2.218      -0.021       3.263      14.664    1115.000
  1198.50      35.434       2.988      18.037      26.159      27.549      28.739      29.305       0.297       0.272       2.201      -0.020       3.219      14.688    1112.000
  1198.00      35.011       2.988      17.535      25.106      26.171      26.949      27.800       0.311       0.286       2.178      -0.019       3.189      14.712    1144.000
  1197.50      37.081       2.988      17.049      24.414      25.464      26.023      26.837       0.305       0.292       2.168      -0.018       3.185      14.737    1143.000
  1197.00      39.286       2.988      16.667      23.808      24.700      24.992      25.739       0.305       0.288       2.175      -0.017       3.180      14.761    1158.000
  1196.50      39.286       2.988      16.252      22.840      23.898      24.239      24.856       0.303       0.271       2.202      -0.015       3.195      14.785    1153.000
  1196.00      39.270       2.988      16.315      22.674      23.694      24.066      24.489       0.284       0.256       2.227      -0.015       3.199      14.810    1176.000
  1195.50      43.424       2.988      16.727      23.337      24.658      25.279      25.584       0.288       0.250       2.237      -0.017       3.159      14.834    1182.000
  1195.00      43.295       2.988      17.190      23.752      24.723      25.427      25.541       0.279       0.259       2.222      -0.023       3.042      14.858    1184.000
  1194.50      44.940       2.988      17.344      24.185      25.376      26.128      26.242       0.286       0.268       2.208      -0.024       2.886      14.883    1158.000
  1194.00      39.972       2.988      17.342      24.137      25.065      26.134      25.953       0.294       0.274       2.198      -0.022       2.736      14.907    1129.000
  1193.50      41.626       2.988      17.390      23.991      24.960      26.060      25.831       0.296       0.271       2.203      -0.018       2.608      14.932    1123.000
  1193.00      43.310       2.988      17.618      24.209      25.156      25.680      26.097       0.302       0.270       2.204      -0.017       2.506      14.956    1127.000
  1192.50      46.182       2.988      17.733      24.334      25.558      25.422      26.367       0.285       0.268       2.208      -0.015       2.461      14.980    1132.000
  1192.00      40.118       2.988      17.885      24.130      25.505      25.332      26.796       0.291       0.266       2.211      -0.012       2.468      15.005    1139.000
  1191.50      41.774       2.965      17.793      23.011      25.269      25.853      27.026       0.293       0.265       2.213      -0.009       2.496      15.029    1147.000
  1191.00      42.471       2.988      17.819      22.046      24.841      25.611      26.172       0.284       0.269       2.206      -0.006       2.534      15.053    1157.000
  1190.50      42.052       2.988      18.221      21.252      24.107      24.799      25.327       0.288       0.275       2.196      -0.009       2.528      15.077    1158.000
  1190.00      32.530       2.988      19.158      20.840      24.596      25.306      25.483       0.293       0.280       2.189      -0.013       2.497      15.102    1140.000
  1189.50      31.428       2.988      19.760      20.966      25.700      25.807      26.816       0.292       0.278       2.192      -0.016       2.457      15.126    1134.000
  1189.00      34.320       2.988      21.449      21.981      26.397      26.469      26.936       0.277       0.277       2.193      -0.019       2.449      15.150    1095.000
  1188.50      38.858       2.988      20.340      23.585      23.233      27.617      26.906       0.310       0.274       2.198      -0.020       2.448      15.175    1091.000
  1188.00      35.976       2.988      21.416      26.391      26.899      28.332      29.422       0.290       0.271       2.203      -0.016       2.531      15.199    1161.000
  1187.50      40.521       2.988      19.729      34.117      29.611      28.533      30.291       0.286       0.271       2.203      -0.007       2.730      15.223    1220.000
  1187.00      39.970       2.965      19.980      38.609      32.816      33.898      34.960       0.264       0.286       2.178       0.001       2.996      15.247    1253.000
  1186.50      44.938       2.988      21.540      39.366      37.381      33.716      39.875       0.271       0.329       2.108      -0.001       3.097      15.272    1198.000
  1186.00      39.573       2.988      21.216      38.000      33.286      31.560      34.433       0.411       0.377       2.028      -0.006       3.099      15.296    1145.000
  1185.50      43.009       2.988      21.819      34.235      32.788      34.058      35.295       0.532       0.381       2.022      -0.003       3.076      15.320    1159.000
