~VERSION INFORMATION
VERS.           2.0   :CWLS Log ASCII Standard - VERSION 2.0
WRAP.           NO    :One Line per depth step
PROD.  Schlumberger   :LAS Producer
PROG.  DLIS to ASCII 9C2-303                           :LAS Program name and version
CREA.        2001/08/27 19:21                          :LAS Creation date {YYYY/MM/DD hh:mm}
SOURCE.     AIT_TLD_MCFL_CNL_015PUP.DLIS               :DLIS File Name
FILE-ID.     015                                       :File Identification Number
#--------------------------------------------------
~WELL INFORMATION
#MNEM.UNIT      DATA             DESCRIPTION
#---- ------ --------------   -----------------------------
STRT .F       1500.00        :START DEPTH     
STOP .F         63.50        :STOP DEPTH     
STEP .F         -0.50       :STEP     
NULL .          -999.25      :NULL VALUE
COMP .        DOUBLE EAGLE PETROLEUM                   :COMPANY
WELL .        COW CREEK UNIT 43-12                     :WELL
FLD  .        COW CREEK                                :FIELD
LOC  .        476' FEL & 1738' FSL                     :LOCATION
PROV .        CARBON                                   :PROVINCE
UWI  .        NE/SE                                    :UNIQUE WELL ID
LIC  .        4900721918                               :API NUMBER
CTRY .        CA                                       :COUNTRY (WWW code)
DATE .        27-Aug-2001                              :LOG DATE {DD-MMM-YYYY}
SRVC .        Schlumberger                             :SERVICE COMPANY
LATI .DEG     41.37037                                 :LATITUDE
LONG .DEG     -107.68952                               :LONGITUDE
GDAT .                                                 :GeoDetic Datum
 API .                                      4900721918 :API NUMBER
USGS.         E934                                     :USGS Number
UTM-N.        4583363.54                               :Northing
UTM-E.        275067.57                                :Easting
CORE.         N/A                                      :Core/Log Offset
#-----------------------------------------------------------------------------
~PARAMETER INFORMATION
#MNEM.UNIT    VALUE                      DESCRIPTION
#---- -----   --------------------       ------------------------
CN   .        DOUBLE EAGLE PETROLEUM     :Company Name
WN   .        COW CREEK UNIT 43-12       :Well Name
FN   .        COW CREEK                  :Field Name
FL   .        476' FEL & 1738' FSL       :Field Location
COUN .        CARBON                     :County or Rig Name
STAT .        WYOMING                    :State or Province
NATI .                                   :Nation
DATE .        27-Aug-2001                :Date as Month-Day-Year
APIN .        049-007-21918              :API Serial Number
UWID .                                   :Unique Well Identification Number
RUN  .          1                        :RUN NUMBER
PDAT .        GROUND LEVEL               :Permanent Datum
EREF .F         6716.000000              :Elevation of Permanent Datum above Mean Sea Level
DREF .          KELLY BUSHING            :Logging Measured From (Name of Logging Elevation Reference)
APD  .F          12.000000               :Elevation of Depth Reference (LMF) above Permanent Datum
#-----------------------------------------------------------------------------
~CURVE INFORMATION
#MNEM.UNIT   API CODE                                  DESCRIPTION
#---- -----  --------                                  -----------------------
DEPT .F                                                :DEPTH (BOREHOLE) {F9.2}
GR   .GAPI                                             :Gamma-Ray {F12.3}
HCAL .IN                                               :HRCC Cal. Caliper {F12.3}
AHT10.OHMM                                             :Array Induction Two Foot Resistivity A10 {F12.3}
AHT20.OHMM                                             :Array Induction Two Foot Resistivity A20 {F12.3}
AHT30.OHMM                                             :Array Induction Two Foot Resistivity A30 {F12.3}
AHT60.OHMM                                             :Array Induction Two Foot Resistivity A60 {F12.3}
AHT90.OHMM                                             :Array Induction Two Foot Resistivity A90 {F12.3}
NPOR .CFCF                                             :Enhanced Thermal Neutron Porosity {F12.3}
DPHZ .CFCF                                             :HRDD Standard Resolution Density Porosity {F12.3}
RHOZ .G/C3                                             :HRDD Standard Resolution Formation Density {F12.3}
HDRA .G/C3                                             :HRDD Density Correction {F12.3}
PEFZ .                                                 :HRDD Standard Resolution Formation Photoelectric Factor {F12.3}
IHV  .F3                                               :Integrated Hole Volume {F12.3}
TENS .LBF                                              :Cable Tension {F12.3}
#-----------------------------------------------------------------------------
# 
#    DEPT        GR         HCAL        AHT10       AHT20       AHT30       AHT60       AHT90       NPOR        DPHZ        RHOZ        HDRA        PEFZ         IHV        TENS
#
~A  
# ...
   375.00      92.394       2.988       2.886       3.211       3.421       3.751       3.804       0.376       0.148       2.406      -0.011       3.566      54.753     825.000
   374.50      82.868       2.988       2.888       3.232       3.452       3.782       3.836       0.372       0.145       2.411      -0.007       3.531      54.778     807.000
   374.00      83.160       2.988       2.931       3.281       3.495       3.830       3.880       0.372       0.144       2.413      -0.010       3.469      54.802     807.000
   373.50      86.298       2.988       2.952       3.309       3.532       3.875       3.920       0.365       0.148       2.406      -0.009       3.454      54.826     797.000
   373.00      89.191       2.988       2.945       3.293       3.504       3.830       3.886       0.362       0.150       2.403      -0.010       3.402      54.851     813.000
   372.50      94.703       2.988       2.976       3.316       3.535       3.873       3.921       0.365       0.149       2.404      -0.003       3.407      54.875     789.000
   372.00      92.634       2.988       3.004       3.353       3.571       3.912       3.961       0.345       0.145       2.411      -0.004       3.442      54.899     811.000
   371.50     100.921       2.965       3.016       3.378       3.601       3.949       3.999       0.333       0.134       2.429      -0.005       3.553      54.923     824.000
   371.00      98.835       2.988       3.072       3.441       3.672       4.028       4.082       0.363       0.133       2.431      -0.011       3.664      54.948     805.000
   370.50     105.458       2.988       3.112       3.507       3.742       4.112       4.162       0.378       0.137       2.424      -0.013       3.724      54.972     801.000
   370.00     101.599       2.988       3.163       3.542       3.800       4.191       4.233       0.361       0.149       2.404      -0.014       3.728      54.996     795.000
   369.50     100.360       2.988       3.169       3.527       3.778       4.157       4.197       0.379       0.154       2.395      -0.010       3.732      55.021     803.000
   369.00      91.494       2.988       3.168       3.523       3.766       4.139       4.178       0.366       0.156       2.392      -0.007       3.768      55.045     828.000
   368.50      82.153       2.988       3.214       3.595       3.854       4.240       4.285       0.353       0.146       2.410       0.000       3.797      55.069     846.000
   368.00      84.219       2.988       3.204       3.557       3.789       4.162       4.204       0.363       0.133       2.430       0.005       3.815      55.094     841.000
   367.50      87.604       2.988       3.132       3.478       3.688       4.024       4.064       0.356       0.124       2.445       0.012       3.868      55.118     830.000
   367.00      96.235       2.988       3.123       3.507       3.728       4.081       4.132       0.366       0.133       2.431       0.008       3.886      55.142     795.000
   366.50      94.739       2.988       3.137       3.511       3.744       4.114       4.163       0.429       0.144       2.412       0.002       3.827      55.167     811.000
   366.00      89.870       2.988       3.142       3.516       3.726       4.070       4.133       0.404       0.153       2.397      -0.003       3.667      55.191     809.000
   365.50      82.433       2.988       3.149       3.526       3.735       4.063       4.148       0.417       0.152       2.398      -0.001       3.518      55.215     819.000
   365.00      86.843       2.988       3.107       3.470       3.683       4.012       4.087       0.399       0.149       2.405      -0.001       3.418      55.240     837.000
   364.50      89.327       2.988       3.109       3.471       3.669       4.010       4.079       0.364       0.149       2.404       0.000       3.385      55.264     820.000
   364.00      96.923       2.988       3.180       3.573       3.796       4.157       4.225       0.384       0.152       2.399      -0.002       3.373      55.288     793.000
   363.50      99.794       2.988       3.187       3.591       3.823       4.204       4.277       0.416       0.155       2.395      -0.001       3.405      55.313     817.000
   363.00     105.525       2.988       3.113       3.496       3.720       4.080       4.143       0.396       0.152       2.398       0.000       3.476      55.337     801.000
   362.50     105.609       2.988       3.112       3.490       3.702       4.065       4.126       0.378       0.147       2.408       0.002       3.579      55.361     812.000
   362.00     102.717       2.988       3.170       3.552       3.760       4.124       4.193       0.376       0.140       2.419       0.001       3.630      55.386     831.000
   361.50      93.780       2.988       3.098       3.483       3.704       4.066       4.143       0.376       0.135       2.427      -0.003       3.636      55.410     813.000
   361.00      95.256       2.988       2.986       3.338       3.544       3.887       3.951       0.403       0.135       2.428      -0.002       3.637      55.434     836.000
   360.50      91.124       2.988       2.930       3.279       3.482       3.804       3.872       0.393       0.140       2.419      -0.002       3.658      55.459     816.000
   360.00      97.188       2.988       2.929       3.270       3.467       3.805       3.872       0.358       0.139       2.421      -0.000       3.669      55.483     832.000
   359.50      91.806       2.988       2.922       3.261       3.462       3.770       3.853       0.404       0.139       2.420      -0.003       3.662      55.508     818.000
   359.00     102.024       2.988       2.953       3.296       3.508       3.839       3.918       0.401       0.139       2.421      -0.005       3.651      55.532     784.000
   358.50     102.891       2.965       3.038       3.394       3.616       3.963       4.043       0.405       0.151       2.401      -0.009       3.658      55.556     817.000
   358.00     100.356       2.988       3.122       3.501       3.737       4.095       4.181       0.431       0.162       2.383      -0.012       3.675      55.580     841.000
   357.50      99.254       2.988       3.102       3.488       3.728       4.098       4.178       0.412       0.168       2.373      -0.013       3.679      55.605     836.000
   357.00     108.361       2.988       3.071       3.450       3.678       4.040       4.106       0.396       0.165       2.378      -0.011       3.662      55.629     844.000
   356.50     112.080       2.988       3.068       3.451       3.677       4.031       4.111       0.426       0.159       2.387      -0.009       3.611      55.653     832.000
   356.00     109.323       2.988       3.078       3.463       3.685       4.039       4.112       0.422       0.160       2.386      -0.009       3.596      55.678     825.000
   355.50      97.318       2.988       3.070       3.457       3.679       4.023       4.104       0.426       0.167       2.374      -0.008       3.624      55.702     824.000
   355.00     106.822       2.988       3.049       3.434       3.658       4.008       4.080       0.430       0.178       2.356      -0.007       3.682      55.726     836.000
   354.50     102.412       2.988       3.052       3.429       3.645       4.004       4.080       0.382       0.180       2.353      -0.002       3.691      55.751     844.000
   354.00     113.589       2.988       3.082       3.461       3.692       4.050       4.123       0.386       0.177       2.358      -0.000       3.645      55.775     820.000
   353.50     116.481       2.988       3.130       3.516       3.762       4.138       4.205       0.423       0.168       2.372       0.001       3.572      55.799     850.000
   353.00     127.507       2.988       3.188       3.595       3.856       4.252       4.313       0.405       0.166       2.376      -0.002       3.530      55.824     860.000
