~VERSION INFORMATION
VERS.           2.0   :CWLS Log ASCII Standard - VERSION 2.0
WRAP.           NO    :One Line per depth step
PROD.  Schlumberger   :LAS Producer
PROG.  DLIS to ASCII 9C2-303                           :LAS Program name and version
CREA.        2001/08/27 19:21                          :LAS Creation date {YYYY/MM/DD hh:mm}
SOURCE.     AIT_TLD_MCFL_CNL_015PUP.DLIS               :DLIS File Name
FILE-ID.     015                                       :File Identification Number
#--------------------------------------------------
~WELL INFORMATION
#MNEM.UNIT      DATA             DESCRIPTION
#---- ------ --------------   -----------------------------
STRT .F       1500.00        :START DEPTH     
STOP .F         63.50        :STOP DEPTH     
STEP .F         -0.50       :STEP     
NULL .          -999.25      :NULL VALUE
COMP .        DOUBLE EAGLE PETROLEUM                   :COMPANY
WELL .        COW CREEK UNIT 43-12                     :WELL
FLD  .        COW CREEK                                :FIELD
LOC  .        476' FEL & 1738' FSL                     :LOCATION
PROV .        CARBON                                   :PROVINCE
UWI  .        NE/SE                                    :UNIQUE WELL ID
LIC  .        4900721918                               :API NUMBER
CTRY .        CA                                       :COUNTRY (WWW code)
DATE .        27-Aug-2001                              :LOG DATE {DD-MMM-YYYY}
SRVC .        Schlumberger                             :SERVICE COMPANY
LATI .DEG     41.37037                                 :LATITUDE
LONG .DEG     -107.68952                               :LONGITUDE
GDAT .                                                 :GeoDetic Datum
 API .                                      4900721918 :API NUMBER
USGS.         E934                                     :USGS Number
UTM-N.        4583363.54                               :Northing
UTM-E.        275067.57                                :Easting
CORE.         N/A                                      :Core/Log Offset
#-----------------------------------------------------------------------------
~PARAMETER INFORMATION
#MNEM.UNIT    VALUE                      DESCRIPTION
#---- -----   --------------------       ------------------------
CN   .        DOUBLE EAGLE PETROLEUM     :Company Name
WN   .        COW CREEK UNIT 43-12       :Well Name
FN   .        COW CREEK                  :Field Name
FL   .        476' FEL & 1738' FSL       :Field Location
COUN .        CARBON                     :County or Rig Name
STAT .        WYOMING                    :State or Province
NATI .                                   :Nation
DATE .        27-Aug-2001                :Date as Month-Day-Year
APIN .        049-007-21918              :API Serial Number
UWID .                                   :Unique Well Identification Number
RUN  .          1                        :RUN NUMBER
PDAT .        GROUND LEVEL               :Permanent Datum
EREF .F         6716.000000              :Elevation of Permanent Datum above Mean Sea Level
DREF .          KELLY BUSHING            :Logging Measured From (Name of Logging Elevation Reference)
APD  .F          12.000000               :Elevation of Depth Reference (LMF) above Permanent Datum
#-----------------------------------------------------------------------------
~CURVE INFORMATION
#MNEM.UNIT   API CODE                                  DESCRIPTION
#---- -----  --------                                  -----------------------
DEPT .F                                                :DEPTH (BOREHOLE) {F9.2}
GR   .GAPI                                             :Gamma-Ray {F12.3}
HCAL .IN                                               :HRCC Cal. Caliper {F12.3}
AHT10.OHMM                                             :Array Induction Two Foot Resistivity A10 {F12.3}
AHT20.OHMM                                             :Array Induction Two Foot Resistivity A20 {F12.3}
AHT30.OHMM                                             :Array Induction Two Foot Resistivity A30 {F12.3}
AHT60.OHMM                                             :Array Induction Two Foot Resistivity A60 {F12.3}
AHT90.OHMM                                             :Array Induction Two Foot Resistivity A90 {F12.3}
NPOR .CFCF                                             :Enhanced Thermal Neutron Porosity {F12.3}
DPHZ .CFCF                                             :HRDD Standard Resolution Density Porosity {F12.3}
RHOZ .G/C3                                             :HRDD Standard Resolution Formation Density {F12.3}
HDRA .G/C3                                             :HRDD Density Correction {F12.3}
PEFZ .                                                 :HRDD Standard Resolution Formation Photoelectric Factor {F12.3}
IHV  .F3                                               :Integrated Hole Volume {F12.3}
TENS .LBF                                              :Cable Tension {F12.3}
#-----------------------------------------------------------------------------
# 
#    DEPT        GR         HCAL        AHT10       AHT20       AHT30       AHT60       AHT90       NPOR        DPHZ        RHOZ        HDRA        PEFZ         IHV        TENS
#
~A  
# ...
  1320.00      30.329       2.988      19.155      29.236      29.617      30.164      28.765       0.273       0.251       2.235       0.006       3.887       8.778    1175.000
  1319.50      27.573       2.988      19.270      28.777      30.287      32.027      30.236       0.294       0.251       2.235       0.001       3.516       8.802    1248.000
  1319.00      35.024       2.988      19.011      27.831      28.951      30.292      28.867       0.301       0.233       2.266      -0.002       3.133       8.826    1301.000
  1318.50      52.806       2.988      18.397      26.274      28.044      29.135      27.927       0.281       0.209       2.306      -0.003       2.841       8.851    1278.000
  1318.00      64.919       2.988      18.004      25.429      27.191      28.305      27.519       0.250       0.198       2.324      -0.006       2.663       8.875    1246.000
  1317.50      64.091       2.988      17.740      25.653      26.695      28.818      27.557       0.262       0.197       2.325      -0.008       2.644       8.899    1178.000
  1317.00      53.617       2.988      17.909      25.916      27.572      28.825      27.900       0.263       0.185       2.344      -0.006       2.808       8.924    1271.000
  1316.50      54.856       2.988      18.096      26.535      27.927      28.697      28.139       0.261       0.163       2.382      -0.000       3.113       8.948    1272.000
  1316.00      60.211       2.988      18.095      26.574      27.834      28.884      28.093       0.250       0.141       2.417       0.003       3.352       8.973    1198.000
  1315.50      68.230       2.988      17.873      26.451      27.353      28.571      27.788       0.256       0.129       2.437       0.004       3.485       8.997    1120.000
  1315.00      64.512       2.988      18.113      26.670      27.504      28.898      28.053       0.243       0.123       2.448       0.004       3.534       9.021    1175.000
  1314.50      62.306       2.988      18.783      27.485      28.192      29.815      29.000       0.238       0.120       2.452       0.004       3.633       9.046    1272.000
  1314.00      66.446       2.988      19.168      28.140      28.725      30.338      29.457       0.267       0.121       2.450       0.005       3.725       9.070    1264.000
  1313.50      68.941       2.988      18.544      27.312      28.177      30.091      29.123       0.261       0.136       2.426       0.002       3.748       9.094    1151.000
  1313.00      78.624       2.988      17.908      26.282      27.330      29.055      27.883       0.237       0.152       2.399       0.001       3.777       9.119    1197.000
  1312.50      68.661       2.988      18.265      26.383      27.280      28.762      27.444       0.232       0.161       2.384       0.008       3.945       9.143    1115.000
  1312.00      59.841       2.988      19.573      29.136      29.410      30.630      29.277       0.284       0.149       2.404       0.023       4.285       9.167    1112.000
  1311.50      54.045       2.988      20.543      31.280      31.378      32.475      30.937       0.269       0.135       2.428       0.038       4.541       9.192    1128.000
  1311.00      67.836       2.988      18.941      27.873      27.919      28.524      27.064       0.287       0.124       2.446       0.044       4.448       9.216    1098.000
  1310.50      85.319       2.988      17.689      25.137      25.474      25.763      24.992       0.279       0.113       2.464       0.044       4.074       9.240    1179.000
  1310.00      90.286       2.988      17.767      25.445      25.500      26.000      24.982       0.259       0.107       2.473       0.041       3.698       9.265    1220.000
  1309.50      82.568       2.988      18.193      26.190      26.218      26.305      25.745       0.243       0.117       2.456       0.032       3.561       9.289    1201.000
  1309.00      73.891       2.988      18.062      25.825      26.007      25.887      25.761       0.218       0.139       2.421       0.024       3.576       9.313    1258.000
  1308.50      66.689       2.988      17.928      25.196      25.732      25.996      25.662       0.229       0.155       2.394       0.015       3.570       9.338    1234.000
  1308.00      72.186       2.988      18.577      25.930      26.396      26.814      26.559       0.225       0.153       2.398       0.019       3.543       9.362    1204.000
  1307.50      69.748       2.988      19.211      26.815      27.609      28.300      27.701       0.234       0.144       2.413       0.027       3.589       9.386    1172.000
  1307.00      69.197       2.988      19.128      26.525      27.510      28.200      27.522       0.260       0.137       2.425       0.031       3.767       9.411    1148.000
  1306.50      74.214       2.988      17.984      24.051      24.651      25.369      24.606       0.277       0.132       2.432       0.031       4.027       9.435    1209.000
  1306.00      81.610       2.988      16.218      21.616      22.243      22.880      22.046       0.267       0.133       2.430       0.029       4.339       9.459    1129.000
  1305.50      87.123       2.988      15.152      19.786      20.413      21.025      20.162       0.248       0.143       2.414       0.029       4.725       9.484    1095.000
  1305.00      75.946       2.988      15.013      19.852      20.122      20.932      20.013       0.261       0.154       2.396       0.028       5.036       9.508    1099.000
  1304.50      69.349       2.988      15.783      21.600      21.922      22.403      21.801       0.266       0.163       2.381       0.027       5.054       9.532    1105.000
  1304.00      69.883       2.988      17.151      24.305      24.836      24.619      24.044       0.280       0.167       2.375       0.021       4.546       9.557    1135.000
  1303.50      78.337       2.988      17.835      26.280      26.667      26.931      26.547       0.280       0.163       2.381       0.013       3.774       9.581    1077.000
  1303.00      88.239       2.988      17.010      24.593      24.712      25.233      24.781       0.267       0.158       2.388       0.003       3.077       9.605    1128.000
  1302.50      91.601       2.988      15.628      21.342      21.364      22.290      22.247       0.289       0.147       2.407       0.001       2.777       9.630    1142.000
  1302.00      85.465       2.988      14.527      19.482      19.602      20.384      19.996       0.289       0.144       2.412      -0.000       2.872       9.654    1095.000
  1301.50      70.590       2.988      15.478      20.639      20.736      21.546      20.968       0.269       0.145       2.411       0.004       3.328       9.679    1123.000
  1301.00      57.873       2.988      17.140      24.127      24.596      26.027      25.194       0.303       0.184       2.346       0.008       3.913       9.703    1144.000
  1300.50      51.416       2.988      20.463      31.821      32.307      34.782      33.086       0.355       0.305       2.147       0.000       4.511       9.727    1185.000
  1300.00      43.978       2.988      25.232      45.711      46.328      51.205      47.192       0.435       0.482       1.855      -0.015       4.915       9.752    1197.000
  1299.50      36.811       2.988      34.680      68.711      65.130      74.236      69.875       0.530       0.600       1.659      -0.024       5.068       9.776    1208.000
  1299.00      38.053       2.988      40.195     109.404      98.726      97.071     110.532       0.597       0.564       1.720      -0.016       4.853       9.800    1221.000
  1298.50      51.689       2.988      41.512     121.145     135.580      98.564     135.703       0.423       0.401       1.988       0.009       4.550       9.825    1259.000
  1298.00      65.471       2.988      34.813      76.944      84.888      94.389      90.363       0.336       0.247       2.242       0.031       4.402       9.849    1239.000
