~VERSION INFORMATION
VERS.           2.0   :CWLS Log ASCII Standard - VERSION 2.0
WRAP.           NO    :One Line per depth step
PROD.  Schlumberger   :LAS Producer
PROG.  DLIS to ASCII 9C2-303                           :LAS Program name and version
CREA.        2001/08/27 19:21                          :LAS Creation date {YYYY/MM/DD hh:mm}
SOURCE.     AIT_TLD_MCFL_CNL_015PUP.DLIS               :DLIS File Name
FILE-ID.     015                                       :File Identification Number
#--------------------------------------------------
~WELL INFORMATION
#MNEM.UNIT      DATA             DESCRIPTION
#---- ------ --------------   -----------------------------
STRT .F       1500.00        :START DEPTH     
STOP .F         63.50        :STOP DEPTH     
STEP .F         -0.50       :STEP     
NULL .          -999.25      :NULL VALUE
COMP .        DOUBLE EAGLE PETROLEUM                   :COMPANY
WELL .        COW CREEK UNIT 43-12                     :WELL
FLD  .        COW CREEK                                :FIELD
LOC  .        476' FEL & 1738' FSL                     :LOCATION
PROV .        CARBON                                   :PROVINCE
UWI  .        NE/SE                                    :UNIQUE WELL ID
LIC  .        4900721918                               :API NUMBER
CTRY .        CA                                       :COUNTRY (WWW code)
DATE .        27-Aug-2001                              :LOG DATE {DD-MMM-YYYY}
SRVC .        Schlumberger                             :SERVICE COMPANY
LATI .DEG     41.37037                                 :LATITUDE
LONG .DEG     -107.68952                               :LONGITUDE
GDAT .                                                 :GeoDetic Datum
 API .                                      4900721918 :API NUMBER
USGS.         E934                                     :USGS Number
UTM-N.        4583363.54                               :Northing
UTM-E.        275067.57                                :Easting
CORE.         N/A                                      :Core/Log Offset
#-----------------------------------------------------------------------------
~PARAMETER INFORMATION
#MNEM.UNIT    VALUE                      DESCRIPTION
#---- -----   --------------------       ------------------------
CN   .        DOUBLE EAGLE PETROLEUM     :Company Name
WN   .        COW CREEK UNIT 43-12       :Well Name
FN   .        COW CREEK                  :Field Name
FL   .        476' FEL & 1738' FSL       :Field Location
COUN .        CARBON                     :County or Rig Name
STAT .        WYOMING                    :State or Province
NATI .                                   :Nation
DATE .        27-Aug-2001                :Date as Month-Day-Year
APIN .        049-007-21918              :API Serial Number
UWID .                                   :Unique Well Identification Number
RUN  .          1                        :RUN NUMBER
PDAT .        GROUND LEVEL               :Permanent Datum
EREF .F         6716.000000              :Elevation of Permanent Datum above Mean Sea Level
DREF .          KELLY BUSHING            :Logging Measured From (Name of Logging Elevation Reference)
APD  .F          12.000000               :Elevation of Depth Reference (LMF) above Permanent Datum
#-----------------------------------------------------------------------------
~CURVE INFORMATION
#MNEM.UNIT   API CODE                                  DESCRIPTION
#---- -----  --------                                  -----------------------
DEPT .F                                                :DEPTH (BOREHOLE) {F9.2}
GR   .GAPI                                             :Gamma-Ray {F12.3}
HCAL .IN                                               :HRCC Cal. Caliper {F12.3}
AHT10.OHMM                                             :Array Induction Two Foot Resistivity A10 {F12.3}
AHT20.OHMM                                             :Array Induction Two Foot Resistivity A20 {F12.3}
AHT30.OHMM                                             :Array Induction Two Foot Resistivity A30 {F12.3}
AHT60.OHMM                                             :Array Induction Two Foot Resistivity A60 {F12.3}
AHT90.OHMM                                             :Array Induction Two Foot Resistivity A90 {F12.3}
NPOR .CFCF                                             :Enhanced Thermal Neutron Porosity {F12.3}
DPHZ .CFCF                                             :HRDD Standard Resolution Density Porosity {F12.3}
RHOZ .G/C3                                             :HRDD Standard Resolution Formation Density {F12.3}
HDRA .G/C3                                             :HRDD Density Correction {F12.3}
PEFZ .                                                 :HRDD Standard Resolution Formation Photoelectric Factor {F12.3}
IHV  .F3                                               :Integrated Hole Volume {F12.3}
TENS .LBF                                              :Cable Tension {F12.3}
#-----------------------------------------------------------------------------
# 
#    DEPT        GR         HCAL        AHT10       AHT20       AHT30       AHT60       AHT90       NPOR        DPHZ        RHOZ        HDRA        PEFZ         IHV        TENS
#
~A  
# ...
   937.50      92.775       2.988       7.207       8.572       8.883       9.537       9.542       0.326       0.111       2.467       0.003       3.384      27.382    1105.000
   937.00      85.738       2.965       6.999       8.250       8.734       9.373       9.597       0.308       0.108       2.471       0.004       3.375      27.406    1128.000
   936.50      91.959       2.988       6.453       7.541       7.879       8.438       8.582       0.300       0.105       2.476       0.009       3.343      27.430    1129.000
   936.00      95.111       2.988       6.294       7.288       7.650       8.232       8.442       0.291       0.103       2.481       0.009       3.262      27.455    1123.000
   935.50     104.125       2.988       6.278       7.348       7.695       8.345       8.491       0.304       0.099       2.486       0.006       3.185      27.479    1152.000
   935.00      95.837       2.988       6.231       7.300       7.663       8.266       8.480       0.309       0.095       2.493      -0.003       3.141      27.504    1110.000
   934.50      98.199       2.988       6.133       7.183       7.557       8.166       8.372       0.307       0.089       2.503      -0.008       3.200      27.528    1086.000
   934.00      90.787       2.988       6.076       7.066       7.428       8.019       8.194       0.317       0.089       2.502      -0.011       3.378      27.552    1133.000
   933.50     103.038       2.988       5.923       6.834       7.192       7.731       7.852       0.330       0.080       2.518       0.001       3.712      27.577    1105.000
   933.00      97.371       2.988       5.742       6.589       6.958       7.486       7.559       0.343       0.077       2.523       0.010       4.018      27.601    1035.000
   932.50      99.181       2.988       5.713       6.502       6.818       7.324       7.370       0.346       0.082       2.515       0.014       4.098      27.625    1135.000
   932.00      84.915       2.988       5.771       6.496       6.741       7.196       7.231       0.353       0.104       2.478       0.008       3.891      27.650    1134.000
   931.50      95.245       2.988       5.412       6.147       6.404       6.783       6.777       0.358       0.119       2.453       0.004       3.613      27.674    1115.000
   931.00      93.040       2.988       4.938       5.541       5.752       6.093       6.059       0.353       0.118       2.456       0.007       3.469      27.698    1205.000
   930.50      96.352       2.988       4.721       5.293       5.494       5.803       5.782       0.362       0.108       2.471       0.006       3.462      27.723    1182.000
   930.00      94.997       2.988       4.853       5.375       5.552       5.833       5.835       0.360       0.098       2.489       0.002       3.490      27.747    1204.000
   929.50      98.758       2.988       5.112       5.724       5.907       6.224       6.176       0.353       0.094       2.495      -0.003       3.513      27.771    1160.000
   929.00     105.103       2.988       5.423       6.057       6.243       6.623       6.614       0.343       0.098       2.489      -0.003       3.529      27.796    1104.000
   928.50     100.318       2.988       5.490       6.169       6.342       6.683       6.701       0.351       0.109       2.471      -0.003       3.520      27.820    1084.000
   928.00     108.936       2.988       5.248       5.886       6.041       6.376       6.434       0.363       0.117       2.456      -0.004       3.500      27.844    1047.000
   927.50     110.781       2.988       4.862       5.493       5.677       5.988       6.063       0.352       0.120       2.451      -0.005       3.518      27.869    1035.000
   927.00     119.813       2.988       4.655       5.264       5.470       5.766       5.867       0.351       0.116       2.459       0.001       3.674      27.893    1046.000
   926.50     112.947       2.988       4.754       5.258       5.432       5.730       5.844       0.328       0.110       2.469       0.015       3.949      27.917    1039.000
   926.00     110.139       2.988       4.951       5.415       5.613       5.953       6.050       0.325       0.106       2.475       0.029       4.260      27.942    1030.000
   925.50     118.571       2.988       5.008       5.402       5.616       5.956       6.027       0.330       0.112       2.465       0.033       4.509      27.966    1058.000
   925.00     117.172       2.988       4.825       5.183       5.345       5.666       5.720       0.338       0.114       2.463       0.034       4.762      27.990    1102.000
   924.50     119.656       2.988       4.531       4.921       5.126       5.466       5.427       0.351       0.084       2.511       0.048       5.120      28.015    1151.000
   924.00     102.015       2.988       4.300       4.674       4.860       5.145       5.164       0.331       0.046       2.573       0.069       5.518      28.039    1036.000
   923.50     102.015       2.988       4.439       4.812       4.953       5.233       5.238       0.318       0.032       2.597       0.077       5.627      28.063    1177.000
   923.00     101.140       2.988       5.006       5.526       5.644       5.936       5.909       0.334       0.078       2.522       0.053       5.215      28.088    1180.000
   922.50     113.736       2.988       5.282       5.904       5.959       6.286       6.288       0.378       0.117       2.457       0.028       4.595      28.112    1155.000
   922.00     119.544       2.988       4.811       5.327       5.477       5.717       5.739       0.401       0.130       2.435       0.013       4.122      28.136    1087.000
   921.50     114.149       2.988       4.307       4.990       5.196       5.475       5.548       0.364       0.117       2.457       0.010       3.951      28.161    1203.000
   921.00     115.999       2.988       4.345       4.785       4.868       5.163       5.195       0.372       0.121       2.451       0.001       3.869      28.185    1182.000
   920.50     115.976       2.988       4.477       4.788       4.994       5.281       5.407       0.384       0.132       2.432      -0.006       3.810      28.210    1134.000
   920.00     121.760       2.988       4.402       4.820       4.925       5.187       5.370       0.394       0.136       2.425      -0.006       3.866      28.234    1109.000
   919.50     116.786       2.988       4.314       4.688       4.865       5.136       5.327       0.405       0.129       2.437       0.001       4.073      28.258    1104.000
   919.00     119.015       2.988       4.242       4.628       4.769       5.041       5.248       0.385       0.125       2.444       0.008       4.312      28.283    1076.000
   918.50     119.842       2.988       4.214       4.586       4.767       5.061       5.218       0.391       0.127       2.440       0.016       4.464      28.307    1089.000
   918.00     117.583       2.988       4.120       4.465       4.630       4.884       5.003       0.379       0.132       2.432       0.020       4.531      28.331    1073.000
   917.50     121.994       2.988       3.975       4.282       4.471       4.716       4.782       0.367       0.128       2.439       0.029       4.692      28.356    1056.000
   917.00     116.622       2.988       3.972       4.266       4.451       4.704       4.712       0.351       0.105       2.476       0.049       5.000      28.380    1054.000
   916.50     116.023       2.988       4.292       4.644       4.852       5.143       5.084       0.360       0.097       2.490       0.065       5.392      28.404    1046.000
   916.00     106.558       2.988       4.638       5.040       5.278       5.555       5.432       0.347       0.105       2.477       0.069       5.566      28.429    1082.000
   915.50     102.995       2.988       4.951       5.399       5.666       5.985       5.766       0.333       0.133       2.430       0.048       5.258      28.453    1085.000
