~VERSION INFORMATION
VERS.           2.0   :CWLS Log ASCII Standard - VERSION 2.0
WRAP.           NO    :One Line per depth step
PROD.  Schlumberger   :LAS Producer
PROG.  DLIS to ASCII 9C2-303                           :LAS Program name and version
CREA.        2001/08/27 19:21                          :LAS Creation date {YYYY/MM/DD hh:mm}
SOURCE.     AIT_TLD_MCFL_CNL_015PUP.DLIS               :DLIS File Name
FILE-ID.     015                                       :File Identification Number
#--------------------------------------------------
~WELL INFORMATION
#MNEM.UNIT      DATA             DESCRIPTION
#---- ------ --------------   -----------------------------
STRT .F       1500.00        :START DEPTH     
STOP .F         63.50        :STOP DEPTH     
STEP .F         -0.50       :STEP     
NULL .          -999.25      :NULL VALUE
COMP .        DOUBLE EAGLE PETROLEUM                   :COMPANY
WELL .        COW CREEK UNIT 43-12                     :WELL
FLD  .        COW CREEK                                :FIELD
LOC  .        476' FEL & 1738' FSL                     :LOCATION
PROV .        CARBON                                   :PROVINCE
UWI  .        NE/SE                                    :UNIQUE WELL ID
LIC  .        4900721918                               :API NUMBER
CTRY .        CA                                       :COUNTRY (WWW code)
DATE .        27-Aug-2001                              :LOG DATE {DD-MMM-YYYY}
SRVC .        Schlumberger                             :SERVICE COMPANY
LATI .DEG     41.37037                                 :LATITUDE
LONG .DEG     -107.68952                               :LONGITUDE
GDAT .                                                 :GeoDetic Datum
 API .                                      4900721918 :API NUMBER
USGS.         E934                                     :USGS Number
UTM-N.        4583363.54                               :Northing
UTM-E.        275067.57                                :Easting
CORE.         N/A                                      :Core/Log Offset
#-----------------------------------------------------------------------------
~PARAMETER INFORMATION
#MNEM.UNIT    VALUE                      DESCRIPTION
#---- -----   --------------------       ------------------------
CN   .        DOUBLE EAGLE PETROLEUM     :Company Name
WN   .        COW CREEK UNIT 43-12       :Well Name
FN   .        COW CREEK                  :Field Name
FL   .        476' FEL & 1738' FSL       :Field Location
COUN .        CARBON                     :County or Rig Name
STAT .        WYOMING                    :State or Province
NATI .                                   :Nation
DATE .        27-Aug-2001                :Date as Month-Day-Year
APIN .        049-007-21918              :API Serial Number
UWID .                                   :Unique Well Identification Number
RUN  .          1                        :RUN NUMBER
PDAT .        GROUND LEVEL               :Permanent Datum
EREF .F         6716.000000              :Elevation of Permanent Datum above Mean Sea Level
DREF .          KELLY BUSHING            :Logging Measured From (Name of Logging Elevation Reference)
APD  .F          12.000000               :Elevation of Depth Reference (LMF) above Permanent Datum
#-----------------------------------------------------------------------------
~CURVE INFORMATION
#MNEM.UNIT   API CODE                                  DESCRIPTION
#---- -----  --------                                  -----------------------
DEPT .F                                                :DEPTH (BOREHOLE) {F9.2}
GR   .GAPI                                             :Gamma-Ray {F12.3}
HCAL .IN                                               :HRCC Cal. Caliper {F12.3}
AHT10.OHMM                                             :Array Induction Two Foot Resistivity A10 {F12.3}
AHT20.OHMM                                             :Array Induction Two Foot Resistivity A20 {F12.3}
AHT30.OHMM                                             :Array Induction Two Foot Resistivity A30 {F12.3}
AHT60.OHMM                                             :Array Induction Two Foot Resistivity A60 {F12.3}
AHT90.OHMM                                             :Array Induction Two Foot Resistivity A90 {F12.3}
NPOR .CFCF                                             :Enhanced Thermal Neutron Porosity {F12.3}
DPHZ .CFCF                                             :HRDD Standard Resolution Density Porosity {F12.3}
RHOZ .G/C3                                             :HRDD Standard Resolution Formation Density {F12.3}
HDRA .G/C3                                             :HRDD Density Correction {F12.3}
PEFZ .                                                 :HRDD Standard Resolution Formation Photoelectric Factor {F12.3}
IHV  .F3                                               :Integrated Hole Volume {F12.3}
TENS .LBF                                              :Cable Tension {F12.3}
#-----------------------------------------------------------------------------
# 
#    DEPT        GR         HCAL        AHT10       AHT20       AHT30       AHT60       AHT90       NPOR        DPHZ        RHOZ        HDRA        PEFZ         IHV        TENS
#
~A  
# ...
  1027.50      84.499       2.988       7.957       9.494       9.384       9.467       9.832       0.322       0.164       2.380       0.034       3.245      23.004    1090.000
  1027.00      81.743       2.965       8.579      10.073      10.366      10.432      10.756       0.405       0.188       2.341       0.021       3.109      23.028    1101.000
  1026.50      80.917       2.988       8.802      10.430      10.835      11.213      11.476       0.377       0.208       2.308       0.002       2.991      23.052    1074.000
  1026.00      79.292       2.965       8.955      10.547      10.890      11.543      11.589       0.301       0.208       2.306      -0.007       2.931      23.076    1117.000
  1025.50      72.801       2.988       9.627      11.336      11.839      12.438      12.414       0.272       0.201       2.318      -0.001       3.059      23.101    1165.000
  1025.00      76.815       2.988      11.668      13.776      13.926      14.764      14.575       0.304       0.190       2.336       0.017       3.408      23.125    1118.000
  1024.50      80.095       2.988      12.204      15.951      16.442      17.324      16.887       0.381       0.180       2.352       0.032       3.866      23.149    1058.000
  1024.00      92.099       2.988      10.001      12.350      12.651      13.196      12.759       0.384       0.182       2.350       0.033       4.163      23.174    1097.000
  1023.50      92.631       2.988       8.591      10.720      10.904      11.303      11.162       0.394       0.194       2.330       0.021       4.120      23.198    1149.000
  1023.00     100.910       2.988       8.297      10.173      10.102      10.674      10.441       0.354       0.204       2.314       0.010       3.797      23.222    1171.000
  1022.50      95.949       2.988       8.521      10.212      10.394      10.867      10.695       0.320       0.193       2.331       0.006       3.412      23.247    1152.000
  1022.00      95.949       2.988       9.841      12.122      12.605      13.173      13.015       0.280       0.178       2.356       0.007       3.186      23.271    1185.000
  1021.50      82.672       2.988      12.760      16.063      16.550      17.314      16.869       0.240       0.168       2.372       0.002       3.103      23.295    1101.000
  1021.00      78.154       2.988      16.471      21.136      21.489      22.478      21.722       0.250       0.175       2.362      -0.002       3.164      23.320    1118.000
  1020.50      68.250       2.988      18.798      25.196      25.822      27.251      26.345       0.260       0.194       2.329      -0.002       3.285      23.344    1154.000
  1020.00      66.170       2.988      19.790      27.381      28.441      29.893      28.148       0.320       0.237       2.259       0.005       3.590      23.369    1155.000
  1019.50      69.068       2.988      19.877      27.918      27.016      27.670      27.158       0.473       0.274       2.197       0.014       4.054      23.393    1136.000
  1019.00      85.055       2.988      17.372      24.279      23.326      24.019      22.933       0.495       0.267       2.209       0.033       4.563      23.417    1121.000
  1018.50      95.444       2.988      12.102      15.183      15.384      15.693      15.199       0.389       0.213       2.299       0.052       4.863      23.442    1141.000
  1018.00      98.167       2.988       8.490      10.339      10.256      10.436      10.334       0.320       0.148       2.406       0.066       4.913      23.466    1118.000
  1017.50      89.191       2.988       6.908       8.043       7.857       7.935       7.936       0.315       0.111       2.467       0.063       4.873      23.490    1132.000
  1017.00      86.707       2.988       7.619       8.651       8.599       8.704       8.793       0.313       0.107       2.474       0.045       4.799      23.515    1071.000
  1016.50      87.258       2.988       9.339      10.941      11.163      11.134      11.388       0.278       0.119       2.453       0.024       4.621      23.539    1043.000
  1016.00      76.928       2.988      11.374      13.308      13.436      14.033      13.817       0.273       0.131       2.434       0.012       4.421      23.563    1043.000
  1015.50      81.027       2.988      12.584      14.912      15.296      15.764      15.636       0.296       0.138       2.423       0.016       4.327      23.588    1118.000
  1015.00      75.268       2.988      12.888      15.221      15.737      16.420      16.175       0.327       0.136       2.426       0.028       4.422      23.612    1110.000
  1014.50      90.715       2.988      12.298      14.846      15.660      16.629      16.152       0.297       0.141       2.418       0.038       4.577      23.636    1128.000
  1014.00      86.150       2.988      12.071      14.791      15.659      16.832      16.139       0.294       0.144       2.413       0.039       4.711      23.661    1115.000
  1013.50      87.806       2.988      13.248      16.392      17.056      18.295      17.670       0.290       0.159       2.388       0.028       4.807      23.685    1078.000
  1013.00      75.126       2.988      14.369      18.047      18.824      19.808      18.983       0.312       0.162       2.383       0.014       4.811      23.709    1086.000
  1012.50      70.994       2.988      15.313      19.614      20.616      21.908      21.002       0.242       0.134       2.430       0.007       4.753      23.734    1077.000
  1012.00      59.697       2.988      17.191      22.550      24.145      25.738      24.481       0.174       0.078       2.521       0.007       4.676      23.758    1128.000
  1011.50      51.144       2.988      22.221      30.726      33.082      35.730      33.827       0.119       0.036       2.591       0.005       4.715      23.782    1129.000
  1011.00      39.996       2.988      32.098      52.688      52.569      57.310      52.956       0.115       0.044       2.578      -0.002       4.886      23.807    1139.000
  1010.50      42.600       2.988      41.262      79.622      71.585      69.623      75.450       0.197       0.092       2.498      -0.010       4.999      23.831    1155.000
  1010.00      55.011       2.988      37.532      68.958      67.705      66.282      69.707       0.283       0.159       2.388      -0.017       4.942      23.855    1151.000
  1009.50      59.135       2.988      27.433      41.432      45.438      49.801      46.408       0.299       0.207       2.309      -0.019       4.634      23.880    1124.000
  1009.00      60.906       2.988      20.505      29.589      31.841      33.214      31.512       0.313       0.232       2.267      -0.019       4.267      23.904    1164.000
  1008.50      55.969       2.988      17.967      23.908      24.882      25.725      24.785       0.312       0.234       2.264      -0.014       3.965      23.928    1158.000
  1008.00      56.795       2.988      17.596      23.023      23.805      23.973      23.325       0.291       0.255       2.230      -0.015       3.761      23.953    1105.000
  1007.50      55.693       2.988      17.573      23.163      24.003      24.416      24.086       0.315       0.311       2.137      -0.020       3.668      23.977    1092.000
  1007.00      56.935       2.988      17.992      23.287      23.860      24.380      24.421       0.514       0.358       2.060      -0.017       3.758      24.002    1111.000
  1006.50      63.010       2.988      18.065      23.279      23.157      23.709      23.765       0.593       0.343       2.084      -0.007       4.030      24.026    1108.000
  1006.00      76.772       2.988      15.308      19.982      20.319      20.303      20.589       0.422       0.253       2.233       0.011       4.309      24.050    1118.000
  1005.50      83.396       2.988      11.322      14.094      14.375      14.627      14.871       0.319       0.176       2.360       0.010       4.275      24.075    1102.000
