~VERSION INFORMATION
VERS.           2.0   :CWLS Log ASCII Standard - VERSION 2.0
WRAP.           NO    :One Line per depth step
PROD.  Schlumberger   :LAS Producer
PROG.  DLIS to ASCII 9C2-303                           :LAS Program name and version
CREA.        2001/08/27 19:21                          :LAS Creation date {YYYY/MM/DD hh:mm}
SOURCE.     AIT_TLD_MCFL_CNL_015PUP.DLIS               :DLIS File Name
FILE-ID.     015                                       :File Identification Number
#--------------------------------------------------
~WELL INFORMATION
#MNEM.UNIT      DATA             DESCRIPTION
#---- ------ --------------   -----------------------------
STRT .F       1500.00        :START DEPTH     
STOP .F         63.50        :STOP DEPTH     
STEP .F         -0.50       :STEP     
NULL .          -999.25      :NULL VALUE
COMP .        DOUBLE EAGLE PETROLEUM                   :COMPANY
WELL .        COW CREEK UNIT 43-12                     :WELL
FLD  .        COW CREEK                                :FIELD
LOC  .        476' FEL & 1738' FSL                     :LOCATION
PROV .        CARBON                                   :PROVINCE
UWI  .        NE/SE                                    :UNIQUE WELL ID
LIC  .        4900721918                               :API NUMBER
CTRY .        CA                                       :COUNTRY (WWW code)
DATE .        27-Aug-2001                              :LOG DATE {DD-MMM-YYYY}
SRVC .        Schlumberger                             :SERVICE COMPANY
LATI .DEG     41.37037                                 :LATITUDE
LONG .DEG     -107.68952                               :LONGITUDE
GDAT .                                                 :GeoDetic Datum
 API .                                      4900721918 :API NUMBER
USGS.         E934                                     :USGS Number
UTM-N.        4583363.54                               :Northing
UTM-E.        275067.57                                :Easting
CORE.         N/A                                      :Core/Log Offset
#-----------------------------------------------------------------------------
~PARAMETER INFORMATION
#MNEM.UNIT    VALUE                      DESCRIPTION
#---- -----   --------------------       ------------------------
CN   .        DOUBLE EAGLE PETROLEUM     :Company Name
WN   .        COW CREEK UNIT 43-12       :Well Name
FN   .        COW CREEK                  :Field Name
FL   .        476' FEL & 1738' FSL       :Field Location
COUN .        CARBON                     :County or Rig Name
STAT .        WYOMING                    :State or Province
NATI .                                   :Nation
DATE .        27-Aug-2001                :Date as Month-Day-Year
APIN .        049-007-21918              :API Serial Number
UWID .                                   :Unique Well Identification Number
RUN  .          1                        :RUN NUMBER
PDAT .        GROUND LEVEL               :Permanent Datum
EREF .F         6716.000000              :Elevation of Permanent Datum above Mean Sea Level
DREF .          KELLY BUSHING            :Logging Measured From (Name of Logging Elevation Reference)
APD  .F          12.000000               :Elevation of Depth Reference (LMF) above Permanent Datum
#-----------------------------------------------------------------------------
~CURVE INFORMATION
#MNEM.UNIT   API CODE                                  DESCRIPTION
#---- -----  --------                                  -----------------------
DEPT .F                                                :DEPTH (BOREHOLE) {F9.2}
GR   .GAPI                                             :Gamma-Ray {F12.3}
HCAL .IN                                               :HRCC Cal. Caliper {F12.3}
AHT10.OHMM                                             :Array Induction Two Foot Resistivity A10 {F12.3}
AHT20.OHMM                                             :Array Induction Two Foot Resistivity A20 {F12.3}
AHT30.OHMM                                             :Array Induction Two Foot Resistivity A30 {F12.3}
AHT60.OHMM                                             :Array Induction Two Foot Resistivity A60 {F12.3}
AHT90.OHMM                                             :Array Induction Two Foot Resistivity A90 {F12.3}
NPOR .CFCF                                             :Enhanced Thermal Neutron Porosity {F12.3}
DPHZ .CFCF                                             :HRDD Standard Resolution Density Porosity {F12.3}
RHOZ .G/C3                                             :HRDD Standard Resolution Formation Density {F12.3}
HDRA .G/C3                                             :HRDD Density Correction {F12.3}
PEFZ .                                                 :HRDD Standard Resolution Formation Photoelectric Factor {F12.3}
IHV  .F3                                               :Integrated Hole Volume {F12.3}
TENS .LBF                                              :Cable Tension {F12.3}
#-----------------------------------------------------------------------------
# 
#    DEPT        GR         HCAL        AHT10       AHT20       AHT30       AHT60       AHT90       NPOR        DPHZ        RHOZ        HDRA        PEFZ         IHV        TENS
#
~A  
# ...
  1117.50      97.220       2.988      10.720      13.232      13.681      14.097      14.146       0.279       0.120       2.452       0.017       4.261      18.626    1095.000
  1117.00      94.835       2.965      11.149      13.505      13.948      14.173      14.288       0.305       0.135       2.427       0.003       3.738      18.650    1135.000
  1116.50      95.820       2.988      11.588      14.047      13.888      14.047      14.144       0.311       0.153       2.398      -0.004       3.299      18.674    1149.000
  1116.00     100.207       2.988      10.070      12.272      12.500      12.717      12.978       0.298       0.203       2.315      -0.012       2.872      18.699    1171.000
  1115.50     106.925       2.988       8.703      10.703      11.061      11.278      11.439       0.414       0.320       2.123      -0.018       2.459      18.723    1091.000
  1115.00      87.786       2.988       8.920      10.570      10.680      10.827      10.982       0.647       0.457       1.896      -0.018       2.322      18.747    1058.000
  1114.50      65.886       2.988      11.283      13.972      14.631      14.982      15.045       0.709       0.507       1.814      -0.007       2.513      18.772    1104.000
  1114.00      63.130       2.988      15.430      21.133      22.439      22.990      22.926       0.493       0.402       1.987       0.017       2.989      18.796    1105.000
  1113.50      83.828       2.988      15.708      21.242      21.712      23.094      22.863       0.377       0.244       2.248       0.027       3.326      18.820    1142.000
  1113.00      91.418       2.988      12.819      16.142      17.334      18.283      17.950       0.325       0.145       2.411       0.027       3.509      18.845    1087.000
  1112.50      88.644       2.988      12.333      15.046      16.009      17.681      16.964       0.302       0.139       2.420       0.013       3.424      18.869    1078.000
  1112.00      73.326       2.988      13.204      16.244      17.547      18.618      17.996       0.291       0.165       2.378       0.003       3.232      18.893    1141.000
  1111.50      67.814       2.988      13.339      17.028      17.878      18.605      18.063       0.257       0.178       2.357      -0.001       3.075      18.918    1159.000
  1111.00      60.376       2.965      13.344      17.613      18.466      18.473      18.022       0.262       0.185       2.345      -0.001       3.027      18.942    1116.000
  1110.50      66.480       2.988      14.768      19.295      20.316      20.741      19.970       0.333       0.203       2.315       0.000       3.131      18.966    1054.000
  1110.00      78.038       2.988      16.022      20.143      19.356      19.447      19.407       0.462       0.226       2.277       0.002       3.392      18.990    1060.000
  1109.50      87.955       2.988      12.592      15.706      15.567      15.786      15.764       0.504       0.225       2.279       0.010       3.760      19.015    1047.000
  1109.00      87.403       2.988       9.148      11.112      11.321      11.574      11.595       0.393       0.194       2.331       0.013       4.033      19.039    1017.000
  1108.50      83.684       2.988       8.188       9.913      10.158      10.453      10.500       0.274       0.157       2.391       0.011       4.030      19.064    1008.000
  1108.00      72.403       2.988      10.253      12.249      12.307      12.572      12.680       0.241       0.144       2.412       0.002       3.802      19.088    1015.000
  1107.50      74.303       2.988      14.793      18.775      18.095      18.651      18.731       0.278       0.158       2.390      -0.002       3.524      19.112    1035.000
  1107.00      81.740       2.988      17.425      24.310      23.463      24.630      24.522       0.332       0.191       2.335       0.001       3.283      19.137    1021.000
  1106.50      95.522       2.988      14.002      18.172      18.689      19.564      19.320       0.385       0.272       2.202      -0.006       2.898      19.161    1084.000
  1106.00      95.936       2.988       9.786      12.007      12.355      13.125      12.737       0.485       0.401       1.989      -0.014       2.429      19.185    1109.000
  1105.50      81.211       2.988       8.567      10.230      10.602      11.142      10.926       0.685       0.544       1.752      -0.016       2.224      19.210    1070.000
  1105.00      71.272       2.988      10.221      12.504      12.781      13.265      12.997       0.728       0.595       1.668      -0.003       2.305      19.234    1077.000
  1104.50      69.446       2.988      15.043      19.279      19.755      20.851      19.972       0.588       0.563       1.722       0.001       2.573      19.258    1041.000
  1104.00      74.713       2.988      15.926      20.449      23.262      24.475      23.337       0.513       0.525       1.784      -0.006       2.846      19.283    1079.000
  1103.50      74.728       2.988      13.468      16.626      17.544      18.839      17.719       0.610       0.541       1.758      -0.014       3.269      19.307    1111.000
  1103.00      73.610       2.988      14.627      18.063      18.325      19.456      18.546       0.648       0.525       1.784      -0.006       3.734      19.331    1096.000
  1102.50      87.272       2.965      19.204      25.364      23.909      23.868      23.216       0.492       0.412       1.970       0.014       4.042      19.355    1052.000
  1102.00      91.130       2.988      15.467      22.001      22.059      22.377      21.404       0.393       0.264       2.214       0.028       4.248      19.380    1077.000
  1101.50      95.731       2.988      10.314      13.837      14.101      14.410      14.101       0.346       0.168       2.373       0.032       4.450      19.404    1071.000
  1101.00      86.174       2.988       8.501      11.268      11.158      11.402      11.245       0.366       0.144       2.412       0.026       4.636      19.428    1089.000
  1100.50      88.498       2.988       9.226      11.416      11.148      11.624      11.514       0.349       0.148       2.406       0.021       4.679      19.453    1017.000
  1100.00      93.879       2.988       9.625      11.590      11.657      11.879      11.864       0.340       0.148       2.406       0.024       4.612      19.477    1020.000
  1099.50      98.290       2.988       9.859      11.405      11.768      12.053      12.154       0.322       0.140       2.420       0.035       4.598      19.501    1082.000
  1099.00      94.158       2.988       9.905      11.787      12.228      13.012      12.805       0.277       0.128       2.438       0.054       4.648      19.526     985.000
  1098.50      80.884       2.988      11.021      13.284      14.155      15.612      15.019       0.271       0.138       2.422       0.052       4.546      19.550    1006.000
  1098.00      71.541       2.988      12.367      15.324      16.758      17.771      17.187       0.262       0.155       2.394       0.033       4.173      19.574    1072.000
  1097.50      74.433       2.965      14.436      19.252      20.818      21.677      20.888       0.279       0.166       2.376       0.011       3.743      19.598    1005.000
  1097.00      93.728       2.988      15.448      21.251      21.924      23.510      22.331       0.310       0.172       2.367       0.005       3.530      19.623     997.000
  1096.50      96.626       2.988      14.682      20.241      20.659      21.552      20.452       0.361       0.179       2.355       0.007       3.588      19.647     999.000
  1096.00      93.337       2.988      13.203      17.231      17.235      18.202      17.051       0.387       0.181       2.351       0.011       3.776      19.671    1041.000
  1095.50      87.251       2.988      11.604      14.648      14.554      15.326      14.616       0.374       0.166       2.377       0.018       4.008      19.696    1066.000
