~VERSION INFORMATION
VERS.           2.0   :CWLS Log ASCII Standard - VERSION 2.0
WRAP.           NO    :One Line per depth step
PROD.  Schlumberger   :LAS Producer
PROG.  DLIS to ASCII 9C2-303                           :LAS Program name and version
CREA.        2001/08/27 19:21                          :LAS Creation date {YYYY/MM/DD hh:mm}
SOURCE.     AIT_TLD_MCFL_CNL_015PUP.DLIS               :DLIS File Name
FILE-ID.     015                                       :File Identification Number
#--------------------------------------------------
~WELL INFORMATION
#MNEM.UNIT      DATA             DESCRIPTION
#---- ------ --------------   -----------------------------
STRT .F       1500.00        :START DEPTH     
STOP .F         63.50        :STOP DEPTH     
STEP .F         -0.50       :STEP     
NULL .          -999.25      :NULL VALUE
COMP .        DOUBLE EAGLE PETROLEUM                   :COMPANY
WELL .        COW CREEK UNIT 43-12                     :WELL
FLD  .        COW CREEK                                :FIELD
LOC  .        476' FEL & 1738' FSL                     :LOCATION
PROV .        CARBON                                   :PROVINCE
UWI  .        NE/SE                                    :UNIQUE WELL ID
LIC  .        4900721918                               :API NUMBER
CTRY .        CA                                       :COUNTRY (WWW code)
DATE .        27-Aug-2001                              :LOG DATE {DD-MMM-YYYY}
SRVC .        Schlumberger                             :SERVICE COMPANY
LATI .DEG     41.37037                                 :LATITUDE
LONG .DEG     -107.68952                               :LONGITUDE
GDAT .                                                 :GeoDetic Datum
 API .                                      4900721918 :API NUMBER
USGS.         E934                                     :USGS Number
UTM-N.        4583363.54                               :Northing
UTM-E.        275067.57                                :Easting
CORE.         N/A                                      :Core/Log Offset
#-----------------------------------------------------------------------------
~PARAMETER INFORMATION
#MNEM.UNIT    VALUE                      DESCRIPTION
#---- -----   --------------------       ------------------------
CN   .        DOUBLE EAGLE PETROLEUM     :Company Name
WN   .        COW CREEK UNIT 43-12       :Well Name
FN   .        COW CREEK                  :Field Name
FL   .        476' FEL & 1738' FSL       :Field Location
COUN .        CARBON                     :County or Rig Name
STAT .        WYOMING                    :State or Province
NATI .                                   :Nation
DATE .        27-Aug-2001                :Date as Month-Day-Year
APIN .        049-007-21918              :API Serial Number
UWID .                                   :Unique Well Identification Number
RUN  .          1                        :RUN NUMBER
PDAT .        GROUND LEVEL               :Permanent Datum
EREF .F         6716.000000              :Elevation of Permanent Datum above Mean Sea Level
DREF .          KELLY BUSHING            :Logging Measured From (Name of Logging Elevation Reference)
APD  .F          12.000000               :Elevation of Depth Reference (LMF) above Permanent Datum
#-----------------------------------------------------------------------------
~CURVE INFORMATION
#MNEM.UNIT   API CODE                                  DESCRIPTION
#---- -----  --------                                  -----------------------
DEPT .F                                                :DEPTH (BOREHOLE) {F9.2}
GR   .GAPI                                             :Gamma-Ray {F12.3}
HCAL .IN                                               :HRCC Cal. Caliper {F12.3}
AHT10.OHMM                                             :Array Induction Two Foot Resistivity A10 {F12.3}
AHT20.OHMM                                             :Array Induction Two Foot Resistivity A20 {F12.3}
AHT30.OHMM                                             :Array Induction Two Foot Resistivity A30 {F12.3}
AHT60.OHMM                                             :Array Induction Two Foot Resistivity A60 {F12.3}
AHT90.OHMM                                             :Array Induction Two Foot Resistivity A90 {F12.3}
NPOR .CFCF                                             :Enhanced Thermal Neutron Porosity {F12.3}
DPHZ .CFCF                                             :HRDD Standard Resolution Density Porosity {F12.3}
RHOZ .G/C3                                             :HRDD Standard Resolution Formation Density {F12.3}
HDRA .G/C3                                             :HRDD Density Correction {F12.3}
PEFZ .                                                 :HRDD Standard Resolution Formation Photoelectric Factor {F12.3}
IHV  .F3                                               :Integrated Hole Volume {F12.3}
TENS .LBF                                              :Cable Tension {F12.3}
#-----------------------------------------------------------------------------
# 
#    DEPT        GR         HCAL        AHT10       AHT20       AHT30       AHT60       AHT90       NPOR        DPHZ        RHOZ        HDRA        PEFZ         IHV        TENS
#
~A  
  1500.00      64.823       2.988      15.680      19.356      19.546      19.960      19.809       0.275     607.212    -999.250    -999.250    -999.250       0.024    1232.000
  1499.50      64.823       2.988      15.680      19.356      19.546      19.959      19.809       0.275     607.212    -999.250    -999.250    -999.250       0.049    1233.000
  1499.00      64.823       2.988      15.681      19.357      19.545      19.956      19.808       0.275     607.212    -999.250    -999.250    -999.250       0.073    1246.000
  1498.50      64.823       2.988      15.681      19.361      19.544      19.949      19.806       0.275     607.212    -999.250    -999.250    -999.250       0.097    1246.000
  1498.00      64.823       2.988      15.681      19.364      19.547      19.937      19.808       0.275     607.212    -999.250    -999.250    -999.250       0.122    1177.000
  1497.50      64.823       2.988      15.683      19.374      19.549      19.931      19.810       0.275     607.212    -999.250    -999.250    -999.250       0.146    1191.000
  1497.00      64.823       2.988      15.685      19.389      19.544      19.919      19.795       0.275     607.212    -999.250    -999.250    -999.250       0.170    1207.000
  1496.50      64.823       2.988      15.687      19.412      19.543      19.905      19.794       0.275     607.212    -999.250    -999.250    -999.250       0.195    1201.000
  1496.00      64.823       2.988      15.688      19.445      19.540      19.888      19.785       0.275     607.212    -999.250    -999.250    -999.250       0.219    1208.000
  1495.50      64.823       2.988      15.679      19.467      19.555      19.876      19.802       0.275     607.212    -999.250    -999.250    -999.250       0.243    1129.000
  1495.00      64.823       2.988      15.670      19.503      19.532      19.880      19.791       0.275     607.212    -999.250    -999.250    -999.250       0.268    1157.000
  1494.50      64.823       2.988      15.654      19.559      19.547      19.951      19.833       0.275       0.486       1.848       1.391       4.061       0.292    1143.000
  1494.00      64.823       2.988      15.674      19.662      19.573      20.067      19.898       0.275       0.493       1.836       0.736       4.253       0.316    1153.000
  1493.50      64.823       2.988      15.658      19.722      19.563      20.130      19.893       0.275       0.500       1.825       0.082       4.418       0.341    1134.000
  1493.00      64.823       2.988      15.665      19.880      19.582      20.207      19.933       0.275       0.500       1.824       0.086       4.573       0.365    1144.000
  1492.50      64.823       2.988      15.658      20.179      19.548      20.388      19.888       0.275       0.500       1.824       0.090       4.729       0.390    1173.000
  1492.00      64.823       2.988      15.631      20.391      19.661      20.598      20.274       0.275       0.500       1.824       0.094       4.883       0.414    1148.000
  1491.50      64.823       2.988      15.631      20.607      19.551      20.849      19.974       0.275       0.500       1.825       0.097       5.032       0.438    1225.000
  1491.00      64.823       2.988      15.522      20.695      19.585      20.624      20.059       0.275       0.500       1.825       0.100       5.173       0.463    1215.000
  1490.50      64.823       2.988      15.297      20.288      19.489      20.099      20.076       0.275       0.500       1.825       0.103       5.309       0.487    1211.000
  1490.00      64.823       2.988      14.987      19.487      19.146      20.282      20.812       0.275       0.500       1.825       0.105       5.443       0.511    1284.000
  1489.50      64.823       2.988      14.614      18.496      18.563      18.843      19.785       0.275       0.500       1.825       0.106       5.572       0.536    1281.000
  1489.00      64.823       2.988      14.470      17.936      18.894      17.934      18.809       0.275       0.500       1.825       0.107       5.698       0.560    1283.000
  1488.50      64.823       2.988      14.427      17.338      18.397      18.585      19.141       0.275       0.500       1.825       0.106       5.821       0.584    1189.000
  1488.00      64.823       2.988      14.623      18.102      19.096      20.286      20.287       0.275       0.501       1.823       0.104       5.953       0.609    1105.000
  1487.50      64.823       2.988      15.043      18.817      19.885      20.503      20.636       0.275       0.504       1.818       0.094       6.152       0.633    1092.000
  1487.00      64.823       2.988      15.132      19.136      20.044      20.663      20.764       0.275       0.504       1.818       0.085       6.516       0.657    1089.000
  1486.50      64.823       2.988      15.065      19.239      19.629      20.477      20.191       0.275       0.449       1.909       0.097       6.875       0.682    1101.000
  1486.00      64.823       2.988      14.926      19.108      19.542      20.505      20.044       0.275       0.354       2.065       0.118       6.536       0.706    1077.000
  1485.50      64.823       2.988      14.818      19.176      19.381      20.484      19.711       0.275       0.263       2.216       0.139       5.898       0.730    1118.000
  1485.00      64.823       2.988      14.874      19.491      19.525      20.315      19.795       0.275       0.227       2.276       0.137       5.224       0.755    1130.000
  1484.50      64.823       2.988      15.051      19.667      19.695      20.446      19.982       0.275       0.226       2.278       0.134       5.109       0.779    1161.000
  1484.00      64.823       2.988      15.466      20.144      20.062      20.748      20.382       0.275       0.225       2.279       0.129       5.090       0.803    1232.000
  1483.50      64.823       2.988      16.200      21.327      21.545      22.333      22.029       0.275       0.222       2.284       0.128       4.997       0.828    1145.000
  1483.00      64.823       2.988      16.893      22.464      22.916      23.458      23.530       0.275       0.219       2.289       0.129       4.785       0.852    1167.000
  1482.50      64.823       2.988      17.203      23.169      23.669      24.605      24.267       0.275       0.212       2.300       0.132       4.398       0.876    1169.000
  1482.00      64.823       2.980      17.621      23.087      24.298      25.535      24.915       0.275       0.214       2.298       0.126       3.890       0.901    1173.000
  1481.50      64.823       2.988      18.284      23.842      24.491      26.002      25.245       0.275       0.215       2.296       0.112       3.527       0.925    1285.000
  1481.00      64.823       2.988      18.145      23.925      24.685      26.227      25.333       0.275       0.221       2.286       0.089       3.353       0.949    1238.000
  1480.50      64.823       2.988      18.090      24.019      24.546      26.178      25.100       0.275       0.215       2.296       0.072       3.420       0.974    1161.000
  1480.00      64.823       2.988      17.959      23.812      24.461      25.893      24.785       0.275       0.204       2.314       0.058       3.540       0.998    1198.000
  1479.50      64.823       2.988      17.778      23.678      23.705      24.887      24.402       0.275       0.185       2.345       0.045       3.584       1.022    1229.000
  1479.00      64.823       2.988      16.887      22.249      22.245      22.993      23.115       0.275       0.165       2.378       0.030       3.502       1.047    1234.000
  1478.50      64.823       2.965      13.530      16.960      17.178      17.802      17.933       0.275       0.143       2.414       0.019       3.393       1.071    1223.000
  1478.00      64.823       2.988      10.919      13.062      13.093      13.535      13.772       0.275       0.128       2.439       0.010       3.353       1.095    1217.000
