~VERSION INFORMATION
VERS.           2.0   :CWLS Log ASCII Standard - VERSION 2.0
WRAP.           NO    :One Line per depth step
PROD.  Schlumberger   :LAS Producer
PROG.  DLIS to ASCII 9C2-303                           :LAS Program name and version
CREA.        2001/08/27 19:21                          :LAS Creation date {YYYY/MM/DD hh:mm}
SOURCE.     AIT_TLD_MCFL_CNL_015PUP.DLIS               :DLIS File Name
FILE-ID.     015                                       :File Identification Number
#--------------------------------------------------
~WELL INFORMATION
#MNEM.UNIT      DATA             DESCRIPTION
#---- ------ --------------   -----------------------------
STRT .F       1500.00        :START DEPTH     
STOP .F         63.50        :STOP DEPTH     
STEP .F         -0.50       :STEP     
NULL .          -999.25      :NULL VALUE
COMP .        DOUBLE EAGLE PETROLEUM                   :COMPANY
WELL .        COW CREEK UNIT 43-12                     :WELL
FLD  .        COW CREEK                                :FIELD
LOC  .        476' FEL & 1738' FSL                     :LOCATION
PROV .        CARBON                                   :PROVINCE
UWI  .        NE/SE                                    :UNIQUE WELL ID
LIC  .        4900721918                               :API NUMBER
CTRY .        CA                                       :COUNTRY (WWW code)
DATE .        27-Aug-2001                              :LOG DATE {DD-MMM-YYYY}
SRVC .        Schlumberger                             :SERVICE COMPANY
LATI .DEG     41.37037                                 :LATITUDE
LONG .DEG     -107.68952                               :LONGITUDE
GDAT .                                                 :GeoDetic Datum
 API .                                      4900721918 :API NUMBER
USGS.         E934                                     :USGS Number
UTM-N.        4583363.54                               :Northing
UTM-E.        275067.57                                :Easting
CORE.         N/A                                      :Core/Log Offset
#-----------------------------------------------------------------------------
~PARAMETER INFORMATION
#MNEM.UNIT    VALUE                      DESCRIPTION
#---- -----   --------------------       ------------------------
CN   .        DOUBLE EAGLE PETROLEUM     :Company Name
WN   .        COW CREEK UNIT 43-12       :Well Name
FN   .        COW CREEK                  :Field Name
FL   .        476' FEL & 1738' FSL       :Field Location
COUN .        CARBON                     :County or Rig Name
STAT .        WYOMING                    :State or Province
NATI .                                   :Nation
DATE .        27-Aug-2001                :Date as Month-Day-Year
APIN .        049-007-21918              :API Serial Number
UWID .                                   :Unique Well Identification Number
RUN  .          1                        :RUN NUMBER
PDAT .        GROUND LEVEL               :Permanent Datum
EREF .F         6716.000000              :Elevation of Permanent Datum above Mean Sea Level
DREF .          KELLY BUSHING            :Logging Measured From (Name of Logging Elevation Reference)
APD  .F          12.000000               :Elevation of Depth Reference (LMF) above Permanent Datum
#-----------------------------------------------------------------------------
~CURVE INFORMATION
#MNEM.UNIT   API CODE                                  DESCRIPTION
#---- -----  --------                                  -----------------------
DEPT .F                                                :DEPTH (BOREHOLE) {F9.2}
GR   .GAPI                                             :Gamma-Ray {F12.3}
HCAL .IN                                               :HRCC Cal. Caliper {F12.3}
AHT10.OHMM                                             :Array Induction Two Foot Resistivity A10 {F12.3}
AHT20.OHMM                                             :Array Induction Two Foot Resistivity A20 {F12.3}
AHT30.OHMM                                             :Array Induction Two Foot Resistivity A30 {F12.3}
AHT60.OHMM                                             :Array Induction Two Foot Resistivity A60 {F12.3}
AHT90.OHMM                                             :Array Induction Two Foot Resistivity A90 {F12.3}
NPOR .CFCF                                             :Enhanced Thermal Neutron Porosity {F12.3}
DPHZ .CFCF                                             :HRDD Standard Resolution Density Porosity {F12.3}
RHOZ .G/C3                                             :HRDD Standard Resolution Formation Density {F12.3}
HDRA .G/C3                                             :HRDD Density Correction {F12.3}
PEFZ .                                                 :HRDD Standard Resolution Formation Photoelectric Factor {F12.3}
IHV  .F3                                               :Integrated Hole Volume {F12.3}
TENS .LBF                                              :Cable Tension {F12.3}
#-----------------------------------------------------------------------------
# 
#    DEPT        GR         HCAL        AHT10       AHT20       AHT30       AHT60       AHT90       NPOR        DPHZ        RHOZ        HDRA        PEFZ         IHV        TENS
#
~A  
# ...
  1410.00      78.849       2.988      16.305      22.665      22.905      23.401      22.983       0.330       0.226       2.278       0.014       3.005       4.402    1172.000
  1409.50      76.370       2.988      16.281      22.944      22.973      23.571      23.121       0.283       0.161       2.385       0.014       3.279       4.426    1248.000
  1409.00      72.810       2.988      14.484      19.965      20.350      21.153      20.786       0.277       0.129       2.438       0.010       3.381       4.450    1251.000
  1408.50      72.501       2.988      13.846      19.249      19.765      20.520      20.185       0.261       0.129       2.438       0.003       3.307       4.475    1174.000
  1408.00      69.608       2.988      15.498      21.270      21.369      22.098      21.746       0.258       0.136       2.425       0.002       3.187       4.499    1142.000
  1407.50      66.710       2.988      16.516      22.282      22.423      23.423      23.325       0.243       0.152       2.399      -0.001       3.086       4.523    1129.000
  1407.00      58.992       2.988      16.428      22.368      22.735      23.712      23.296       0.234       0.187       2.342      -0.006       3.081       4.548    1203.000
  1406.50      59.406       2.988      17.817      24.968      25.563      26.449      26.122       0.298       0.236       2.260      -0.018       3.243       4.572    1183.000
  1406.00      63.131       2.988      19.531      28.302      29.089      30.348      29.448       0.410       0.265       2.213      -0.017       3.592       4.596    1161.000
  1405.50      66.990       2.988      20.279      29.345      29.192      30.357      29.471       0.380       0.251       2.235      -0.001       3.937       4.621    1151.000
  1405.00      60.792       2.988      20.403      29.084      29.149      30.515      29.265       0.332       0.225       2.279       0.013       3.968       4.645    1175.000
  1404.50      63.276       2.988      18.412      25.448      25.554      26.298      25.387       0.302       0.214       2.296       0.013       3.636       4.669    1195.000
  1404.00      60.520       2.988      15.526      20.353      20.516      20.859      20.194       0.284       0.229       2.272      -0.000       3.204       4.694    1192.000
  1403.50      60.520       2.965      14.257      17.985      17.834      18.359      17.822       0.268       0.244       2.247      -0.009       2.932       4.718    1128.000
  1403.00      49.756       2.988      15.288      19.547      19.492      19.848      19.387       0.259       0.262       2.217      -0.014       2.867       4.742    1262.000
  1402.50      46.714       2.988      16.219      21.035      21.028      21.363      20.802       0.278       0.278       2.191      -0.020       2.831       4.766    1229.000
  1402.00      39.999       2.988      16.285      21.080      21.019      21.344      20.921       0.306       0.287       2.176      -0.023       2.800       4.791    1186.000
  1401.50      38.325       2.988      16.505      21.319      21.372      21.772      21.335       0.303       0.288       2.175      -0.022       2.799       4.815    1225.000
  1401.00      32.126       2.988      16.575      21.340      21.563      22.021      21.636       0.288       0.285       2.179      -0.019       2.847       4.839    1273.000
  1400.50      32.679       2.965      16.428      21.060      21.594      22.230      21.721       0.288       0.286       2.179      -0.013       2.986       4.863    1366.000
  1400.00      33.506       2.988      16.591      21.154      21.560      22.339      21.793       0.277       0.287       2.176      -0.011       3.171       4.888    1268.000
  1399.50      36.010       2.988      16.767      21.164      21.710      22.747      22.115       0.295       0.288       2.176      -0.010       3.407       4.912    1214.000
  1399.00      38.702       2.988      16.891      21.449      22.146      23.142      22.537       0.299       0.285       2.179      -0.008       3.602       4.936    1241.000
  1398.50      37.066       2.988      16.975      21.703      22.425      23.621      22.974       0.291       0.288       2.175      -0.004       3.630       4.961    1232.000
  1398.00      33.341       2.988      17.052      22.097      22.760      24.008      23.210       0.291       0.292       2.168      -0.004       3.440       4.985    1174.000
  1397.50      26.210       2.988      17.020      22.405      23.118      24.183      23.810       0.292       0.294       2.164      -0.009       3.131       5.009    1169.000
  1397.00      27.845       2.988      17.145      22.464      22.998      23.832      23.506       0.264       0.291       2.170      -0.014       2.892       5.034    1170.000
  1396.50      23.706       2.988      17.180      22.712      23.227      23.827      23.438       0.286       0.291       2.171      -0.016       2.813       5.058    1214.000
  1396.00      31.975       2.988      17.297      22.954      23.443      23.883      23.359       0.288       0.292       2.167      -0.015       2.810       5.082    1234.000
  1395.50      29.909       2.988      16.812      22.307      22.818      23.439      22.890       0.276       0.295       2.163      -0.013       2.812       5.107    1271.000
  1395.00      33.221       2.988      16.675      21.926      22.326      22.851      22.237       0.293       0.298       2.159      -0.016       2.771       5.131    1225.000
  1394.50      26.054       2.988      16.712      21.934      22.350      22.962      22.460       0.296       0.302       2.152      -0.019       2.697       5.156    1203.000
  1394.00      26.880       2.965      16.477      21.665      22.101      22.872      22.375       0.303       0.304       2.148      -0.018       2.636       5.179    1215.000
  1393.50      26.466       2.988      16.217      21.366      21.900      22.670      22.180       0.288       0.301       2.154      -0.014       2.606       5.204    1220.000
  1393.00      29.774       2.988      16.077      21.497      21.901      22.667      22.241       0.309       0.288       2.176      -0.010       2.631       5.228    1233.000
  1392.50      34.319       2.988      16.222      21.429      21.914      22.672      22.377       0.312       0.273       2.199      -0.012       2.675       5.253    1262.000
  1392.00      36.100       2.988      16.330      21.617      22.315      23.081      22.561       0.277       0.267       2.209      -0.017       2.764       5.277    1163.000
  1391.50      35.701       2.988      16.547      21.919      22.247      22.992      22.669       0.289       0.271       2.203      -0.019       2.943       5.301    1197.000
  1391.00      29.916       2.988      16.572      22.214      22.456      23.055      22.625       0.304       0.277       2.193      -0.006       3.246       5.326    1191.000
  1390.50      29.916       2.988      16.529      22.500      22.220      22.931      22.634       0.306       0.288       2.174       0.008       3.598       5.350    1223.000
  1390.00      25.362       2.988      16.405      22.767      22.235      23.158      22.673       0.315       0.301       2.153       0.013       3.771       5.374    1216.000
  1389.50      27.015       2.988      16.352      22.577      22.661      23.317      22.895       0.310       0.312       2.135       0.003       3.606       5.399    1161.000
  1389.00      26.488       2.965      16.029      22.756      22.335      22.774      22.635       0.293       0.307       2.143      -0.007       3.181       5.423    1184.000
  1388.50      29.782       2.965      15.984      22.781      22.230      23.333      23.333       0.298       0.296       2.161      -0.013       2.741       5.447    1276.000
  1388.00      26.902       2.988      16.478      21.860      22.380      24.425      23.390       0.297       0.285       2.179      -0.016       2.456       5.471    1364.000
