~VERSION INFORMATION
VERS.           2.0   :CWLS Log ASCII Standard - VERSION 2.0
WRAP.           NO    :One Line per depth step
PROD.  Schlumberger   :LAS Producer
PROG.  DLIS to ASCII 9C2-303                           :LAS Program name and version
CREA.        2001/08/27 19:21                          :LAS Creation date {YYYY/MM/DD hh:mm}
SOURCE.     AIT_TLD_MCFL_CNL_015PUP.DLIS               :DLIS File Name
FILE-ID.     015                                       :File Identification Number
#--------------------------------------------------
~WELL INFORMATION
#MNEM.UNIT      DATA             DESCRIPTION
#---- ------ --------------   -----------------------------
STRT .F       1500.00        :START DEPTH     
STOP .F         63.50        :STOP DEPTH     
STEP .F         -0.50       :STEP     
NULL .          -999.25      :NULL VALUE
COMP .        DOUBLE EAGLE PETROLEUM                   :COMPANY
WELL .        COW CREEK UNIT 43-12                     :WELL
FLD  .        COW CREEK                                :FIELD
LOC  .        476' FEL & 1738' FSL                     :LOCATION
PROV .        CARBON                                   :PROVINCE
UWI  .        NE/SE                                    :UNIQUE WELL ID
LIC  .        4900721918                               :API NUMBER
CTRY .        CA                                       :COUNTRY (WWW code)
DATE .        27-Aug-2001                              :LOG DATE {DD-MMM-YYYY}
SRVC .        Schlumberger                             :SERVICE COMPANY
LATI .DEG     41.37037                                 :LATITUDE
LONG .DEG     -107.68952                               :LONGITUDE
GDAT .                                                 :GeoDetic Datum
 API .                                      4900721918 :API NUMBER
USGS.         E934                                     :USGS Number
UTM-N.        4583363.54                               :Northing
UTM-E.        275067.57                                :Easting
CORE.         N/A                                      :Core/Log Offset
#-----------------------------------------------------------------------------
~PARAMETER INFORMATION
#MNEM.UNIT    VALUE                      DESCRIPTION
#---- -----   --------------------       ------------------------
CN   .        DOUBLE EAGLE PETROLEUM     :Company Name
WN   .        COW CREEK UNIT 43-12       :Well Name
FN   .        COW CREEK                  :Field Name
FL   .        476' FEL & 1738' FSL       :Field Location
COUN .        CARBON                     :County or Rig Name
STAT .        WYOMING                    :State or Province
NATI .                                   :Nation
DATE .        27-Aug-2001                :Date as Month-Day-Year
APIN .        049-007-21918              :API Serial Number
UWID .                                   :Unique Well Identification Number
RUN  .          1                        :RUN NUMBER
PDAT .        GROUND LEVEL               :Permanent Datum
EREF .F         6716.000000              :Elevation of Permanent Datum above Mean Sea Level
DREF .          KELLY BUSHING            :Logging Measured From (Name of Logging Elevation Reference)
APD  .F          12.000000               :Elevation of Depth Reference (LMF) above Permanent Datum
#-----------------------------------------------------------------------------
~CURVE INFORMATION
#MNEM.UNIT   API CODE                                  DESCRIPTION
#---- -----  --------                                  -----------------------
DEPT .F                                                :DEPTH (BOREHOLE) {F9.2}
GR   .GAPI                                             :Gamma-Ray {F12.3}
HCAL .IN                                               :HRCC Cal. Caliper {F12.3}
AHT10.OHMM                                             :Array Induction Two Foot Resistivity A10 {F12.3}
AHT20.OHMM                                             :Array Induction Two Foot Resistivity A20 {F12.3}
AHT30.OHMM                                             :Array Induction Two Foot Resistivity A30 {F12.3}
AHT60.OHMM                                             :Array Induction Two Foot Resistivity A60 {F12.3}
AHT90.OHMM                                             :Array Induction Two Foot Resistivity A90 {F12.3}
NPOR .CFCF                                             :Enhanced Thermal Neutron Porosity {F12.3}
DPHZ .CFCF                                             :HRDD Standard Resolution Density Porosity {F12.3}
RHOZ .G/C3                                             :HRDD Standard Resolution Formation Density {F12.3}
HDRA .G/C3                                             :HRDD Density Correction {F12.3}
PEFZ .                                                 :HRDD Standard Resolution Formation Photoelectric Factor {F12.3}
IHV  .F3                                               :Integrated Hole Volume {F12.3}
TENS .LBF                                              :Cable Tension {F12.3}
#-----------------------------------------------------------------------------
# 
#    DEPT        GR         HCAL        AHT10       AHT20       AHT30       AHT60       AHT90       NPOR        DPHZ        RHOZ        HDRA        PEFZ         IHV        TENS
#
~A  
# ...
   847.50      99.119       2.988       4.543       4.981       5.254       5.565       5.642       0.324       0.081       2.517       0.033       4.576      31.762     975.000
   847.00      97.049       2.988       5.133       5.769       6.128       6.518       6.508       0.355       0.099       2.487       0.028       4.535      31.786    1018.000
   846.50     106.026       2.988       5.491       6.368       6.770       7.234       7.085       0.362       0.126       2.442       0.016       4.182      31.811     994.000
   846.00     109.449       2.988       5.310       6.100       6.508       6.907       6.748       0.363       0.138       2.422       0.006       3.767      31.835     973.000
   845.50     106.591       2.988       5.105       5.937       6.329       6.708       6.670       0.347       0.136       2.425       0.001       3.493      31.859    1009.000
   845.00     100.506       2.988       5.107       5.904       6.271       6.626       6.662       0.333       0.132       2.432      -0.004       3.363      31.884    1023.000
   844.50     102.643       2.988       5.070       5.812       6.220       6.530       6.628       0.330       0.129       2.437      -0.005       3.327      31.908    1020.000
   844.00     113.591       2.988       5.015       5.761       6.113       6.282       6.446       0.337       0.127       2.441      -0.007       3.339      31.933    1023.000
   843.50     115.657       2.965       4.925       5.653       6.019       6.298       6.399       0.385       0.132       2.433      -0.009       3.394      31.956    1023.000
   843.00     127.186       2.988       4.800       5.466       5.773       6.112       6.278       0.411       0.139       2.421      -0.010       3.419      31.981    1028.000
   842.50     129.447       2.988       4.429       5.030       5.273       5.604       5.741       0.379       0.144       2.412      -0.008       3.418      32.005    1000.000
   842.00     140.081       2.988       4.170       4.697       4.918       5.206       5.355       0.413       0.142       2.415      -0.004       3.380      32.030     990.000
   841.50     135.091       2.988       3.892       4.342       4.510       4.771       4.910       0.393       0.136       2.426      -0.000       3.371      32.054    1010.000
   841.00     135.505       2.988       3.738       4.168       4.328       4.547       4.670       0.371       0.133       2.430       0.001       3.439      32.078    1021.000
   840.50     140.467       2.965       3.696       4.104       4.250       4.453       4.566       0.374       0.134       2.430       0.002       3.528      32.102     997.000
   840.00     134.682       2.988       3.682       4.080       4.214       4.396       4.512       0.370       0.141       2.418      -0.000       3.576      32.127     990.000
   839.50     135.866       2.988       3.664       4.047       4.180       4.358       4.452       0.373       0.142       2.415      -0.002       3.537      32.151     990.000
   839.00     125.718       2.988       3.579       3.932       4.057       4.241       4.303       0.371       0.140       2.418      -0.002       3.509      32.175    1009.000
   838.50     129.437       2.988       3.504       3.820       3.959       4.145       4.185       0.409       0.132       2.432      -0.002       3.545      32.200    1020.000
   838.00     125.684       2.965       3.436       3.728       3.867       4.061       4.053       0.386       0.125       2.444      -0.001       3.647      32.224     996.000
   837.50     122.050       2.988       3.432       3.714       3.849       4.041       4.012       0.407       0.124       2.445      -0.004       3.737      32.248    1019.000
   837.00     116.265       2.988       3.486       3.757       3.902       4.068       4.053       0.414       0.128       2.440      -0.007       3.733      32.272    1014.000
   836.50     118.834       2.988       3.541       3.817       3.972       4.136       4.137       0.426       0.137       2.424      -0.010       3.662      32.297     996.000
   836.00     134.821       2.988       3.508       3.764       3.897       4.048       4.045       0.406       0.141       2.417      -0.009       3.561      32.321    1036.000
   835.50     143.251       2.988       3.402       3.645       3.767       3.904       3.911       0.385       0.145       2.411      -0.007       3.488      32.345    1072.000
   835.00     133.250       2.988       3.312       3.550       3.662       3.800       3.807       0.388       0.144       2.412      -0.003       3.435      32.370    1121.000
   834.50     121.673       2.988       3.255       3.499       3.606       3.733       3.758       0.390       0.145       2.412      -0.003       3.389      32.394    1073.000
   834.00     112.898       2.988       3.254       3.516       3.611       3.748       3.771       0.380       0.145       2.410      -0.003       3.368      32.418    1036.000
   833.50     115.814       2.988       3.253       3.532       3.639       3.774       3.819       0.412       0.146       2.408      -0.005       3.384      32.443    1010.000
   833.00     121.573       2.988       3.250       3.532       3.645       3.802       3.864       0.394       0.140       2.419      -0.003       3.456      32.467    1029.000
   832.50     117.118       2.988       3.250       3.513       3.641       3.815       3.891       0.389       0.128       2.439       0.001       3.635      32.491     998.000
   832.00     122.547       2.988       3.315       3.577       3.738       3.930       4.029       0.394       0.107       2.473       0.003       4.031      32.516    1021.000
   831.50     113.480       2.988       3.490       3.739       3.930       4.156       4.301       0.375       0.104       2.479      -0.001       4.642      32.540    1009.000
   831.00     122.489       2.988       3.680       3.937       4.149       4.391       4.446       0.382       0.119       2.454      -0.010       5.149      32.564    1005.000
   830.50     128.637       2.988       3.895       4.108       4.373       4.638       4.646       0.385       0.141       2.417      -0.013       5.176      32.589    1021.000
   830.00     124.068       2.988       4.129       4.320       4.599       4.880       4.813       0.386       0.150       2.402      -0.012       4.711      32.613    1030.000
   829.50     125.533       2.988       4.238       4.473       4.764       5.035       4.887       0.399       0.142       2.415      -0.002       4.210      32.637    1034.000
   829.00     124.353       2.988       4.294       4.519       4.748       4.992       4.775       0.395       0.138       2.422      -0.000       3.928      32.662    1058.000
   828.50     131.678       2.988       4.249       4.554       4.734       4.939       4.631       0.388       0.140       2.419      -0.002       3.823      32.686    1036.000
   828.00     125.179       2.988       4.142       4.461       4.592       4.754       4.377       0.413       0.143       2.414      -0.004       3.668      32.710    1013.000
   827.50     109.820       2.988       3.996       4.318       4.388       4.464       4.168       0.398       0.142       2.415      -0.002       3.545      32.735    1018.000
   827.00     107.111       2.988       3.823       4.134       4.167       4.210       4.043       0.389       0.132       2.432       0.003       3.558      32.759    1078.000
   826.50     111.957       2.988       3.658       3.970       3.980       4.079       3.937       0.385       0.124       2.446       0.006       3.734      32.783    1061.000
   826.00     118.961       2.988       3.436       3.705       3.712       3.807       3.729       0.386       0.123       2.448       0.008       3.869      32.808    1060.000
   825.50     116.245       2.988       3.299       3.530       3.541       3.637       3.593       0.372       0.130       2.435       0.005       3.837      32.832    1061.000
