~VERSION INFORMATION
VERS.           2.0   :CWLS Log ASCII Standard - VERSION 2.0
WRAP.           NO    :One Line per depth step
PROD.  Schlumberger   :LAS Producer
PROG.  DLIS to ASCII 9C2-303                           :LAS Program name and version
CREA.        2001/08/27 19:21                          :LAS Creation date {YYYY/MM/DD hh:mm}
SOURCE.     AIT_TLD_MCFL_CNL_015PUP.DLIS               :DLIS File Name
FILE-ID.     015                                       :File Identification Number
#--------------------------------------------------
~WELL INFORMATION
#MNEM.UNIT      DATA             DESCRIPTION
#---- ------ --------------   -----------------------------
STRT .F       1500.00        :START DEPTH     
STOP .F         63.50        :STOP DEPTH     
STEP .F         -0.50       :STEP     
NULL .          -999.25      :NULL VALUE
COMP .        DOUBLE EAGLE PETROLEUM                   :COMPANY
WELL .        COW CREEK UNIT 43-12                     :WELL
FLD  .        COW CREEK                                :FIELD
LOC  .        476' FEL & 1738' FSL                     :LOCATION
PROV .        CARBON                                   :PROVINCE
UWI  .        NE/SE                                    :UNIQUE WELL ID
LIC  .        4900721918                               :API NUMBER
CTRY .        CA                                       :COUNTRY (WWW code)
DATE .        27-Aug-2001                              :LOG DATE {DD-MMM-YYYY}
SRVC .        Schlumberger                             :SERVICE COMPANY
LATI .DEG     41.37037                                 :LATITUDE
LONG .DEG     -107.68952                               :LONGITUDE
GDAT .                                                 :GeoDetic Datum
 API .                                      4900721918 :API NUMBER
USGS.         E934                                     :USGS Number
UTM-N.        4583363.54                               :Northing
UTM-E.        275067.57                                :Easting
CORE.         N/A                                      :Core/Log Offset
#-----------------------------------------------------------------------------
~PARAMETER INFORMATION
#MNEM.UNIT    VALUE                      DESCRIPTION
#---- -----   --------------------       ------------------------
CN   .        DOUBLE EAGLE PETROLEUM     :Company Name
WN   .        COW CREEK UNIT 43-12       :Well Name
FN   .        COW CREEK                  :Field Name
FL   .        476' FEL & 1738' FSL       :Field Location
COUN .        CARBON                     :County or Rig Name
STAT .        WYOMING                    :State or Province
NATI .                                   :Nation
DATE .        27-Aug-2001                :Date as Month-Day-Year
APIN .        049-007-21918              :API Serial Number
UWID .                                   :Unique Well Identification Number
RUN  .          1                        :RUN NUMBER
PDAT .        GROUND LEVEL               :Permanent Datum
EREF .F         6716.000000              :Elevation of Permanent Datum above Mean Sea Level
DREF .          KELLY BUSHING            :Logging Measured From (Name of Logging Elevation Reference)
APD  .F          12.000000               :Elevation of Depth Reference (LMF) above Permanent Datum
#-----------------------------------------------------------------------------
~CURVE INFORMATION
#MNEM.UNIT   API CODE                                  DESCRIPTION
#---- -----  --------                                  -----------------------
DEPT .F                                                :DEPTH (BOREHOLE) {F9.2}
GR   .GAPI                                             :Gamma-Ray {F12.3}
HCAL .IN                                               :HRCC Cal. Caliper {F12.3}
AHT10.OHMM                                             :Array Induction Two Foot Resistivity A10 {F12.3}
AHT20.OHMM                                             :Array Induction Two Foot Resistivity A20 {F12.3}
AHT30.OHMM                                             :Array Induction Two Foot Resistivity A30 {F12.3}
AHT60.OHMM                                             :Array Induction Two Foot Resistivity A60 {F12.3}
AHT90.OHMM                                             :Array Induction Two Foot Resistivity A90 {F12.3}
NPOR .CFCF                                             :Enhanced Thermal Neutron Porosity {F12.3}
DPHZ .CFCF                                             :HRDD Standard Resolution Density Porosity {F12.3}
RHOZ .G/C3                                             :HRDD Standard Resolution Formation Density {F12.3}
HDRA .G/C3                                             :HRDD Density Correction {F12.3}
PEFZ .                                                 :HRDD Standard Resolution Formation Photoelectric Factor {F12.3}
IHV  .F3                                               :Integrated Hole Volume {F12.3}
TENS .LBF                                              :Cable Tension {F12.3}
#-----------------------------------------------------------------------------
# 
#    DEPT        GR         HCAL        AHT10       AHT20       AHT30       AHT60       AHT90       NPOR        DPHZ        RHOZ        HDRA        PEFZ         IHV        TENS
#
~A  
# ...
   262.50     126.816       2.988       3.073       3.642       4.003       4.519       4.743       0.398       0.182       2.350      -0.004       3.486      60.230     784.000
   262.00     129.714       2.988       3.163       3.753       4.177       4.771       5.004       0.409       0.185       2.346      -0.006       3.517      60.254     760.000
   261.50     123.102       2.988       3.403       4.108       4.624       5.324       5.565       0.390       0.184       2.347      -0.008       3.544      60.279     766.000
   261.00     114.604       2.988       3.761       4.705       5.416       6.425       6.704       0.389       0.177       2.358      -0.012       3.502      60.303     782.000
   260.50     109.155       2.988       4.040       5.083       5.932       7.151       7.410       0.369       0.172       2.366      -0.016       3.453      60.328     774.000
   260.00     118.330       2.988       4.020       5.057       5.953       7.244       7.374       0.391       0.170       2.370      -0.014       3.436      60.352     805.000
   259.50     118.260       2.988       3.963       4.987       5.779       6.959       7.006       0.421       0.174       2.364      -0.012       3.503      60.376     805.000
   259.00     117.086       2.988       3.922       4.895       5.710       6.788       6.763       0.387       0.173       2.365      -0.007       3.597      60.401     805.000
   258.50     102.283       2.965       3.833       4.760       5.473       6.350       6.185       0.399       0.170       2.370      -0.005       3.722      60.425     806.000
   258.00      95.671       2.988       3.619       4.366       4.933       5.593       5.411       0.396       0.153       2.398       0.003       3.866      60.449     820.000
   257.50     104.779       2.988       3.445       4.134       4.565       5.040       4.838       0.322       0.147       2.407       0.002       3.965      60.473     793.000
   257.00     105.449       2.988       3.636       4.468       4.928       5.491       5.288       0.336       0.155       2.394       0.001       3.984      60.498     821.000
   256.50     111.715       2.988       4.234       5.539       6.178       7.134       6.615       0.411       0.181       2.351      -0.007       3.887      60.522     825.000
   256.00     100.064       2.988       4.286       5.747       6.380       7.400       6.875       0.457       0.198       2.324      -0.009       3.770      60.546     798.000
   255.50     107.663       2.988       3.684       4.568       4.947       5.533       5.368       0.457       0.199       2.322      -0.013       3.616      60.571     779.000
   255.00     108.077       2.988       3.141       3.744       4.019       4.421       4.458       0.414       0.194       2.330      -0.017       3.488      60.595     830.000
   254.50     113.862       2.988       2.864       3.349       3.493       3.823       3.900       0.439       0.189       2.337      -0.018       3.399      60.619     804.000
   254.00     119.154       2.988       2.772       3.190       3.353       3.658       3.788       0.408       0.196       2.326      -0.016       3.406      60.644     800.000
   253.50     121.977       2.988       2.679       3.067       3.228       3.522       3.713       0.479       0.200       2.320      -0.014       3.459      60.668     803.000
   253.00     122.462       2.988       2.595       2.954       3.114       3.407       3.663       0.470       0.202       2.316      -0.014       3.529      60.692     838.000
   252.50     126.925       2.988       2.549       2.891       3.067       3.383       3.620       0.425       0.201       2.319      -0.015       3.585      60.717     823.000
   252.00     125.344       3.011       2.542       2.872       3.070       3.417       3.621       0.423       0.199       2.321      -0.014       3.641      60.741     813.000
   251.50     130.947       2.988       2.581       2.919       3.133       3.530       3.698       0.444       0.193       2.331      -0.012       3.660      60.766     804.000
   251.00     130.120       2.988       2.651       3.006       3.246       3.662       3.822       0.409       0.188       2.340      -0.008       3.687      60.790     789.000
   250.50     131.776       2.988       2.731       3.100       3.358       3.783       3.930       0.377       0.184       2.346      -0.008       3.685      60.814     806.000
   250.00     125.275       2.988       2.786       3.173       3.451       3.899       4.029       0.412       0.184       2.346      -0.012       3.671      60.839     790.000
   249.50     114.532       2.988       2.796       3.187       3.466       3.905       4.009       0.429       0.179       2.354      -0.016       3.600      60.863     798.000
   249.00     106.253       2.988       2.827       3.215       3.490       3.917       4.007       0.405       0.178       2.357      -0.018       3.543      60.887     823.000
   248.50     103.360       2.988       2.885       3.281       3.563       3.998       4.073       0.398       0.176       2.359      -0.013       3.571      60.912     816.000
   248.00     107.983       2.988       2.934       3.341       3.631       4.064       4.127       0.381       0.178       2.357      -0.008       3.669      60.936     806.000
   247.50     109.163       2.988       2.969       3.386       3.672       4.108       4.155       0.390       0.175       2.361      -0.005       3.765      60.961     821.000
   247.00     115.023       2.988       3.000       3.419       3.708       4.141       4.179       0.410       0.174       2.364      -0.008       3.778      60.985     805.000
   246.50     114.946       2.988       3.025       3.458       3.741       4.167       4.203       0.370       0.170       2.370      -0.009       3.701      61.009     828.000
   246.00     121.218       2.988       3.047       3.481       3.763       4.185       4.241       0.372       0.169       2.371      -0.007       3.614      61.034     810.000
   245.50     110.417       2.988       3.007       3.441       3.697       4.094       4.164       0.409       0.173       2.364      -0.003       3.530      61.058     815.000
   245.00     107.111       2.988       2.934       3.341       3.576       3.941       4.019       0.384       0.179       2.355      -0.001       3.466      61.082     826.000
   244.50     102.144       2.988       2.862       3.253       3.470       3.821       3.913       0.449       0.183       2.347      -0.003       3.419      61.107     801.000
   244.00     107.910       2.988       2.788       3.161       3.366       3.712       3.805       0.429       0.186       2.343      -0.007       3.419      61.131     860.000
   243.50     107.153       2.988       2.703       3.066       3.260       3.591       3.686       0.412       0.190       2.336      -0.010       3.473      61.155     844.000
   243.00     108.329       2.988       2.640       2.982       3.167       3.492       3.586       0.411       0.195       2.329      -0.010       3.537      61.180     816.000
   242.50     116.675       2.988       2.606       2.936       3.117       3.434       3.536       0.418       0.199       2.322      -0.008       3.565      61.204     831.000
   242.00     118.258       2.988       2.584       2.911       3.092       3.426       3.531       0.402       0.201       2.318      -0.006       3.536      61.228     838.000
   241.50     120.394       2.988       2.569       2.892       3.080       3.401       3.498       0.441       0.196       2.327      -0.007       3.457      61.253     853.000
   241.00     115.654       2.988       2.574       2.898       3.094       3.431       3.519       0.439       0.188       2.341      -0.010       3.376      61.277     857.000
   240.50     115.240       2.988       2.622       2.957       3.161       3.510       3.598       0.442       0.183       2.347      -0.012       3.355      61.301     856.000
