~VERSION INFORMATION
VERS.           2.0   :CWLS Log ASCII Standard - VERSION 2.0
WRAP.           NO    :One Line per depth step
PROD.  Schlumberger   :LAS Producer
PROG.  DLIS to ASCII 9C2-303                           :LAS Program name and version
CREA.        2001/08/27 19:21                          :LAS Creation date {YYYY/MM/DD hh:mm}
SOURCE.     AIT_TLD_MCFL_CNL_015PUP.DLIS               :DLIS File Name
FILE-ID.     015                                       :File Identification Number
#--------------------------------------------------
~WELL INFORMATION
#MNEM.UNIT      DATA             DESCRIPTION
#---- ------ --------------   -----------------------------
STRT .F       1500.00        :START DEPTH     
STOP .F         63.50        :STOP DEPTH     
STEP .F         -0.50       :STEP     
NULL .          -999.25      :NULL VALUE
COMP .        DOUBLE EAGLE PETROLEUM                   :COMPANY
WELL .        COW CREEK UNIT 43-12                     :WELL
FLD  .        COW CREEK                                :FIELD
LOC  .        476' FEL & 1738' FSL                     :LOCATION
PROV .        CARBON                                   :PROVINCE
UWI  .        NE/SE                                    :UNIQUE WELL ID
LIC  .        4900721918                               :API NUMBER
CTRY .        CA                                       :COUNTRY (WWW code)
DATE .        27-Aug-2001                              :LOG DATE {DD-MMM-YYYY}
SRVC .        Schlumberger                             :SERVICE COMPANY
LATI .DEG     41.37037                                 :LATITUDE
LONG .DEG     -107.68952                               :LONGITUDE
GDAT .                                                 :GeoDetic Datum
 API .                                      4900721918 :API NUMBER
USGS.         E934                                     :USGS Number
UTM-N.        4583363.54                               :Northing
UTM-E.        275067.57                                :Easting
CORE.         N/A                                      :Core/Log Offset
#-----------------------------------------------------------------------------
~PARAMETER INFORMATION
#MNEM.UNIT    VALUE                      DESCRIPTION
#---- -----   --------------------       ------------------------
CN   .        DOUBLE EAGLE PETROLEUM     :Company Name
WN   .        COW CREEK UNIT 43-12       :Well Name
FN   .        COW CREEK                  :Field Name
FL   .        476' FEL & 1738' FSL       :Field Location
COUN .        CARBON                     :County or Rig Name
STAT .        WYOMING                    :State or Province
NATI .                                   :Nation
DATE .        27-Aug-2001                :Date as Month-Day-Year
APIN .        049-007-21918              :API Serial Number
UWID .                                   :Unique Well Identification Number
RUN  .          1                        :RUN NUMBER
PDAT .        GROUND LEVEL               :Permanent Datum
EREF .F         6716.000000              :Elevation of Permanent Datum above Mean Sea Level
DREF .          KELLY BUSHING            :Logging Measured From (Name of Logging Elevation Reference)
APD  .F          12.000000               :Elevation of Depth Reference (LMF) above Permanent Datum
#-----------------------------------------------------------------------------
~CURVE INFORMATION
#MNEM.UNIT   API CODE                                  DESCRIPTION
#---- -----  --------                                  -----------------------
DEPT .F                                                :DEPTH (BOREHOLE) {F9.2}
GR   .GAPI                                             :Gamma-Ray {F12.3}
HCAL .IN                                               :HRCC Cal. Caliper {F12.3}
AHT10.OHMM                                             :Array Induction Two Foot Resistivity A10 {F12.3}
AHT20.OHMM                                             :Array Induction Two Foot Resistivity A20 {F12.3}
AHT30.OHMM                                             :Array Induction Two Foot Resistivity A30 {F12.3}
AHT60.OHMM                                             :Array Induction Two Foot Resistivity A60 {F12.3}
AHT90.OHMM                                             :Array Induction Two Foot Resistivity A90 {F12.3}
NPOR .CFCF                                             :Enhanced Thermal Neutron Porosity {F12.3}
DPHZ .CFCF                                             :HRDD Standard Resolution Density Porosity {F12.3}
RHOZ .G/C3                                             :HRDD Standard Resolution Formation Density {F12.3}
HDRA .G/C3                                             :HRDD Density Correction {F12.3}
PEFZ .                                                 :HRDD Standard Resolution Formation Photoelectric Factor {F12.3}
IHV  .F3                                               :Integrated Hole Volume {F12.3}
TENS .LBF                                              :Cable Tension {F12.3}
#-----------------------------------------------------------------------------
# 
#    DEPT        GR         HCAL        AHT10       AHT20       AHT30       AHT60       AHT90       NPOR        DPHZ        RHOZ        HDRA        PEFZ         IHV        TENS
#
~A  
# ...
   465.00      90.724       2.965       2.785       3.086       3.268       3.553       3.607       0.372       0.172       2.366      -0.003       3.715      50.372     867.000
   464.50      92.219       2.988       2.784       3.076       3.267       3.547       3.604       0.343       0.167       2.375      -0.000       3.713      50.397     859.000
   464.00      94.110       2.988       2.780       3.067       3.254       3.526       3.599       0.352       0.161       2.384       0.000       3.727      50.421     878.000
   463.50      96.215       2.988       2.781       3.064       3.251       3.515       3.585       0.397       0.161       2.385       0.001       3.802      50.446     851.000
   463.00      92.909       2.988       2.824       3.111       3.310       3.592       3.643       0.408       0.159       2.388       0.002       3.911      50.470     861.000
   462.50      90.704       2.988       2.893       3.189       3.400       3.699       3.750       0.414       0.159       2.388       0.005       4.044      50.494     865.000
   462.00      88.634       2.988       2.956       3.269       3.486       3.805       3.850       0.366       0.157       2.391       0.006       4.101      50.519     846.000
   461.50      88.240       2.988       3.046       3.385       3.604       3.945       3.995       0.387       0.161       2.384       0.004       4.056      50.543     874.000
   461.00      93.868       2.988       3.065       3.404       3.622       3.959       4.011       0.414       0.165       2.378       0.001       3.943      50.567     879.000
   460.50     100.492       2.988       2.927       3.247       3.447       3.758       3.801       0.423       0.167       2.375       0.000       3.865      50.592     891.000
   460.00     113.171       2.988       2.802       3.099       3.281       3.570       3.607       0.389       0.165       2.378       0.001       3.845      50.616     878.000
   459.50     115.237       2.988       2.731       3.020       3.192       3.453       3.502       0.346       0.166       2.377       0.001       3.868      50.640     866.000
   459.00     108.199       2.988       2.749       3.027       3.192       3.463       3.508       0.390       0.163       2.380      -0.000       3.840      50.665     887.000
   458.50     104.341       2.988       2.808       3.096       3.278       3.542       3.614       0.369       0.164       2.379      -0.001       3.803      50.689     848.000
   458.00      97.316       2.988       2.850       3.143       3.326       3.610       3.663       0.386       0.164       2.379       0.000       3.762      50.713     844.000
   457.50     102.739       2.965       2.836       3.117       3.308       3.600       3.651       0.423       0.164       2.380      -0.000       3.769      50.737     881.000
   457.00      97.206       2.988       2.821       3.113       3.303       3.599       3.648       0.377       0.157       2.391       0.001       3.829      50.762     917.000
   456.50      99.272       2.988       2.815       3.120       3.300       3.592       3.638       0.394       0.153       2.398      -0.001       3.930      50.786     923.000
   456.00     100.930       2.988       2.817       3.124       3.315       3.607       3.648       0.401       0.156       2.393      -0.003       4.034      50.810     926.000
   455.50     100.517       2.988       2.810       3.104       3.287       3.584       3.622       0.405       0.159       2.388      -0.004       4.148      50.835     891.000
   455.00     102.191       2.988       2.788       3.067       3.246       3.547       3.579       0.438       0.157       2.391       0.001       4.268      50.859     890.000
   454.50      98.422       2.988       2.786       3.083       3.268       3.556       3.600       0.383       0.156       2.392       0.004       4.295      50.883     904.000
   454.00      99.661       2.988       2.858       3.167       3.349       3.657       3.698       0.406       0.159       2.387       0.002       4.165      50.908     887.000
   453.50     103.520       2.988       2.902       3.228       3.414       3.737       3.773       0.393       0.166       2.376      -0.004       3.951      50.932     874.000
   453.00     105.176       2.988       2.814       3.117       3.306       3.590       3.650       0.398       0.168       2.372      -0.008       3.809      50.956     907.000
   452.50     102.165       2.988       2.717       3.007       3.173       3.452       3.488       0.375       0.168       2.373      -0.008       3.779      50.981     888.000
   452.00      97.045       2.988       2.672       2.950       3.106       3.373       3.404       0.399       0.166       2.376      -0.007       3.844      51.005     892.000
   451.50      99.529       2.988       2.673       2.946       3.111       3.373       3.414       0.395       0.161       2.385      -0.003       3.997      51.029     905.000
   451.00     107.247       2.988       2.707       2.991       3.155       3.423       3.469       0.391       0.159       2.388       0.002       4.235      51.054     878.000
   450.50     103.528       2.988       2.749       3.034       3.197       3.472       3.517       0.399       0.157       2.391       0.011       4.503      51.078     896.000
   450.00     104.725       2.988       2.753       3.051       3.212       3.492       3.536       0.421       0.158       2.389       0.018       4.620      51.102     905.000
   449.50      98.011       2.988       2.735       3.044       3.201       3.471       3.528       0.410       0.159       2.387       0.024       4.482      51.127     887.000
   449.00     107.953       2.988       2.725       3.035       3.193       3.472       3.508       0.394       0.160       2.386       0.029       4.204      51.151     909.000
   448.50     107.998       2.988       2.708       3.015       3.179       3.463       3.489       0.382       0.166       2.376       0.027       3.977      51.176     903.000
   448.00     116.203       2.988       2.644       2.931       3.096       3.351       3.392       0.411       0.179       2.355       0.020       3.925      51.200     922.000
   447.50     122.818       2.988       2.573       2.842       2.998       3.248       3.299       0.400       0.193       2.331       0.008       3.918      51.224     884.000
   447.00     120.334       2.988       2.495       2.740       2.884       3.138       3.187       0.402       0.196       2.327       0.003       3.892      51.249     890.000
   446.50     114.433       2.988       2.467       2.719       2.853       3.076       3.137       0.400       0.189       2.338       0.002       3.808      51.273     928.000
   446.00     109.859       2.988       2.546       2.794       2.972       3.217       3.279       0.389       0.180       2.353       0.002       3.727      51.297     912.000
   445.50     113.585       2.988       2.636       2.892       3.093       3.368       3.427       0.379       0.178       2.357       0.002       3.685      51.322     891.000
   445.00     107.520       2.988       2.696       2.963       3.145       3.418       3.477       0.414       0.178       2.356       0.002       3.694      51.346     924.000
   444.50     101.736       2.988       2.702       2.982       3.170       3.438       3.495       0.402       0.179       2.355       0.002       3.714      51.370     922.000
   444.00      98.838       2.988       2.688       2.964       3.137       3.412       3.464       0.375       0.178       2.356      -0.001       3.735      51.395     951.000
   443.50     103.799       2.988       2.655       2.932       3.095       3.357       3.407       0.406       0.180       2.352      -0.003       3.764      51.419     920.000
   443.00      94.296       2.988       2.584       2.861       3.021       3.276       3.320       0.436       0.187       2.342      -0.003       3.802      51.443     879.000
