~VERSION INFORMATION
VERS.           2.0   :CWLS Log ASCII Standard - VERSION 2.0
WRAP.           NO    :One Line per depth step
PROD.  Schlumberger   :LAS Producer
PROG.  DLIS to ASCII 9C2-303                           :LAS Program name and version
CREA.        2001/08/27 19:21                          :LAS Creation date {YYYY/MM/DD hh:mm}
SOURCE.     AIT_TLD_MCFL_CNL_015PUP.DLIS               :DLIS File Name
FILE-ID.     015                                       :File Identification Number
#--------------------------------------------------
~WELL INFORMATION
#MNEM.UNIT      DATA             DESCRIPTION
#---- ------ --------------   -----------------------------
STRT .F       1500.00        :START DEPTH     
STOP .F         63.50        :STOP DEPTH     
STEP .F         -0.50       :STEP     
NULL .          -999.25      :NULL VALUE
COMP .        DOUBLE EAGLE PETROLEUM                   :COMPANY
WELL .        COW CREEK UNIT 43-12                     :WELL
FLD  .        COW CREEK                                :FIELD
LOC  .        476' FEL & 1738' FSL                     :LOCATION
PROV .        CARBON                                   :PROVINCE
UWI  .        NE/SE                                    :UNIQUE WELL ID
LIC  .        4900721918                               :API NUMBER
CTRY .        CA                                       :COUNTRY (WWW code)
DATE .        27-Aug-2001                              :LOG DATE {DD-MMM-YYYY}
SRVC .        Schlumberger                             :SERVICE COMPANY
LATI .DEG     41.37037                                 :LATITUDE
LONG .DEG     -107.68952                               :LONGITUDE
GDAT .                                                 :GeoDetic Datum
 API .                                      4900721918 :API NUMBER
USGS.         E934                                     :USGS Number
UTM-N.        4583363.54                               :Northing
UTM-E.        275067.57                                :Easting
CORE.         N/A                                      :Core/Log Offset
#-----------------------------------------------------------------------------
~PARAMETER INFORMATION
#MNEM.UNIT    VALUE                      DESCRIPTION
#---- -----   --------------------       ------------------------
CN   .        DOUBLE EAGLE PETROLEUM     :Company Name
WN   .        COW CREEK UNIT 43-12       :Well Name
FN   .        COW CREEK                  :Field Name
FL   .        476' FEL & 1738' FSL       :Field Location
COUN .        CARBON                     :County or Rig Name
STAT .        WYOMING                    :State or Province
NATI .                                   :Nation
DATE .        27-Aug-2001                :Date as Month-Day-Year
APIN .        049-007-21918              :API Serial Number
UWID .                                   :Unique Well Identification Number
RUN  .          1                        :RUN NUMBER
PDAT .        GROUND LEVEL               :Permanent Datum
EREF .F         6716.000000              :Elevation of Permanent Datum above Mean Sea Level
DREF .          KELLY BUSHING            :Logging Measured From (Name of Logging Elevation Reference)
APD  .F          12.000000               :Elevation of Depth Reference (LMF) above Permanent Datum
#-----------------------------------------------------------------------------
~CURVE INFORMATION
#MNEM.UNIT   API CODE                                  DESCRIPTION
#---- -----  --------                                  -----------------------
DEPT .F                                                :DEPTH (BOREHOLE) {F9.2}
GR   .GAPI                                             :Gamma-Ray {F12.3}
HCAL .IN                                               :HRCC Cal. Caliper {F12.3}
AHT10.OHMM                                             :Array Induction Two Foot Resistivity A10 {F12.3}
AHT20.OHMM                                             :Array Induction Two Foot Resistivity A20 {F12.3}
AHT30.OHMM                                             :Array Induction Two Foot Resistivity A30 {F12.3}
AHT60.OHMM                                             :Array Induction Two Foot Resistivity A60 {F12.3}
AHT90.OHMM                                             :Array Induction Two Foot Resistivity A90 {F12.3}
NPOR .CFCF                                             :Enhanced Thermal Neutron Porosity {F12.3}
DPHZ .CFCF                                             :HRDD Standard Resolution Density Porosity {F12.3}
RHOZ .G/C3                                             :HRDD Standard Resolution Formation Density {F12.3}
HDRA .G/C3                                             :HRDD Density Correction {F12.3}
PEFZ .                                                 :HRDD Standard Resolution Formation Photoelectric Factor {F12.3}
IHV  .F3                                               :Integrated Hole Volume {F12.3}
TENS .LBF                                              :Cable Tension {F12.3}
#-----------------------------------------------------------------------------
# 
#    DEPT        GR         HCAL        AHT10       AHT20       AHT30       AHT60       AHT90       NPOR        DPHZ        RHOZ        HDRA        PEFZ         IHV        TENS
#
~A  
# ...
   735.00     120.205       2.988       2.890       3.071       3.184       3.352       3.362       0.401       0.157       2.392      -0.008       3.883      37.235    1045.000
   734.50     113.950       2.988       2.910       3.121       3.250       3.394       3.409       0.395       0.164       2.379      -0.008       3.850      37.260    1033.000
   734.00     114.959       2.988       2.903       3.145       3.237       3.411       3.408       0.410       0.170       2.370      -0.007       3.715      37.284    1036.000
   733.50     111.816       2.988       2.945       3.168       3.293       3.459       3.460       0.378       0.173       2.364      -0.004       3.537      37.308    1022.000
   733.00     102.289       2.988       2.935       3.147       3.262       3.433       3.436       0.400       0.171       2.368       0.001       3.421      37.333    1028.000
   732.50     106.340       2.988       2.869       3.089       3.211       3.379       3.389       0.387       0.168       2.373       0.003       3.410      37.357    1016.000
   732.00      94.195       2.965       2.824       3.027       3.151       3.317       3.331       0.390       0.163       2.381       0.003       3.448      37.381    1020.000
   731.50      98.759       2.988       2.826       3.028       3.144       3.308       3.326       0.380       0.160       2.385      -0.000       3.453      37.405    1059.000
   731.00      90.983       2.988       2.859       3.058       3.184       3.357       3.385       0.382       0.162       2.383      -0.003       3.414      37.430     997.000
   730.50      95.962       2.988       2.896       3.110       3.242       3.424       3.449       0.372       0.167       2.375      -0.005       3.365      37.454    1034.000
   730.00     103.793       2.988       2.925       3.141       3.270       3.457       3.486       0.373       0.170       2.370      -0.003       3.359      37.478    1041.000
   729.50     108.715       2.988       2.898       3.119       3.257       3.450       3.481       0.430       0.167       2.374      -0.000       3.421      37.503    1022.000
   729.00     107.929       2.988       2.855       3.087       3.225       3.411       3.443       0.413       0.162       2.383       0.003       3.516      37.527    1047.000
   728.50     108.367       2.988       2.855       3.072       3.199       3.383       3.412       0.411       0.158       2.389       0.003       3.565      37.551    1072.000
   728.00     109.584       2.988       2.900       3.123       3.259       3.444       3.480       0.380       0.155       2.394       0.001       3.537      37.576    1039.000
   727.50     116.532       2.988       2.973       3.199       3.347       3.549       3.581       0.364       0.155       2.395      -0.002       3.479      37.600    1059.000
   727.00     116.921       2.988       2.987       3.215       3.371       3.578       3.612       0.389       0.156       2.393      -0.003       3.464      37.624    1056.000
   726.50     121.217       2.988       2.954       3.174       3.317       3.514       3.543       0.391       0.157       2.391      -0.002       3.505      37.649    1084.000
   726.00     109.714       2.988       2.931       3.152       3.291       3.480       3.512       0.385       0.151       2.400      -0.003       3.536      37.673    1070.000
   725.50      98.851       2.988       2.915       3.153       3.295       3.485       3.518       0.392       0.146       2.410      -0.002       3.575      37.698    1037.000
   725.00      94.142       2.988       2.925       3.152       3.289       3.478       3.510       0.404       0.143       2.414       0.001       3.608      37.722    1054.000
   724.50     101.137       2.988       2.949       3.185       3.325       3.513       3.552       0.412       0.152       2.399       0.000       3.624      37.746    1022.000
   724.00     107.107       2.988       2.918       3.149       3.286       3.478       3.508       0.403       0.159       2.387      -0.004       3.571      37.771    1017.000
   723.50     112.367       2.988       2.875       3.091       3.220       3.426       3.443       0.417       0.163       2.381      -0.009       3.520      37.795    1020.000
   723.00     107.387       2.988       2.841       3.061       3.198       3.399       3.422       0.381       0.159       2.387      -0.008       3.542      37.819    1028.000
   722.50     114.096       2.988       2.850       3.069       3.188       3.382       3.406       0.367       0.162       2.383      -0.005       3.620      37.844    1039.000
   722.00     109.734       2.988       2.899       3.106       3.228       3.432       3.460       0.430       0.167       2.374      -0.003       3.601      37.868    1045.000
   721.50     120.226       2.988       2.888       3.111       3.258       3.464       3.511       0.425       0.174       2.363      -0.001       3.466      37.892    1039.000
   721.00     124.195       2.965       2.775       3.019       3.149       3.350       3.375       0.382       0.171       2.367      -0.000       3.299      37.916    1056.000
   720.50     120.374       2.988       2.695       2.898       3.038       3.227       3.246       0.395       0.165       2.377      -0.001       3.229      37.941    1062.000
   720.00     114.839       2.988       2.785       2.986       3.110       3.330       3.323       0.406       0.158       2.389      -0.005       3.252      37.965    1036.000
   719.50     114.179       2.965       2.890       3.087       3.236       3.467       3.473       0.359       0.155       2.394      -0.009       3.307      37.989    1028.000
   719.00     112.618       2.988       2.951       3.157       3.331       3.566       3.568       0.373       0.155       2.394      -0.010       3.345      38.013    1043.000
   718.50     108.229       2.988       3.005       3.228       3.395       3.644       3.640       0.362       0.159       2.388      -0.007       3.361      38.038    1095.000
   718.00      93.188       2.988       3.047       3.278       3.445       3.701       3.689       0.361       0.159       2.388      -0.004       3.352      38.062    1030.000
   717.50      96.317       2.988       3.065       3.308       3.480       3.731       3.712       0.358       0.158       2.390      -0.004       3.352      38.086    1036.000
   717.00     106.981       2.965       3.079       3.331       3.499       3.745       3.724       0.371       0.153       2.398      -0.003       3.336      38.110    1054.000
   716.50     108.240       2.988       3.095       3.351       3.511       3.771       3.725       0.362       0.151       2.401      -0.005       3.309      38.135    1049.000
   716.00     103.397       2.988       3.101       3.352       3.505       3.771       3.717       0.355       0.150       2.403      -0.007       3.263      38.159    1054.000
   715.50      99.349       2.988       3.069       3.328       3.478       3.754       3.690       0.391       0.149       2.404      -0.009       3.232      38.183    1051.000
   715.00     108.909       2.988       3.047       3.307       3.449       3.703       3.661       0.375       0.151       2.401      -0.009       3.228      38.208    1041.000
   714.50     106.586       2.988       3.038       3.278       3.413       3.666       3.639       0.372       0.153       2.398      -0.007       3.249      38.232    1048.000
   714.00     109.731       2.988       3.002       3.235       3.355       3.593       3.566       0.351       0.160       2.386      -0.007       3.349      38.256    1055.000
   713.50     115.170       2.988       2.912       3.152       3.268       3.483       3.459       0.349       0.161       2.385      -0.004       3.616      38.281    1031.000
   713.00     112.949       2.988       2.786       3.009       3.115       3.296       3.277       0.378       0.133       2.431       0.014       4.140      38.305    1045.000
