~VERSION INFORMATION
VERS.           2.0   :CWLS Log ASCII Standard - VERSION 2.0
WRAP.           NO    :One Line per depth step
PROD.  Schlumberger   :LAS Producer
PROG.  DLIS to ASCII 9C2-303                           :LAS Program name and version
CREA.        2001/08/27 19:21                          :LAS Creation date {YYYY/MM/DD hh:mm}
SOURCE.     AIT_TLD_MCFL_CNL_015PUP.DLIS               :DLIS File Name
FILE-ID.     015                                       :File Identification Number
#--------------------------------------------------
~WELL INFORMATION
#MNEM.UNIT      DATA             DESCRIPTION
#---- ------ --------------   -----------------------------
STRT .F       1500.00        :START DEPTH     
STOP .F         63.50        :STOP DEPTH     
STEP .F         -0.50       :STEP     
NULL .          -999.25      :NULL VALUE
COMP .        DOUBLE EAGLE PETROLEUM                   :COMPANY
WELL .        COW CREEK UNIT 43-12                     :WELL
FLD  .        COW CREEK                                :FIELD
LOC  .        476' FEL & 1738' FSL                     :LOCATION
PROV .        CARBON                                   :PROVINCE
UWI  .        NE/SE                                    :UNIQUE WELL ID
LIC  .        4900721918                               :API NUMBER
CTRY .        CA                                       :COUNTRY (WWW code)
DATE .        27-Aug-2001                              :LOG DATE {DD-MMM-YYYY}
SRVC .        Schlumberger                             :SERVICE COMPANY
LATI .DEG     41.37037                                 :LATITUDE
LONG .DEG     -107.68952                               :LONGITUDE
GDAT .                                                 :GeoDetic Datum
 API .                                      4900721918 :API NUMBER
USGS.         E934                                     :USGS Number
UTM-N.        4583363.54                               :Northing
UTM-E.        275067.57                                :Easting
CORE.         N/A                                      :Core/Log Offset
#-----------------------------------------------------------------------------
~PARAMETER INFORMATION
#MNEM.UNIT    VALUE                      DESCRIPTION
#---- -----   --------------------       ------------------------
CN   .        DOUBLE EAGLE PETROLEUM     :Company Name
WN   .        COW CREEK UNIT 43-12       :Well Name
FN   .        COW CREEK                  :Field Name
FL   .        476' FEL & 1738' FSL       :Field Location
COUN .        CARBON                     :County or Rig Name
STAT .        WYOMING                    :State or Province
NATI .                                   :Nation
DATE .        27-Aug-2001                :Date as Month-Day-Year
APIN .        049-007-21918              :API Serial Number
UWID .                                   :Unique Well Identification Number
RUN  .          1                        :RUN NUMBER
PDAT .        GROUND LEVEL               :Permanent Datum
EREF .F         6716.000000              :Elevation of Permanent Datum above Mean Sea Level
DREF .          KELLY BUSHING            :Logging Measured From (Name of Logging Elevation Reference)
APD  .F          12.000000               :Elevation of Depth Reference (LMF) above Permanent Datum
#-----------------------------------------------------------------------------
~CURVE INFORMATION
#MNEM.UNIT   API CODE                                  DESCRIPTION
#---- -----  --------                                  -----------------------
DEPT .F                                                :DEPTH (BOREHOLE) {F9.2}
GR   .GAPI                                             :Gamma-Ray {F12.3}
HCAL .IN                                               :HRCC Cal. Caliper {F12.3}
AHT10.OHMM                                             :Array Induction Two Foot Resistivity A10 {F12.3}
AHT20.OHMM                                             :Array Induction Two Foot Resistivity A20 {F12.3}
AHT30.OHMM                                             :Array Induction Two Foot Resistivity A30 {F12.3}
AHT60.OHMM                                             :Array Induction Two Foot Resistivity A60 {F12.3}
AHT90.OHMM                                             :Array Induction Two Foot Resistivity A90 {F12.3}
NPOR .CFCF                                             :Enhanced Thermal Neutron Porosity {F12.3}
DPHZ .CFCF                                             :HRDD Standard Resolution Density Porosity {F12.3}
RHOZ .G/C3                                             :HRDD Standard Resolution Formation Density {F12.3}
HDRA .G/C3                                             :HRDD Density Correction {F12.3}
PEFZ .                                                 :HRDD Standard Resolution Formation Photoelectric Factor {F12.3}
IHV  .F3                                               :Integrated Hole Volume {F12.3}
TENS .LBF                                              :Cable Tension {F12.3}
#-----------------------------------------------------------------------------
# 
#    DEPT        GR         HCAL        AHT10       AHT20       AHT30       AHT60       AHT90       NPOR        DPHZ        RHOZ        HDRA        PEFZ         IHV        TENS
#
~A  
# ...
    82.50      54.758       2.988       3.495       4.040       4.459       5.268       5.396       0.399      -0.570       3.590       1.014      10.000      64.004     791.000
    82.00      58.941       2.988       3.495       4.040       4.459       5.268       5.396       0.467      -0.577       3.603       1.011      10.000      64.004     801.000
    81.50      54.815       2.988       3.495       4.040       4.459       5.268       5.396       0.440      -0.577       3.602       1.010      10.000      64.004     776.000
    81.00      54.586       2.988       3.495       4.040       4.459       5.268       5.396       0.382      -0.566       3.584       1.009      10.000      64.004     768.000
    80.50      60.662       2.988       3.495       4.040       4.459       5.268       5.396       0.458      -0.549       3.556       0.988      10.000      64.004     772.000
    80.00      67.544       2.988       3.495       4.040       4.459       5.268       5.396       0.448      -0.535       3.533       0.977      10.000      64.004     775.000
    79.50      70.421       2.988       3.495       4.040       4.459       5.268       5.396       0.432      -0.526       3.518       0.962      10.000      64.004     773.000
    79.00      70.409       2.988       3.495       4.040       4.459       5.268       5.396       0.450      -0.519       3.507       0.941      10.000      64.004     791.000
    78.50      69.060       2.988       3.495       4.040       4.459       5.268       5.396       0.430      -0.514       3.497       0.920      10.000      64.004     805.000
    78.00      69.215       2.988       3.495       4.040       4.459       5.268       5.396       0.462      -0.509       3.490       0.911      10.000      64.004     805.000
    77.50      62.876       2.988       3.495       4.040       4.459       5.268       5.396       0.434      -0.507       3.486       0.921      10.000      64.004     798.000
    77.00      59.328       2.988       3.495       4.040       4.459       5.268       5.396       0.426      -0.505       3.483       0.941      10.000      64.004     786.000
    76.50      60.982       2.988       3.495       4.040       4.459       5.268       5.396       0.454      -0.501       3.476       0.960      10.000      64.004     804.000
    76.00      59.603       2.988       3.495       4.040       4.459       5.268       5.396       0.418      -0.496       3.468       0.965      10.000      64.004     775.000
    75.50      60.265       2.988       3.495       4.040       4.459       5.268       5.396       0.448      -0.495       3.467       0.955      10.000      64.004     805.000
    75.00      62.470       2.988       3.495       4.040       4.459       5.268       5.396       0.422      -0.498       3.471       0.932      10.000      64.004     837.000
    74.50      68.839       2.988       3.495       4.040       4.459       5.268       5.396       0.457      -0.499       3.474       0.917      10.000      64.004     795.000
    74.00      68.147       2.988       3.495       4.040       4.459       5.268       5.396       0.424      -0.493       3.463       0.904      10.000      64.004     823.000
    73.50      65.142       2.988       3.495       4.040       4.459       5.268       5.396       0.456      -0.482       3.445       0.905      10.000      64.004     794.000
    73.00      57.395       2.988       3.495       4.040       4.459       5.268       5.396       0.452      -0.476       3.436       0.911      10.000      64.004     810.000
    72.50      53.225       2.988       3.495       4.040       4.459       5.268       5.396       0.417      -0.486       3.452       0.921      10.000      64.004     846.000
    72.00      49.569       2.988       3.495       4.040       4.459       5.268       5.396       0.395      -0.505       3.483       0.934      10.000      64.004     799.000
    71.50      56.184       2.988       3.495       4.040       4.459       5.268       5.396       0.411      -0.514       3.498       0.950      10.000      64.004     793.000
    71.00      59.722       2.988       3.495       4.040       4.459       5.268       5.396       0.466      -0.502       3.478       0.959      10.000      64.004     815.000
    70.50      62.370       2.988       3.495       4.040       4.459       5.268       5.396       0.435      -0.476       3.435       0.939      10.000      64.004     807.000
    70.00      61.267       2.988       3.495       4.040       4.459       5.268       5.396       0.449      -0.454       3.399       0.903      10.000      64.004     799.000
    69.50      65.172       2.988       3.495       4.040       4.459       5.268       5.396       0.406      -0.446       3.385       0.885      10.000      64.004     813.000
    69.00      63.673       2.988       3.495       4.040       4.459       5.268       5.396       0.447      -0.446       3.385       0.885      10.000      64.004     826.000
    68.50      67.839       2.988       3.495       4.040       4.459       5.268       5.396       0.445      -0.446       3.385       0.885      10.000      64.004     807.000
    68.00      67.839       2.988       3.495       4.040       4.459       5.268       5.396       0.395      -0.446       3.385       0.885      10.000      64.004     817.000
    67.50      69.007       2.988       3.495       4.040       4.459       5.268       5.396       0.364      -0.446       3.385       0.885      10.000      64.004     800.000
    67.00      62.911       2.988       3.495       4.040       4.459       5.268       5.396       0.392      -0.446       3.385       0.885      10.000      64.004     813.000
    66.50      62.084       2.988       3.495       4.040       4.459       5.268       5.396       0.468      -0.446       3.385       0.885      10.000      64.004     826.000
    66.00      58.160       2.988       3.495       4.040       4.459       5.268       5.396       0.425      -0.446       3.385       0.885      10.000      64.004     763.000
    65.50      64.500       2.988       3.495       4.040       4.459       5.268       5.396       0.414      -0.446       3.385       0.885      10.000      64.004     749.000
    65.00      60.940       2.988       3.495       4.040       4.459       5.268       5.396       0.409      -0.446       3.385       0.885      10.000      64.004     713.000
    64.50      71.139       2.988       3.495       4.040       4.459       5.268       5.396       0.407      -0.446       3.385       0.885      10.000      64.004     725.000
    64.00      73.344       2.988       3.495       4.040       4.459       5.268       5.396       0.407      -0.446       3.385       0.885      10.000      64.004     725.000
    63.50      75.250       2.988       3.495       4.040       4.459       5.268       5.396       0.407      -0.446       3.385       0.885      10.000      64.004     733.000
