~VERSION INFORMATION
VERS.           2.0   :CWLS Log ASCII Standard - VERSION 2.0
WRAP.           NO    :One Line per depth step
PROD.  Schlumberger   :LAS Producer
PROG.  DLIS to ASCII 9C2-303                           :LAS Program name and version
CREA.        2001/08/27 19:21                          :LAS Creation date {YYYY/MM/DD hh:mm}
SOURCE.     AIT_TLD_MCFL_CNL_015PUP.DLIS               :DLIS File Name
FILE-ID.     015                                       :File Identification Number
#--------------------------------------------------
~WELL INFORMATION
#MNEM.UNIT      DATA             DESCRIPTION
#---- ------ --------------   -----------------------------
STRT .F       1500.00        :START DEPTH     
STOP .F         63.50        :STOP DEPTH     
STEP .F         -0.50       :STEP     
NULL .          -999.25      :NULL VALUE
COMP .        DOUBLE EAGLE PETROLEUM                   :COMPANY
WELL .        COW CREEK UNIT 43-12                     :WELL
FLD  .        COW CREEK                                :FIELD
LOC  .        476' FEL & 1738' FSL                     :LOCATION
PROV .        CARBON                                   :PROVINCE
UWI  .        NE/SE                                    :UNIQUE WELL ID
LIC  .        4900721918                               :API NUMBER
CTRY .        CA                                       :COUNTRY (WWW code)
DATE .        27-Aug-2001                              :LOG DATE {DD-MMM-YYYY}
SRVC .        Schlumberger                             :SERVICE COMPANY
LATI .DEG     41.37037                                 :LATITUDE
LONG .DEG     -107.68952                               :LONGITUDE
GDAT .                                                 :GeoDetic Datum
 API .                                      4900721918 :API NUMBER
USGS.         E934                                     :USGS Number
UTM-N.        4583363.54                               :Northing
UTM-E.        275067.57                                :Easting
CORE.         N/A                                      :Core/Log Offset
#-----------------------------------------------------------------------------
~PARAMETER INFORMATION
#MNEM.UNIT    VALUE                      DESCRIPTION
#---- -----   --------------------       ------------------------
CN   .        DOUBLE EAGLE PETROLEUM     :Company Name
WN   .        COW CREEK UNIT 43-12       :Well Name
FN   .        COW CREEK                  :Field Name
FL   .        476' FEL & 1738' FSL       :Field Location
COUN .        CARBON                     :County or Rig Name
STAT .        WYOMING                    :State or Province
NATI .                                   :Nation
DATE .        27-Aug-2001                :Date as Month-Day-Year
APIN .        049-007-21918              :API Serial Number
UWID .                                   :Unique Well Identification Number
RUN  .          1                        :RUN NUMBER
PDAT .        GROUND LEVEL               :Permanent Datum
EREF .F         6716.000000              :Elevation of Permanent Datum above Mean Sea Level
DREF .          KELLY BUSHING            :Logging Measured From (Name of Logging Elevation Reference)
APD  .F          12.000000               :Elevation of Depth Reference (LMF) above Permanent Datum
#-----------------------------------------------------------------------------
~CURVE INFORMATION
#MNEM.UNIT   API CODE                                  DESCRIPTION
#---- -----  --------                                  -----------------------
DEPT .F                                                :DEPTH (BOREHOLE) {F9.2}
GR   .GAPI                                             :Gamma-Ray {F12.3}
HCAL .IN                                               :HRCC Cal. Caliper {F12.3}
AHT10.OHMM                                             :Array Induction Two Foot Resistivity A10 {F12.3}
AHT20.OHMM                                             :Array Induction Two Foot Resistivity A20 {F12.3}
AHT30.OHMM                                             :Array Induction Two Foot Resistivity A30 {F12.3}
AHT60.OHMM                                             :Array Induction Two Foot Resistivity A60 {F12.3}
AHT90.OHMM                                             :Array Induction Two Foot Resistivity A90 {F12.3}
NPOR .CFCF                                             :Enhanced Thermal Neutron Porosity {F12.3}
DPHZ .CFCF                                             :HRDD Standard Resolution Density Porosity {F12.3}
RHOZ .G/C3                                             :HRDD Standard Resolution Formation Density {F12.3}
HDRA .G/C3                                             :HRDD Density Correction {F12.3}
PEFZ .                                                 :HRDD Standard Resolution Formation Photoelectric Factor {F12.3}
IHV  .F3                                               :Integrated Hole Volume {F12.3}
TENS .LBF                                              :Cable Tension {F12.3}
#-----------------------------------------------------------------------------
# 
#    DEPT        GR         HCAL        AHT10       AHT20       AHT30       AHT60       AHT90       NPOR        DPHZ        RHOZ        HDRA        PEFZ         IHV        TENS
#
~A  
# ...
   645.00     103.421       2.988       2.749       3.030       3.187       3.532       3.687       0.424       0.210       2.303       0.025       4.975      41.614     994.000
   644.50     102.293       2.988       2.675       2.956       3.124       3.465       3.613       0.428       0.193       2.332       0.029       4.686      41.638     936.000
   644.00     103.692       2.988       2.635       2.900       3.056       3.377       3.516       0.423       0.180       2.353       0.030       4.736      41.662     965.000
   643.50     108.897       2.988       2.631       2.901       3.056       3.376       3.509       0.384       0.173       2.365       0.032       4.987      41.687     938.000
   643.00     105.063       2.988       2.660       2.931       3.101       3.423       3.546       0.386       0.187       2.342       0.025       5.195      41.711     990.000
   642.50     103.252       2.988       2.699       2.987       3.164       3.496       3.611       0.427       0.191       2.335       0.034       5.354      41.735    1029.000
   642.00      93.560       2.988       2.760       3.051       3.233       3.581       3.688       0.368       0.197       2.325       0.043       5.311      41.760    1027.000
   641.50      90.431       2.988       2.829       3.131       3.324       3.684       3.786       0.401       0.197       2.324       0.040       4.948      41.784     952.000
   641.00      91.140       2.988       2.895       3.214       3.426       3.794       3.882       0.401       0.193       2.332       0.024       4.275      41.809     994.000
   640.50     106.137       2.988       2.925       3.243       3.449       3.830       3.912       0.364       0.181       2.351       0.006       3.662      41.833     983.000
   640.00     112.022       2.988       2.951       3.276       3.493       3.886       3.967       0.369       0.170       2.369      -0.000       3.330      41.857    1011.000
   639.50     110.959       2.988       2.994       3.321       3.540       3.934       4.018       0.384       0.166       2.376      -0.003       3.282      41.882     949.000
   639.00     104.231       2.988       2.971       3.296       3.514       3.896       3.976       0.409       0.163       2.381      -0.001       3.410      41.906     957.000
   638.50     111.179       2.988       2.946       3.271       3.470       3.850       3.921       0.395       0.157       2.392       0.007       3.782      41.930     959.000
   638.00     117.755       2.988       2.939       3.272       3.475       3.856       3.934       0.384       0.165       2.377       0.010       4.172      41.955     987.000
   637.50     119.960       2.988       2.926       3.290       3.466       3.845       3.928       0.445       0.183       2.349       0.007       4.310      41.979     960.000
   637.00     121.115       2.988       2.878       3.267       3.446       3.816       3.907       0.475       0.195       2.328      -0.000       4.087      42.003     994.000
   636.50     123.871       2.965       2.790       3.225       3.388       3.764       3.890       0.381       0.192       2.333      -0.003       3.745      42.027    1009.000
   636.00     130.954       2.988       2.716       3.134       3.304       3.669       3.832       0.376       0.178       2.356      -0.003       3.502      42.052    1012.000
   635.50     131.121       2.988       2.778       3.234       3.409       3.831       4.037       0.373       0.165       2.379      -0.003       3.388      42.076     993.000
   635.00     128.754       2.988       2.869       3.391       3.614       4.114       4.398       0.368       0.158       2.390      -0.005       3.314      42.100     962.000
   634.50     116.158       2.988       2.983       3.524       3.836       4.425       4.836       0.395       0.159       2.388      -0.006       3.259      42.125    1053.000
   634.00     100.348       2.988       3.102       3.694       4.063       4.787       5.290       0.408       0.164       2.380      -0.007       3.227      42.149     986.000
   633.50      98.304       2.988       3.176       3.797       4.239       5.113       5.712       0.433       0.164       2.380      -0.006       3.232      42.173     937.000
   633.00     103.449       2.988       3.226       3.872       4.399       5.407       6.110       0.399       0.162       2.382      -0.004       3.299      42.198     999.000
   632.50     107.682       2.988       3.270       3.977       4.541       5.685       6.483       0.373       0.159       2.387      -0.001       3.368      42.222     996.000
   632.00     100.635       2.988       3.290       4.101       4.708       5.961       6.873       0.371       0.161       2.385      -0.008       3.418      42.246     953.000
   631.50     101.004       2.988       3.267       4.151       4.774       6.059       6.960       0.365       0.162       2.383      -0.011       3.459      42.271     993.000
   631.00     101.324       2.988       3.225       4.056       4.657       5.876       6.722       0.373       0.158       2.389      -0.010       3.642      42.295    1004.000
   630.50     111.127       2.988       3.190       3.902       4.511       5.602       6.301       0.380       0.155       2.395       0.009       4.110      42.319    1003.000
   630.00     112.344       2.988       3.175       3.823       4.391       5.392       6.005       0.374       0.158       2.389       0.022       4.666      42.344    1031.000
   629.50     108.165       2.988       3.159       3.789       4.343       5.271       5.843       0.409       0.171       2.369       0.028       4.959      42.368    1025.000
   629.00     103.384       2.988       3.148       3.787       4.358       5.283       5.697       0.374       0.174       2.362       0.022       4.728      42.392    1053.000
   628.50     100.514       2.988       3.179       3.799       4.339       5.202       5.508       0.358       0.161       2.384       0.016       4.251      42.417    1016.000
   628.00     102.973       2.988       3.199       3.828       4.300       5.070       5.308       0.347       0.146       2.410       0.009       3.866      42.441    1036.000
   627.50     103.431       2.988       3.288       3.914       4.430       5.231       5.297       0.346       0.141       2.417       0.005       3.765      42.465    1050.000
   627.00     104.649       2.988       3.354       4.033       4.532       5.330       5.319       0.335       0.142       2.416       0.007       3.883      42.490    1043.000
   626.50     109.356       2.988       3.319       3.947       4.408       5.082       5.120       0.369       0.149       2.404       0.009       4.185      42.514     984.000
   626.00     113.452       2.988       3.179       3.777       4.181       4.732       4.764       0.380       0.156       2.393       0.012       4.678      42.539    1012.000
   625.50     108.375       2.988       2.999       3.507       3.869       4.314       4.263       0.398       0.148       2.405       0.020       5.228      42.563    1061.000
   625.00     104.494       2.988       2.922       3.341       3.693       4.121       4.088       0.362       0.146       2.409       0.025       5.592      42.587    1023.000
   624.50     103.619       2.988       3.170       3.644       4.066       4.558       4.506       0.332       0.140       2.418       0.032       5.610      42.612    1050.000
   624.00     112.489       2.988       3.924       4.678       5.326       6.284       6.214       0.382       0.169       2.371       0.023       5.321      42.636     988.000
   623.50     119.126       2.988       4.691       5.917       6.743       8.174       8.151       0.432       0.189       2.338       0.016       4.842      42.660    1010.000
   623.00     124.887       2.988       3.985       4.921       5.628       6.710       6.831       0.421       0.200       2.320       0.005       4.320      42.685    1015.000
