~VERSION INFORMATION
VERS.           2.0   :CWLS Log ASCII Standard - VERSION 2.0
WRAP.           NO    :One Line per depth step
PROD.  Schlumberger   :LAS Producer
PROG.  DLIS to ASCII 9C2-303                           :LAS Program name and version
CREA.        2001/08/27 19:21                          :LAS Creation date {YYYY/MM/DD hh:mm}
SOURCE.     AIT_TLD_MCFL_CNL_015PUP.DLIS               :DLIS File Name
FILE-ID.     015                                       :File Identification Number
#--------------------------------------------------
~WELL INFORMATION
#MNEM.UNIT      DATA             DESCRIPTION
#---- ------ --------------   -----------------------------
STRT .F       1500.00        :START DEPTH     
STOP .F         63.50        :STOP DEPTH     
STEP .F         -0.50       :STEP     
NULL .          -999.25      :NULL VALUE
COMP .        DOUBLE EAGLE PETROLEUM                   :COMPANY
WELL .        COW CREEK UNIT 43-12                     :WELL
FLD  .        COW CREEK                                :FIELD
LOC  .        476' FEL & 1738' FSL                     :LOCATION
PROV .        CARBON                                   :PROVINCE
UWI  .        NE/SE                                    :UNIQUE WELL ID
LIC  .        4900721918                               :API NUMBER
CTRY .        CA                                       :COUNTRY (WWW code)
DATE .        27-Aug-2001                              :LOG DATE {DD-MMM-YYYY}
SRVC .        Schlumberger                             :SERVICE COMPANY
LATI .DEG     41.37037                                 :LATITUDE
LONG .DEG     -107.68952                               :LONGITUDE
GDAT .                                                 :GeoDetic Datum
 API .                                      4900721918 :API NUMBER
USGS.         E934                                     :USGS Number
UTM-N.        4583363.54                               :Northing
UTM-E.        275067.57                                :Easting
CORE.         N/A                                      :Core/Log Offset
#-----------------------------------------------------------------------------
~PARAMETER INFORMATION
#MNEM.UNIT    VALUE                      DESCRIPTION
#---- -----   --------------------       ------------------------
CN   .        DOUBLE EAGLE PETROLEUM     :Company Name
WN   .        COW CREEK UNIT 43-12       :Well Name
FN   .        COW CREEK                  :Field Name
FL   .        476' FEL & 1738' FSL       :Field Location
COUN .        CARBON                     :County or Rig Name
STAT .        WYOMING                    :State or Province
NATI .                                   :Nation
DATE .        27-Aug-2001                :Date as Month-Day-Year
APIN .        049-007-21918              :API Serial Number
UWID .                                   :Unique Well Identification Number
RUN  .          1                        :RUN NUMBER
PDAT .        GROUND LEVEL               :Permanent Datum
EREF .F         6716.000000              :Elevation of Permanent Datum above Mean Sea Level
DREF .          KELLY BUSHING            :Logging Measured From (Name of Logging Elevation Reference)
APD  .F          12.000000               :Elevation of Depth Reference (LMF) above Permanent Datum
#-----------------------------------------------------------------------------
~CURVE INFORMATION
#MNEM.UNIT   API CODE                                  DESCRIPTION
#---- -----  --------                                  -----------------------
DEPT .F                                                :DEPTH (BOREHOLE) {F9.2}
GR   .GAPI                                             :Gamma-Ray {F12.3}
HCAL .IN                                               :HRCC Cal. Caliper {F12.3}
AHT10.OHMM                                             :Array Induction Two Foot Resistivity A10 {F12.3}
AHT20.OHMM                                             :Array Induction Two Foot Resistivity A20 {F12.3}
AHT30.OHMM                                             :Array Induction Two Foot Resistivity A30 {F12.3}
AHT60.OHMM                                             :Array Induction Two Foot Resistivity A60 {F12.3}
AHT90.OHMM                                             :Array Induction Two Foot Resistivity A90 {F12.3}
NPOR .CFCF                                             :Enhanced Thermal Neutron Porosity {F12.3}
DPHZ .CFCF                                             :HRDD Standard Resolution Density Porosity {F12.3}
RHOZ .G/C3                                             :HRDD Standard Resolution Formation Density {F12.3}
HDRA .G/C3                                             :HRDD Density Correction {F12.3}
PEFZ .                                                 :HRDD Standard Resolution Formation Photoelectric Factor {F12.3}
IHV  .F3                                               :Integrated Hole Volume {F12.3}
TENS .LBF                                              :Cable Tension {F12.3}
#-----------------------------------------------------------------------------
# 
#    DEPT        GR         HCAL        AHT10       AHT20       AHT30       AHT60       AHT90       NPOR        DPHZ        RHOZ        HDRA        PEFZ         IHV        TENS
#
~A  
# ...
   172.50      64.837       2.988       3.495       4.040       4.459       5.266       5.397       0.420      -0.723       3.842       1.205      10.000      64.004     853.000
   172.00      68.369       2.988       3.495       4.040       4.459       5.266       5.397       0.458      -0.677       3.768       1.155       9.999      64.004     812.000
   171.50      70.050       2.988       3.495       4.040       4.459       5.266       5.396       0.489      -0.574       3.598       1.042       9.999      64.004     801.000
   171.00      74.869       2.965       3.495       4.040       4.459       5.266       5.396       0.495      -0.480       3.443       0.918       9.999      64.004     789.000
   170.50      73.951       2.988       3.495       4.040       4.459       5.266       5.396       0.476      -0.434       3.367       0.858      10.000      64.004     836.000
   170.00      71.486       2.988       3.495       4.040       4.459       5.266       5.396       0.501      -0.431       3.361       0.841      10.000      64.004     822.000
   169.50      70.638       2.988       3.495       4.040       4.459       5.266       5.396       0.469      -0.434       3.366       0.839      10.000      64.004     816.000
   169.00      70.671       2.965       3.495       4.040       4.459       5.267       5.395       0.533      -0.428       3.357       0.830      10.000      64.004     820.000
   168.50      69.390       2.988       3.495       4.040       4.459       5.267       5.395       0.507      -0.419       3.342       0.827      10.000      64.004     826.000
   168.00      72.037       2.988       3.495       4.040       4.459       5.267       5.395       0.495      -0.413       3.332       0.831      10.000      64.004     829.000
   167.50      76.670       2.988       3.495       4.040       4.459       5.267       5.395       0.567      -0.411       3.328       0.834      10.000      64.004     846.000
   167.00      78.431       2.988       3.495       4.040       4.459       5.267       5.395       0.607      -0.408       3.324       0.827      10.000      64.004     865.000
   166.50      72.143       2.988       3.495       4.040       4.459       5.267       5.396       0.544      -0.405       3.319       0.824      10.000      64.004     816.000
   166.00      68.469       2.965       3.495       4.040       4.459       5.267       5.396       0.561      -0.404       3.317       0.819      10.000      64.004     836.000
   165.50      69.462       2.988       3.495       4.040       4.459       5.267       5.396       0.537      -0.401       3.312       0.817      10.000      64.004     847.000
   165.00      70.786       2.988       3.495       4.040       4.459       5.267       5.396       0.564      -0.394       3.300       0.812      10.000      64.004     831.000
   164.50      71.482       2.988       3.495       4.040       4.459       5.267       5.396       0.518      -0.383       3.282       0.802      10.000      64.004     842.000
   164.00      72.186       2.988       3.495       4.040       4.459       5.267       5.396       0.470      -0.374       3.268       0.784      10.000      64.004     821.000
   163.50      74.503       2.988       3.495       4.040       4.459       5.267       5.396       0.484      -0.372       3.264       0.770      10.000      64.004     849.000
   163.00      76.365       2.988       3.495       4.040       4.459       5.267       5.396       0.488      -0.381       3.279       0.787      10.000      64.004     832.000
   162.50      75.992       2.988       3.495       4.040       4.459       5.268       5.396       0.534      -0.401       3.312       0.833      10.000      64.004     805.000
   162.00      71.293       2.988       3.495       4.040       4.459       5.268       5.396       0.524      -0.424       3.349       0.861      10.000      64.004     829.000
   161.50      71.746       2.988       3.495       4.040       4.459       5.268       5.396       0.465      -0.438       3.373       0.866      10.000      64.004     851.000
   161.00      71.845       2.965       3.495       4.040       4.459       5.268       5.396       0.511      -0.442       3.379       0.849      10.000      64.004     874.000
   160.50      71.580       2.988       3.495       4.040       4.459       5.268       5.396       0.493      -0.442       3.379       0.840      10.000      64.004     836.000
   160.00      68.094       2.988       3.495       4.040       4.459       5.268       5.396       0.526      -0.447       3.387       0.850      10.000      64.004     852.000
   159.50      66.744       2.988       3.495       4.040       4.459       5.268       5.396       0.480      -0.461       3.410       0.874      10.000      64.004     849.000
   159.00      73.321       2.988       3.495       4.040       4.459       5.268       5.396       0.511      -0.479       3.440       0.897      10.000      64.004     868.000
   158.50      74.177       2.965       3.495       4.040       4.459       5.268       5.396       0.507      -0.495       3.466       0.910      10.000      64.004     872.000
   158.00      73.112       2.965       3.495       4.040       4.459       5.268       5.396       0.486      -0.506       3.484       0.915      10.000      64.004     855.000
   157.50      69.281       2.988       3.495       4.040       4.459       5.268       5.396       0.541      -0.508       3.488       0.922      10.000      64.004     828.000
   157.00      73.565       2.988       3.495       4.040       4.459       5.268       5.396       0.503      -0.502       3.478       0.913      10.000      64.004     813.000
   156.50      74.854       2.965       3.495       4.040       4.459       5.268       5.396       0.498      -0.490       3.458       0.907      10.000      64.004     812.000
   156.00      79.300       2.988       3.495       4.040       4.459       5.268       5.396       0.412      -0.482       3.445       0.898      10.000      64.004     841.000
   155.50      80.581       2.988       3.495       4.040       4.459       5.268       5.396       0.421      -0.479       3.440       0.898      10.000      64.004     816.000
   155.00      83.925       2.988       3.495       4.040       4.459       5.268       5.396       0.493      -0.476       3.435       0.895      10.000      64.004     841.000
   154.50      80.043       2.988       3.495       4.040       4.459       5.268       5.396       0.539      -0.464       3.415       0.885      10.000      64.004     818.000
   154.00      76.115       2.988       3.495       4.040       4.459       5.268       5.396       0.532      -0.438       3.373       0.861      10.000      64.004     820.000
   153.50      79.960       2.988       3.495       4.040       4.459       5.268       5.396       0.493      -0.403       3.316       0.814      10.000      64.004     795.000
   153.00      84.924       2.988       3.495       4.040       4.459       5.268       5.396       0.495      -0.372       3.263       0.767      10.000      64.004     813.000
   152.50      87.903       2.988       3.495       4.040       4.459       5.268       5.396       0.481      -0.352       3.230       0.743      10.000      64.004     809.000
   152.00      81.079       2.988       3.495       4.040       4.459       5.268       5.396       0.528      -0.350       3.228       0.750      10.000      64.004     789.000
   151.50      74.724       2.988       3.495       4.040       4.459       5.268       5.396       0.516      -0.360       3.244       0.778      10.000      64.004     784.000
   151.00      75.055       2.988       3.495       4.040       4.459       5.268       5.396       0.532      -0.376       3.270       0.799      10.000      64.004     799.000
   150.50      77.702       2.988       3.495       4.040       4.459       5.268       5.396       0.531      -0.387       3.289       0.823      10.000      64.004     848.000
