~VERSION INFORMATION
VERS.           2.0   :CWLS Log ASCII Standard - VERSION 2.0
WRAP.           NO    :One Line per depth step
PROD.  Schlumberger   :LAS Producer
PROG.  DLIS to ASCII 9C2-303                           :LAS Program name and version
CREA.        2001/08/27 19:21                          :LAS Creation date {YYYY/MM/DD hh:mm}
SOURCE.     AIT_TLD_MCFL_CNL_015PUP.DLIS               :DLIS File Name
FILE-ID.     015                                       :File Identification Number
#--------------------------------------------------
~WELL INFORMATION
#MNEM.UNIT      DATA             DESCRIPTION
#---- ------ --------------   -----------------------------
STRT .F       1500.00        :START DEPTH     
STOP .F         63.50        :STOP DEPTH     
STEP .F         -0.50       :STEP     
NULL .          -999.25      :NULL VALUE
COMP .        DOUBLE EAGLE PETROLEUM                   :COMPANY
WELL .        COW CREEK UNIT 43-12                     :WELL
FLD  .        COW CREEK                                :FIELD
LOC  .        476' FEL & 1738' FSL                     :LOCATION
PROV .        CARBON                                   :PROVINCE
UWI  .        NE/SE                                    :UNIQUE WELL ID
LIC  .        4900721918                               :API NUMBER
CTRY .        CA                                       :COUNTRY (WWW code)
DATE .        27-Aug-2001                              :LOG DATE {DD-MMM-YYYY}
SRVC .        Schlumberger                             :SERVICE COMPANY
LATI .DEG     41.37037                                 :LATITUDE
LONG .DEG     -107.68952                               :LONGITUDE
GDAT .                                                 :GeoDetic Datum
 API .                                      4900721918 :API NUMBER
USGS.         E934                                     :USGS Number
UTM-N.        4583363.54                               :Northing
UTM-E.        275067.57                                :Easting
CORE.         N/A                                      :Core/Log Offset
#-----------------------------------------------------------------------------
~PARAMETER INFORMATION
#MNEM.UNIT    VALUE                      DESCRIPTION
#---- -----   --------------------       ------------------------
CN   .        DOUBLE EAGLE PETROLEUM     :Company Name
WN   .        COW CREEK UNIT 43-12       :Well Name
FN   .        COW CREEK                  :Field Name
FL   .        476' FEL & 1738' FSL       :Field Location
COUN .        CARBON                     :County or Rig Name
STAT .        WYOMING                    :State or Province
NATI .                                   :Nation
DATE .        27-Aug-2001                :Date as Month-Day-Year
APIN .        049-007-21918              :API Serial Number
UWID .                                   :Unique Well Identification Number
RUN  .          1                        :RUN NUMBER
PDAT .        GROUND LEVEL               :Permanent Datum
EREF .F         6716.000000              :Elevation of Permanent Datum above Mean Sea Level
DREF .          KELLY BUSHING            :Logging Measured From (Name of Logging Elevation Reference)
APD  .F          12.000000               :Elevation of Depth Reference (LMF) above Permanent Datum
#-----------------------------------------------------------------------------
~CURVE INFORMATION
#MNEM.UNIT   API CODE                                  DESCRIPTION
#---- -----  --------                                  -----------------------
DEPT .F                                                :DEPTH (BOREHOLE) {F9.2}
GR   .GAPI                                             :Gamma-Ray {F12.3}
HCAL .IN                                               :HRCC Cal. Caliper {F12.3}
AHT10.OHMM                                             :Array Induction Two Foot Resistivity A10 {F12.3}
AHT20.OHMM                                             :Array Induction Two Foot Resistivity A20 {F12.3}
AHT30.OHMM                                             :Array Induction Two Foot Resistivity A30 {F12.3}
AHT60.OHMM                                             :Array Induction Two Foot Resistivity A60 {F12.3}
AHT90.OHMM                                             :Array Induction Two Foot Resistivity A90 {F12.3}
NPOR .CFCF                                             :Enhanced Thermal Neutron Porosity {F12.3}
DPHZ .CFCF                                             :HRDD Standard Resolution Density Porosity {F12.3}
RHOZ .G/C3                                             :HRDD Standard Resolution Formation Density {F12.3}
HDRA .G/C3                                             :HRDD Density Correction {F12.3}
PEFZ .                                                 :HRDD Standard Resolution Formation Photoelectric Factor {F12.3}
IHV  .F3                                               :Integrated Hole Volume {F12.3}
TENS .LBF                                              :Cable Tension {F12.3}
#-----------------------------------------------------------------------------
# 
#    DEPT        GR         HCAL        AHT10       AHT20       AHT30       AHT60       AHT90       NPOR        DPHZ        RHOZ        HDRA        PEFZ         IHV        TENS
#
~A  
# ...
   555.00      96.812       2.988       2.793       3.064       3.232       3.473       3.524       0.426       0.174       2.364       0.001       3.705      45.993     905.000
   554.50     102.577       2.988       2.757       3.036       3.203       3.439       3.489       0.420       0.172       2.366       0.000       3.611      46.017     885.000
   554.00     108.386       2.988       2.733       2.998       3.162       3.392       3.443       0.401       0.172       2.366      -0.001       3.547      46.042     906.000
   553.50     110.828       2.988       2.757       3.015       3.179       3.407       3.458       0.405       0.171       2.368      -0.007       3.487      46.066     932.000
   553.00     102.307       2.988       2.791       3.049       3.219       3.459       3.511       0.400       0.169       2.371      -0.010       3.487      46.090     930.000
   552.50      96.085       2.988       2.822       3.083       3.262       3.495       3.560       0.407       0.166       2.377      -0.009       3.523      46.115     913.000
   552.00      93.560       2.988       2.856       3.125       3.309       3.549       3.610       0.408       0.160       2.386      -0.002       3.568      46.139     925.000
   551.50     100.495       2.965       2.897       3.164       3.357       3.604       3.665       0.397       0.155       2.394       0.003       3.579      46.163     953.000
   551.00     101.204       2.988       2.945       3.214       3.413       3.670       3.720       0.374       0.153       2.398       0.003       3.585      46.187     935.000
   550.50     104.076       2.988       2.981       3.259       3.467       3.737       3.775       0.397       0.154       2.396      -0.001       3.620      46.212     932.000
   550.00      96.589       2.988       2.992       3.271       3.477       3.746       3.778       0.338       0.157       2.392      -0.002       3.703      46.236     923.000
   549.50     100.908       2.988       3.000       3.280       3.486       3.755       3.799       0.370       0.160       2.385      -0.000       3.787      46.260     931.000
   549.00      98.036       2.988       3.013       3.307       3.504       3.774       3.816       0.385       0.162       2.382       0.001       3.821      46.285     935.000
   548.50     101.383       2.988       2.987       3.278       3.476       3.738       3.790       0.391       0.159       2.388       0.001       3.795      46.309     936.000
   548.00     100.372       2.988       2.935       3.227       3.423       3.681       3.731       0.407       0.153       2.397      -0.002       3.744      46.333     943.000
   547.50     102.004       2.988       2.942       3.222       3.413       3.670       3.725       0.358       0.149       2.404      -0.003       3.705      46.358     942.000
   547.00     106.375       2.988       3.032       3.322       3.517       3.791       3.856       0.354       0.148       2.405      -0.004       3.664      46.382     920.000
   546.50     105.316       2.988       3.129       3.415       3.618       3.907       3.964       0.361       0.150       2.402      -0.004       3.651      46.406     926.000
   546.00     113.056       2.988       3.180       3.485       3.702       4.004       4.059       0.361       0.152       2.399      -0.003       3.650      46.431     952.000
   545.50     111.105       2.988       3.154       3.464       3.679       3.974       4.029       0.393       0.154       2.395      -0.004       3.684      46.455     942.000
   545.00     109.408       2.988       3.126       3.440       3.649       3.950       3.992       0.367       0.150       2.403      -0.005       3.720      46.479     891.000
   544.50     103.389       2.988       3.122       3.431       3.636       3.940       3.975       0.356       0.149       2.404      -0.012       3.714      46.504     915.000
   544.00     108.096       2.988       3.124       3.436       3.635       3.949       3.975       0.383       0.147       2.408      -0.013       3.669      46.528     937.000
   543.50     108.902       2.988       3.126       3.440       3.636       3.941       3.969       0.387       0.148       2.405      -0.015       3.582      46.553     919.000
   543.00      99.000       2.988       3.118       3.430       3.625       3.929       3.951       0.374       0.147       2.408      -0.011       3.521      46.577     940.000
   542.50      91.400       2.988       3.112       3.424       3.621       3.927       3.956       0.395       0.150       2.402      -0.010       3.507      46.601     934.000
   542.00      95.005       2.988       3.095       3.403       3.600       3.903       3.936       0.369       0.159       2.387      -0.008       3.529      46.626     922.000
   541.50      99.525       2.988       3.063       3.350       3.538       3.830       3.870       0.367       0.166       2.376      -0.006       3.532      46.650     935.000
   541.00      99.958       2.988       3.031       3.303       3.480       3.762       3.808       0.384       0.169       2.372      -0.005       3.507      46.674     928.000
   540.50      98.833       2.965       2.985       3.267       3.431       3.698       3.757       0.413       0.169       2.371      -0.004       3.497      46.698     947.000
   540.00     106.926       2.988       2.901       3.176       3.324       3.583       3.639       0.398       0.171       2.367      -0.004       3.509      46.723     920.000
   539.50     111.105       2.988       2.829       3.109       3.236       3.476       3.543       0.385       0.177       2.357      -0.003       3.510      46.747     959.000
   539.00     101.755       2.988       2.776       3.069       3.185       3.424       3.497       0.398       0.186       2.343      -0.005       3.468      46.771     966.000
   538.50      85.341       2.988       2.589       2.825       2.966       3.188       3.251       0.475       0.194       2.330      -0.005       3.428      46.796     972.000
   538.00      68.482       2.988       2.304       2.532       2.637       2.808       2.866       0.408       0.197       2.325      -0.007       3.407      46.820     957.000
   537.50      72.932       2.965       2.184       2.365       2.447       2.601       2.652       0.404       0.195       2.329      -0.008       3.412      46.844     973.000
   537.00      86.590       2.988       2.283       2.475       2.573       2.752       2.813       0.397       0.191       2.334      -0.008       3.447      46.868     982.000
   536.50     100.076       2.988       2.350       2.547       2.675       2.871       2.936       0.413       0.191       2.335      -0.005       3.533      46.893     985.000
   536.00     112.274       2.988       2.385       2.585       2.719       2.921       2.986       0.438       0.191       2.335      -0.002       3.634      46.917     935.000
   535.50     105.227       2.988       2.443       2.653       2.802       3.021       3.070       0.419       0.191       2.336      -0.003       3.682      46.941     943.000
   535.00     106.074       2.988       2.513       2.733       2.901       3.145       3.174       0.400       0.189       2.339      -0.007       3.676      46.966     957.000
   534.50      98.430       2.988       2.573       2.799       2.966       3.211       3.239       0.366       0.187       2.342      -0.009       3.692      46.990     936.000
   534.00     101.618       2.965       2.608       2.847       3.021       3.273       3.292       0.372       0.188       2.339      -0.006       3.772      47.014     926.000
   533.50     102.837       2.988       2.634       2.883       3.057       3.312       3.319       0.380       0.190       2.337      -0.004       3.819      47.038     977.000
   533.00     104.860       2.988       2.652       2.914       3.090       3.342       3.341       0.393       0.189       2.338      -0.002       3.770      47.063     948.000
