~Version ---------------------------------------------------
VERS.   2.0 : CWLS log ASCII Standard -VERSION 2.0
WRAP.    NO : One line per depth step
DLM . SPACE : Column Data Section Delimiter
~Well ------------------------------------------------------
STRT.FT   8950.0     : START DEPTH
STOP.FT  10550.0     : STOP DEPTH
STEP.FT      0.5     : STEP
NULL.    -999.25     : NULL VALUE
COMP.        HRM     : COMPANY
WELL.57 Hay Reservoir: WELL
FLD .  Hay Reservoir : FIELD
LOC .     24N 97W    : LOCATION
CNTY.     Sweetwater : COUNTY
STAT.         WY     : STATE
CTRY.          USA   : COUNTRY
SRVC.           SLB? : SERVICE COMPANY
DATE. 11/14/2019     : DATE
API . 4903723193     : API NUMBER
UWI .   3723193A     : UWI NUMBER
TVD .         NO     : TVD flag
WSTA.        LOC     : Well status
USGS.            E952: USGS Number
LATI.DEG     42.04063: LATITUDE
LONG.DEG   -108.36672: LONGITUDE
UTM-N.     4657642.54: Northing
UTM-E.      717951.25: Easting
CORE.              -4: Core/Log Offset
~Curve Information -----------------------------------------
DEPT.FT                : Depth in Feet
DPHI.V/V  45 890 01 01 : Density Porosity
NPHI.V/V  42 890 03 01 : Neutron Porosity
GR  .API  35 310 01 01 : Gamma Ray
CALI.IN   70 280 01 01 : Caliper
RHOB.G/CC 42 350 01 01 : Bulk Density
PEF .BARN              : Photoelectric Effect
ILD .                  : Deep Induction
SP  .                  : Spontaneous Potential
~Params ----------------------------------------------------
~Other -----------------------------------------------------
~ASCII -----------------------------------------------------
# ...
 9470.00000   -0.00700    0.14300  110.39000    9.52800    2.65800    3.53000   15.71400   -9.74900
 9470.50000   -0.00900    0.14100  108.58400    9.51800    2.66200    3.56200   16.08700   -9.66500
 9471.00000   -0.01000    0.13800  106.49100    9.50700    2.66400    3.64400   16.22900   -9.58100
 9471.50000   -0.01200    0.13500  105.16800    9.50500    2.66700    3.72100   16.59200   -9.49100
 9472.00000   -0.01700    0.13600  104.79200    9.50500    2.67000    3.71800   16.96400   -9.68900
 9472.50000   -0.02300    0.14200  105.51900    9.50500    2.67900    3.66100   17.34400   -9.97500
 9473.00000   -0.02700    0.14900  108.00300    9.50500    2.68800    3.62800   17.73300  -10.07900
 9473.50000   -0.02700    0.15600  110.33900    9.50500    2.69200    3.62400   17.97800  -10.08100
 9474.00000    0.01100    0.15300  111.61100    9.50500    2.67200    3.61900   16.22900  -10.08100
 9474.50000    0.07400    0.15300  113.29300    9.50500    2.62000    3.62700   14.63700  -10.08100
 9475.00000    0.15500    0.16400  114.96700    9.52000    2.51000    3.64700   13.20200  -10.08000
 9475.50000    0.21700    0.17500  116.98500    9.54600    2.39500    4.12000   12.01300  -10.08200
 9476.00000    0.24000    0.17900  118.98100    9.57500    2.25000    4.64600   11.58900   -9.94700
 9476.50000    0.19300    0.16900  120.09800    9.61600    2.26800    5.17100   11.17900   -9.74700
 9477.00000    0.13000    0.15500  117.59900    9.58200    2.35100    5.60000   10.80000   -9.54500
 9477.50000    0.06600    0.14000  113.66900    9.44800    2.46100    5.66200   10.86800   -9.34200
 9478.00000    0.00100    0.13700  109.65000    9.33700    2.57100    4.96700   10.94900   -9.14000
 9478.50000   -0.01300    0.13800  110.07600    9.32300    2.67000    4.14700   11.10700   -8.93600
 9479.00000   -0.01700    0.13800  111.14700    9.30800    2.67300    3.92400   12.06600   -8.88700
 9479.50000   -0.02000    0.13800  112.86400    9.32400    2.67800    3.75400   13.95600   -8.90500
 9480.00000   -0.01600    0.13800  113.53700    9.35600    2.67700    3.69000   16.16800   -8.92500
 9480.50000   -0.00700    0.14100  112.53500    9.39200    2.66600    3.67000   19.00600   -8.94400
 9481.00000    0.00000    0.14700  110.15900    9.45200    2.65600    3.68100   18.38700   -8.96400
 9481.50000    0.00400    0.15400  106.68700    9.51400    2.64500    3.67200   17.63000   -8.98300
 9482.00000    0.00200    0.16000  103.91000    9.53300    2.64100    3.58600   16.90500   -9.00200
 9482.50000   -0.00100    0.15800  101.89000    9.54200    2.64500    3.45400   16.23600   -9.02100
 9483.00000   -0.00100    0.14900   99.94500    9.54500    2.65100    3.32100   16.08700   -9.03700
 9483.50000    0.00200    0.13900   93.48000    9.54600    2.64900    3.24100   16.08700   -9.06100
 9484.00000    0.01000    0.13000   85.33200    9.53700    2.64200    3.17800   16.08700   -9.37300
 9484.50000    0.01800    0.12200   77.07200    9.52100    2.62700    3.16600   17.43800  -10.70000
 9485.00000    0.02600    0.11800   69.56100    9.50500    2.61200    3.15500   19.06400  -11.70200
 9485.50000    0.03400    0.11600   69.56200    9.49000    2.59700    3.14400   20.82900  -12.49600
 9486.00000    0.04100    0.11800   74.04400    9.47500    2.58400    3.13300   22.93500  -13.27400
 9486.50000    0.04300    0.12000   79.03200    9.46000    2.57700    3.08800   25.37300  -13.63000
 9487.00000    0.03700    0.12200   79.07900    9.44200    2.58200    3.08100   28.08700  -13.46400
 9487.50000    0.03000    0.11300   72.52700    9.42400    2.59400    3.11500   31.20200  -13.30200
 9488.00000    0.02600    0.10400   65.56000    9.38800    2.60400    3.16900   35.18000  -13.13800
 9488.50000    0.02900    0.09500   59.60500    9.35000    2.60100    3.16700   39.66600  -12.97400
 9489.00000    0.03800    0.09200   56.22400    9.33600    2.58800    3.10800   44.72300  -12.81200
 9489.50000    0.04800    0.09400   55.84900    9.32800    2.57200    3.06800   48.90600  -12.74000
 9490.00000    0.05500    0.10100   57.65800    9.32300    2.55600    3.00300   49.36100  -12.93400
 9490.50000    0.05900    0.10500   59.81100    9.32300    2.54900    2.88000   48.40500  -13.11900
 9491.00000    0.05500    0.10700   64.79200    9.32300    2.56000    2.75400   47.22000  -13.29800
 9491.50000    0.04600    0.10900   70.12400    9.32300    2.57400    2.71900   46.06000  -13.37600
 9492.00000    0.03600    0.11300   75.20400    9.32300    2.58900    2.90100   44.92900  -13.45000
 9492.50000    0.02700    0.11600   73.56700    9.32300    2.60300    3.06400   43.82900  -13.52500
 9493.00000    0.02100    0.11400   70.90100    9.31500    2.61500    3.22700   42.95600  -13.59900
 9493.50000    0.02100    0.10500   66.63400    9.30700    2.61400    3.22000   42.95600  -13.67400
 9494.00000    0.02700    0.09500   62.34000    9.28300    2.60300    3.13500   42.56000  -13.74900
 9494.50000    0.03100    0.08600   59.97000    9.24500    2.59700    3.03000   43.18800  -13.82500
 9495.00000    0.03000    0.08700   64.19500    9.20900    2.59700    2.97700   43.92000  -13.89700
 9495.50000    0.03000    0.11500   73.15700    9.17400    2.59900    2.93700   44.66400  -13.59500
 9496.00000    0.02600    0.12000   81.01100    9.14200    2.60200    2.89600   45.41200  -13.25600
 9496.50000    0.01900    0.11200   83.65500    9.15000    2.61400    2.84900   44.76800  -12.91900
 9497.00000    0.01200    0.10300   84.60700    9.15800    2.62800    2.81500   44.14000  -12.58200
 9497.50000    0.00500    0.10400   87.46000    9.16200    2.63800    2.90200   43.35600  -12.24400
 9498.00000    0.00400    0.10600   88.09100    9.16200    2.64100    3.06600   43.44000  -11.90000
 9498.50000    0.00900    0.10900   85.59000    9.16200    2.63300    3.22800   43.55600  -11.60400
 9499.00000    0.01500    0.11100   82.78100    9.16200    2.62200    3.25700   43.67600  -11.62400
 9499.50000    0.01300    0.11000   80.92100    9.16200    2.62400    3.15200   44.04200  -11.83900
 9500.00000    0.01200    0.10500   77.32500    9.16200    2.62900    3.05500   45.21700  -12.06100
 9500.50000    0.01300    0.10000   73.79000    9.16200    2.62800    3.05200   46.34700  -12.28500
 9501.00000    0.01700    0.09800   72.41800    9.16100    2.62400    3.04900   47.01800  -12.32700
 9501.50000    0.01300    0.11000   81.71400    9.15800    2.62300    3.03600   47.56500  -12.35900
 9502.00000    0.00800    0.12100   89.14600    9.15600    2.63100    3.09200   49.19000  -12.39200
 9502.50000    0.00700    0.12200   84.81200    9.15300    2.63600    3.19700   50.75200  -12.42600
 9503.00000    0.01300    0.10700   79.57100    9.15000    2.63300    3.30100   49.81700  -12.46000
 9503.50000    0.01900    0.09700   74.37500    9.14700    2.62300    3.40600   48.89900  -12.49200
 9504.00000    0.02200    0.09300   71.43600    9.14500    2.61600    3.44300   49.71500  -12.30400
 9504.50000    0.01600    0.09300   74.18500    9.14200    2.61600    3.43800   50.84200  -12.09500
 9505.00000    0.01400    0.09000   75.06300    9.14100    2.62300    3.40100   52.18300  -11.88700
 9505.50000    0.01600    0.08500   70.26300    9.14100    2.62600    3.38600   52.18300  -11.68800
 9506.00000    0.01500    0.08400   65.69400    9.14100    2.62300    3.36700   49.85600  -11.54500
 9506.50000    0.00800    0.09400   63.18500    9.14100    2.62500    3.28200   48.44300  -11.40600
 9507.00000    0.00200    0.10900   71.74500    9.14100    2.63400    3.19200   47.56500  -11.26800
 9507.50000   -0.00000    0.11700   78.27100    9.14100    2.64300    3.16000   47.56500  -11.12900
 9508.00000   -0.00200    0.11200   79.86000    9.14100    2.64800    3.22900   47.56400  -10.99100
 9508.50000   -0.00500    0.10800   72.06100    9.14100    2.65000    3.29300   47.56500  -10.85200
 9509.00000   -0.00900    0.09700   66.50000    9.14100    2.65800    3.32000   47.56400  -10.71300
 9509.50000   -0.01100    0.08900   65.33400    9.14100    2.66400    3.40200   47.56500  -10.57800
