~Version Information Block
 VERS.                2.00:     CWLS LOG ASCII STANDARD - VERSION 2.000000
 WRAP.                  NO:     One Line Per Depth Step
#
~Well Information Block
#MNEM.UNIT                     Data                         Information
#----------   ------------------------------------------   ----------------
 STRT.FT                                     8200.0000:     START DEPTH
 STOP.FT                                     9700.0000:     STOP DEPTH
 STEP.FT                                        0.1000:     STEP
 NULL.                                       -999.2500:     NULL VALUE
 COMP.                        PRESIDIO EXPLORATION INC:     COMPANY
 WELL.                                   HAY DAM 34-12:     WELL
 FLD .                                          HAYDAM:     FIELD
 LOC .                                   SEC12-23N-97W:     LOCATION
 CNTY.                                      SWEETWATER:     COUNTY
 STAT.                                         WYOMING:     STATE
 CTRY.                                             USA:     COUNTRY
 SRVC.                                    SCHLUMBERGER:     SERVICE COMPANY
 DATE.                                      26/07/1994:     DATE
 API .                                      4903723385:     API NUMBER
 UWI .                                         3723385:     UWI NUMBER
 TVD .                                              NO:     TVD flag
 WSTA.                                             LOC:     Well status
 USGS.                                            F041:     USGS Number
 LATI.DEG                                     41.97739:     LATITUDE
 LONG.DEG                                   -108.32133:     LONGITUDE
 UTM-N.                                        4650736:     Northing
 UTM-E.                                      721928.25:     Easting
 CORE.                                              -5:     Core/Log Offset
#
~Curve Information Block
#MNEM.UNIT       API CODE      Curve Description
#----------    -------------   -------------------
 DEPT.FT                   :   Depth in Feet
 ILD .OHMM     05 120 46 01:   Deep Induction Standard Processed Resistivity
 SP  .MV       01 010 01 01:   Spontaneous Potential
 RHOB.G/C3     42 350 01 01:   Bulk Density
 PEF .b/e                  :   Photo-Electric Factor
 GR  .GAPI     35 310 01 01:   Gamma Ray
 CALI.IN       70 280 01 01:   Caliper
 DPHI.V/V      45 890 01 01:   Density Porosity
 NPHI.V/V      42 890 03 01:   Neutron Porosity
 DTCO.US/F                 :   Delta-T Compressional
#
~Parameter Information Block
#MNEM.UNIT            Value               Description
#----------    --------------------    -------------------
 DATE.                  26-07-1994:    Date As Month-Day-Year
 RUN .                         ONE:    Run Number
 PDAT.                         UNK:    Permanent Datum
 EPD .FT                 6611.0000:    Elevation Of Perm. Datum
 LMF .                          KB:    Log Measured From
 FAPD.FT                   15.0000:    Feet Above Perm. Datum
 DMF .                          KB:    Drilling Measured From
 EKB .FT                 6627.0000:    Elevation Of Kelly Bushing
 EDF .FT                 6626.0000:    Elevation Of Derrick Floor
 EGL .FT                 6611.0000:    Elevation Of Ground Level
 TD  .FT                 9700.0000:    Total Depth
 DD  .FT                 9735.0000:    Depth Driller
 DL  .FT                 9729.0000:    Depth Logger
 BLI .FT                 9719.0000:    Bottom Log Interval
 TLI .FT                 1716.0000:    Top Log Interval
 CSIZ.IN                  9.625 IN:    Casing Size
 CBD1.                        1715:    Casing Bottom (Driller) 1
 CBL1.                        1716:    Casing Bottom (Logger) 1
 BS  .IN                   7.675IN:    Bit Size
 DFT .                    GEL-CHEM:    Drilling Fluid Type
 DFV .S                    45.0000:    Drilling Fluid Viscosity
 DFD .LB/G                 10.1000:    Drilling Fluid Density
 DFL .ML                    8.0000:    Drilling Fluid Loss
 DFPH.                     10.0000:    Drilling Fluid Ph
 MSS .                     MUDTANK:    Mud Sample Source
 RMS .OHMM                  1.4400:    Resistivity Of Mud Sample
 MST .DEGF                 85.0000:    Mud Sample Temperature
 RMF .OHMM                  1.1700:    Mud Filtrate Resistivity
 MFST.DEGF                 80.0000:    Mud Filtrate Sample Temperature
 RMC .OHMM                  1.3300:    Mud Cake Resistivity
 MCST.DEGF                 80.0000:    Mud Cake Sample Temperature
 RMB .OHMM                  0.7480:    Mud Resistivity At Bht
 BHT .DEGF                170.0000:    Bottom Hole Temperature
 MRT .DEGF                170.0000:    Maximum Recorded Temperature
 LUN .                        8415:    Logging Unit Number
 LUL .                      CASPER:    Logging Unit Location
 ENGI.                 CHRISTENSEN:    Engineer'S Name
 WITN.                       LYNON:    Witness' Name
 DGBY.                         R2V:    
 WSTA.                         LOC:    
#
~Other Information Block
<DescLogPlotStart>   NEURALOG PLOT DEFINITION
PLOTDEFVERSION: 3
LASFILE: C:\nds\projects\mf-nov-13\las\3723385A.las
DEPTHSCALE: 240.000000
RESOLUTION: 200
DEPTHLABELFREQ: 100.000000
HEAVYGRIDFREQ: 100.000000
MEDIUMGRIDFREQ: 50.000000
LIGHTGRIDFREQ: 10.000000
#
#   TRACK 1
#
STARTTRACK: 
 LEFTX: 0.500000 inch
 RIGHTX: 3.000000 inch
 SCALETYPE: Log
 NUMCYCLES: 4
 STARTCYCLE: 2
CURVE: ILD   0.200000   2000.000000 (0,0,255)      Solid             2     N   
ENDTRACK: 
#
#   TRACK 2
#
STARTTRACK: 
 LEFTX: 3.500000 inch
 RIGHTX: 6.000000 inch
 SCALETYPE: Linear
 NUMCHARTDIVISIONS: 10
CURVE: SP    -80.000000 20.000000  (0,131,131)    Solid             2     Y    
BACKUP: 20.000000  120.000000 (0,131,131)    Solid             2    
BACKUP: -180.000000 -80.000000 (0,131,131)    Solid             2    
ENDTRACK: 
#
#   TRACK 3
#
STARTTRACK: 
 LEFTX: 6.000000 inch
 RIGHTX: 11.000000 inch
 SCALETYPE: Linear
 NUMCHARTDIVISIONS: 10
CURVE: RHOB  2.000000   3.000000   (255,0,255)    Solid             2     Y    
BACKUP: 1.000000   2.000000   (255,0,255)    Solid             2    
CURVE: PEF   0.000000   10.000000  (255,0,0)      Dot               2     N    
ENDTRACK: 
#
#   TRACK 4
#
STARTTRACK: 
 LEFTX: 11.000000 inch
 RIGHTX: 13.500000 inch
 SCALETYPE: Linear
 NUMCHARTDIVISIONS: 10
CURVE: GR    0.000000   150.000000 (255,131,0)    Solid             2     Y    
BACKUP: 150.000000 300.000000 (255,131,0)    Solid             2    
CURVE: CALI  6.000000   16.000000  (255,255,0)    Dot               2     Y    
BACKUP: 16.000000  26.000000  (255,255,0)    Dot               2    
ENDTRACK: 
#
#   TRACK 5
#
STARTTRACK: 
 LEFTX: 13.500000 inch
 RIGHTX: 18.500000 inch
 SCALETYPE: Linear
 NUMCHARTDIVISIONS: 10
CURVE: DPHI  0.300000   -0.100000  (0,0,255)      Solid             2     N    
CURVE: NPHI  0.300000   -0.100000  (0,131,131)    Dot               2     Y    
BACKUP: 0.700000   0.300000   (0,131,131)    Dot               2    
ENDTRACK: 
#
#   TRACK 6
#
STARTTRACK: 
 LEFTX: 13.500000 inch
 RIGHTX: 18.500000 inch
 SCALETYPE: Linear
 NUMCHARTDIVISIONS: 10
CURVE: DTCO  240.000000 40.000000  (255,0,255)    Solid             2     N    
ENDTRACK: 
<DescLogPlotEnd>
~A DEPTH     ILD              SP               RHOB             PEF              GR               CALI             DPHI             NPHI             DTCO            
    8200.000 35.64790500      -102.77327935    2.50150905       2.25855131       68.63636364      8.79797980       0.08590131       0.10241692       -999.25000000   
    8200.100 35.64790500      -102.77327935    2.50150905       2.25855131       68.63636364      8.79797980       0.08590131       0.10241692       -999.25000000   
    8200.200 35.64790500      -102.80195682    2.50150905       2.25855131       68.63636364      8.79797980       0.08590131       0.10241692       -999.25000000   
    8200.300 35.64790500      -102.84665992    2.50150905       2.25855131       68.63636364      8.79797980       0.09758308       0.10241692       -999.25000000   
    8200.400 35.64790500      -102.89136302    2.50150905       2.25855131       68.63636364      8.79813200       0.08838369       0.09798590       -999.25000000   
    8200.500 35.64790500      -102.93606613    2.50150905       2.25667337       68.21212121      8.79841151       0.08990232       0.10131549       -999.25000000   
    8200.600 35.64790500      -102.98076923    2.50150905       2.25328638       67.12121212      8.79869102       0.09142095       0.10065717       -999.25000000   
    8200.700 35.64790500      -103.02547233    2.49985580       2.24989940       67.27186147      8.79897053       0.09293958       0.09999885       -999.25000000   
    8200.800 35.64790500      -103.07017544    2.49697686       2.24651241       67.53419913      8.79925003       0.09445821       0.09934053       -999.25000000   
    8200.900 35.64790500      -103.11487854    2.49409792       2.24312542       67.79653680      8.79952954       0.09597684       0.09868220       -999.25000000   
    8201.000 35.64790500      -103.15958165    2.49121898       2.23973843       68.05887446      8.79980905       0.09758308       0.09798590       -999.25000000   
    8201.100 35.64790500      -103.20428475    2.48834004       2.23635144       68.32121212      8.80008856       0.09850420       0.09935441       -999.25000000   
    8201.200 35.64790500      -103.24898785    2.48440644       2.23296445       68.58354978      8.80036806       0.09948171       0.10080671       -999.25000000   
    8201.300 35.64790500      -103.29369096    2.48354795       2.22837022       68.93939394      8.80064757       0.10045921       0.10225901       -999.25000000   
    8201.400 35.88553088      -103.42653185    2.48637789       2.23155875       69.01104668      8.81202687       0.10051947       0.10239863       -999.25000000   
    8201.500 35.64790500      -103.33830249    2.48206812       2.22738307       69.28909246      8.80092613       0.10143672       0.10371131       -999.25000000   
    8201.600 35.64790500      -103.38320611    2.48098821       2.23027588       69.72333643      8.80120576       0.10241423       0.10516361       -999.25000000   
    8201.700 35.64790500      -103.42791373    2.47949219       2.23548427       70.21787296      8.80148500       0.10339174       0.10661591       -999.25000000   
    8201.800 35.53799236      -103.47245259    2.47783058       2.23881714       70.73068096      8.80176491       0.10436925       0.10806821       -999.25000000   
    8201.900 35.33799244      -103.51736226    2.47639801       2.24085481       71.23491367      8.80204494       0.10534676       0.10952051       -999.25000000   
    8202.000 35.13911807      -103.56242819    2.47542586       2.24984317       71.70706069      8.80232462       0.10604230       0.11097281       -999.25000000   
    8202.100 34.94136293      -103.60675643    2.47504457       2.27309869       72.16644075      8.80260412       0.10563948       0.11242511       -999.25000000   
    8202.200 34.74472070      -103.65088904    2.47537464       2.30769186       72.69310324      8.80288363       0.10463887       0.11387741       -999.25000000   
    8202.300 34.54918514      -103.69650451    2.47646133       2.34474058       73.26995682      8.80316314       0.10388479       0.11532971       -999.25000000   
    8202.400 34.35475000      -103.74234256    2.47806228       2.38029730       73.68547399      8.80344265       0.10313072       0.11678201       -999.25000000   
    8202.500 34.16140911      -103.78330933    2.47970648       2.41591749       73.76673204      8.80372215       0.10201410       0.11893253       -999.25000000   
    8202.600 33.96915629      -103.81630588    2.48128769       2.45163108       73.62122114      8.80400166       0.10073072       0.11924327       -999.25000000   
    8202.700 33.77798543      -103.84443114    2.48340080       2.48625224       73.47104847      8.80428117       0.09825901       0.11984175       -999.25000000   
    8202.800 33.58789043      -103.87277899    2.48661965       2.52231433       73.36714556      8.80456068       0.09578731       0.12044022       -999.25000000   
    8202.900 33.39886525      -103.90260970    2.49068468       2.56156173       73.25177644      8.80484018       0.09331561       0.12103870       -999.25000000   
    8203.000 33.21135631      -103.93224477    2.49492739       2.59709635       73.14858332      8.80511969       0.09084391       0.12167496       -999.25000000   
    8203.100 33.02429998      -103.96115145    2.49913409       2.62052049       73.06337574      8.80539920       0.08837221       0.12224831       -999.25000000   
    8203.200 32.83828983      -103.99025197    2.50337337       2.63642608       72.82891028      8.80567870       0.08590050       0.12298032       -999.25000000   
    8203.300 32.65334274      -104.02001644    2.50747844       2.65749206       72.28355738      8.80595821       0.08342880       0.12298804       -999.25000000   
    8203.400 32.46944893      -104.04959184    2.51147693       2.68314004       71.51143088      8.80623772       0.08095710       0.12296937       -999.25000000   
    8203.500 32.28655127      -104.07847851    2.51585281       2.69592083       70.71413965      8.80651723       0.07824773       0.12299112       -999.25000000   
    8203.600 32.10471840      -104.10759136    2.52047737       2.68407078       69.95232105      8.80679673       0.07730111       0.12256324       -999.25000000   
    8203.700 31.92384762      -104.13799001    2.52417427       2.65639654       69.18444962      8.80707624       0.07625378       0.12217989       -999.25000000   
    8203.800 31.74412151      -104.16786691    2.52639734       2.62863975       68.42441524      8.80735575       0.07520645       0.12175703       -999.25000000   
    8203.900 31.56519192      -104.19534537    2.52818535       2.60512371       67.68002118      8.80763526       0.07415911       0.12105758       -999.25000000   
    8204.000 31.38757713      -104.22417148    2.53017971       2.58104292       66.87940826      8.80791476       0.07311178       0.12034416       -999.25000000   
    8204.100 31.21059835      -104.25727296    2.53103575       2.55476656       66.04728577      8.80819427       0.07220544       0.11965392       -999.25000000   
    8204.200 31.03496543      -104.28746465    2.52931969       2.52917637       65.40453767      8.80847378       0.07430480       0.11894368       -999.25000000   
    8204.300 30.86009521      -104.31021475    2.52576961       2.50486859       65.09782576      8.80875329       0.07615509       0.11825572       -999.25000000   
    8204.400 30.68618544      -104.33930541    2.52218597       2.47963488       64.98180378      8.80903279       0.07800537       0.11754004       -999.25000000   
    8204.500 30.51366128      -104.38187528    2.51915193       2.45362070       64.84999175      8.80931230       0.07985566       0.11685976       -999.25000000   
    8204.600 30.34121123      -104.40342782    2.51612520       2.42903496       64.71287384      8.80959181       0.08162207       0.11615307       -999.25000000   
    8204.700 30.17096052      -104.35728369    2.51281890       2.40491550       64.66732267      8.80987132       0.08361404       0.11545485       -999.25000000   
    8204.800 29.99992332      -104.24998918    2.50945255       2.37821893       64.67490820      8.81015082       0.08533626       0.11475663       -999.25000000   
