~Version ---------------------------------------------------
VERS. 2.0 : CWLS log ASCII Standard -VERSION 2.0
WRAP.  NO : One Line Per Depth Step
~Well ------------------------------------------------------
STRT .FT              8400.0 : START DEPTH
STOP .FT              9700.0 : STOP DEPTH
STEP .FT  0.1000000000003638 : STEP
NULL .               -999.25 : NULL VALUE
COMP .  PRESIDIO OIL COMPANY : COMPANY
WELL .     J.T. FEDERAL NO.5 : WELL
FLD  .   SOUTH HAY RESOURCES : FIELD
LOC  . 1266' FNL & 1684' FEL : LOCATION
CNTY .            SWEETWATER : COUNTY
STAT .               WYOMING : STATE
CTRY .                   USA : COUNTRY
SRVC .                       : SERVICE COMPANY
DATE .            30/06/1993 : DATE
API  .            4903723152 : API NUMBER
UWI  .               3723152 : UWI NUMBER
TVD  .                    NO : TVD flag
WSTA .                   LOC : Well status
USGS .                  S179 : USGS Number
LATI .DEG           41.97079 : LATITUDE
LONG .DEG           -108.322 : LONGITUDE
UTM-N.            4650002.36 : Northing
UTM-E.             721895.66 : Easting
CORE .                   N/A : Core/Log Offset
~Curve Information -----------------------------------------
DEPT    .FT                : Depth in Feet
GR      .GAPI 35 310 01 01 : Gamma Ray
SP      .MV   01 010 01 01 : Spontaneous Potential
CALI    .IN   70 280 01 01 : Caliper
ILD     .OHMM 05 120 46 01 : Deep Induction Standard Processed Resistivity
DPHI    .V/V  45 890 01 01 : Density Porosity
NPHI    .V/V  42 890 03 01 : Neutron Porosity
PE      .B/E               : PE
DT      .US/F 60 520 08 01 : Delta-T
ACOUSTIC.DEC               : ACOUSTIC
~Params ----------------------------------------------------
DATE. 30-06-1993 : Date As Month-Day-Year
RUN .        ONE : Run Number
PDAT.        UNK : Permanent Datum
EPD .FT   6607.0 : Elevation Of Perm. Datum
LMF .         KB : Log Measured From
FAPD.FT     16.0 : Feet Above Perm. Datum
DMF .         KB : Drilling Measured From
EKB .FT   6623.0 : Elevation Of Kelly Bushing
EDF .FT   6622.0 : Elevation Of Derrick Floor
EGL .FT   6607.0 : Elevation Of Ground Level
TD  .FT   9700.0 : Total Depth
DD  .FT   9780.0 : Depth Driller
DL  .FT   9724.0 : Depth Logger
BLI .FT   9720.0 : Bottom Log Interval
CSIZ.IN  9.625IN : Casing Size
CBD1.       1698 : Casing Bottom (Driller) 1
CBL1.       1697 : Casing Bottom (Logger) 1
BS  .IN  7.875IN : Bit Size
DFT .        GEL : Drilling Fluid Type
DFV .S      55.0 : Drilling Fluid Viscosity
DFD .LB/G   10.2 : Drilling Fluid Density
DFL .ML      7.6 : Drilling Fluid Loss
DFPH.        9.5 : Drilling Fluid Ph
MSS .   FLOWLINE : Mud Sample Source
RMS .OHMM    1.5 : Resistivity Of Mud Sample
MST .DEGF   74.0 : Mud Sample Temperature
RMF .OHMM    1.8 : Mud Filtrate Resistivity
MFST.DEGF   66.0 : Mud Filtrate Sample Temperature
RMC .OHMM   2.44 : Mud Cake Resistivity
MCST.DEGF   69.0 : Mud Cake Sample Temperature
RMB .OHMM    0.6 : Mud Resistivity At Bht
BHT .DEGF  197.0 : Bottom Hole Temperature
MRT .DEGF  197.0 : Maximum Recorded Temperature
LUN .      52546 : Logging Unit Number
LUL .      VERNL : Logging Unit Location
ENGI.    K EVATT : Engineer'S Name
WITN.    HEFFNER : Witness' Name
DGBY.        R2V : 
WSTA.        LOC : 
~Other -----------------------------------------------------
<DescLogPlotStart>   NEURALOG PLOT DEFINITION
PLOTDEFVERSION: 3
LASFILE: C:\nds\projects\mf-nov-13\las\3723152A.las
DEPTHSCALE: 240.000000
RESOLUTION: 200
DEPTHLABELFREQ: 100.000000
HEAVYGRIDFREQ: 100.000000
MEDIUMGRIDFREQ: 50.000000
LIGHTGRIDFREQ: 10.000000
#
#   TRACK 1
#
STARTTRACK:
LEFTX: 0.500000 inch
RIGHTX: 3.000000 inch
SCALETYPE: Linear
NUMCHARTDIVISIONS: 10
CURVE: GR    0.000000   150.000000 (0,0,255)      Solid             2     N
CURVE: SP    -100.000000 0.000000   (0,131,131)    Dot               2     N
ENDTRACK:
#
#   TRACK 2
#
STARTTRACK:
LEFTX: 0.500000 inch
RIGHTX: 3.000000 inch
SCALETYPE: Linear
NUMCHARTDIVISIONS: 10
CURVE: CALI  6.000000   16.000000  (255,0,255)    Solid             2     Y
BACKUP: -4.000000  6.000000   (255,0,255)    Solid             2
ENDTRACK:
#
#   TRACK 3
#
STARTTRACK:
LEFTX: 3.500000 inch
RIGHTX: 8.500000 inch
SCALETYPE: Log
NUMCYCLES: 4
STARTCYCLE: 2
CURVE: ILD   0.200000   2000.000000 (255,0,0)      Solid             2     N
ENDTRACK:
#
#   TRACK 4
#
STARTTRACK:
LEFTX: 3.500000 inch
RIGHTX: 8.500000 inch
SCALETYPE: Linear
NUMCHARTDIVISIONS: 10
CURVE: DPHI  0.300000   -0.100000  (255,131,0)    Solid             2     Y
BACKUP: 0.700000   0.300000   (255,131,0)    Solid             2
CURVE: NPHI  0.300000   -0.100000  (255,255,0)    Dot               2     Y
BACKUP: 0.700000   0.300000   (255,255,0)    Dot               2
ENDTRACK:
#
#   TRACK 5
#
STARTTRACK:
LEFTX: 3.500000 inch
RIGHTX: 6.000000 inch
SCALETYPE: Linear
NUMCHARTDIVISIONS: 10
CURVE: PE    0.000000   10.000000  (0,0,255)      Solid             2     N
ENDTRACK:
#
#   TRACK 6
#
STARTTRACK:
LEFTX: 8.500000 inch
RIGHTX: 13.500000 inch
SCALETYPE: Linear
NUMCHARTDIVISIONS: 10
CURVE: DT    140.000000 40.000000  (0,131,131)    Solid             2     Y
BACKUP: 40.000000  -60.000000 (0,131,131)    Solid             2
CURVE: ACOUSTIC 0.300000   -0.100000  (255,0,255)    Dot               2     Y
BACKUP: 0.700000   0.300000   (255,0,255)    Dot               2
BACKUP: -0.100000  -0.500000  (255,0,255)    Dot               2
ENDTRACK:
<DescLogPlotEnd>
~ASCII -----------------------------------------------------
# ...
 8655.50000   87.71033  -22.31486   10.13977   36.02989   -0.02196    0.10755    3.44237   64.24880    0.09606
 8655.60000   88.30125  -22.49195   10.14164   36.08003   -0.02260    0.10764    3.44019   64.23619    0.09599
 8655.70000   88.73345  -22.61295   10.14351   36.13024   -0.02324    0.10768    3.43836   64.20512    0.09586
 8655.80000   89.20419  -22.66546   10.14538   36.18052   -0.02388    0.10774    3.43660   64.18864    0.09588
 8655.90000   89.82949  -22.68729   10.14725   36.23765   -0.02452    0.10779    3.43463   64.42148    0.09571
 8656.00000   90.33326  -22.71484   10.14912   36.20714   -0.02516    0.10784    3.43272   64.59009    0.09578
 8656.10000   90.34416  -22.75025   10.15100   36.17191   -0.02580    0.10789    3.43094   64.75871    0.09730
 8656.20000   89.88849  -22.78188   10.15287   36.13672   -0.02622    0.10793    3.42897   64.92732    0.09853
 8656.30000   89.34565  -22.80953   10.15474   36.10156   -0.02528    0.10912    3.42683   65.09593    0.09953
 8656.40000   88.96335  -22.83971   10.15661   36.06643   -0.02458    0.11000    3.42518   65.26454    0.10074
 8656.50000   88.65317  -22.87207   10.15848   36.03134   -0.02388    0.11088    3.42458   65.43315    0.10176
 8656.60000   88.26012  -22.90200   10.16035   35.99628   -0.02318    0.11176    3.42472   65.60176    0.10295
 8656.70000   87.82650  -22.93080   10.16222   35.96126   -0.02215    0.11264    3.42488   65.77037    0.10399
 8656.80000   87.53733  -22.96281   10.16409   35.92627   -0.02166    0.11352    3.42481   65.93898    0.10516
 8656.90000   87.54876  -22.99536   10.16596   35.89131   -0.02072    0.11441    3.42473   66.11562    0.10627
 8657.00000   87.85898  -23.01820   10.16783   35.85639   -0.01978    0.11529    3.42477   66.24239    0.10676
 8657.10000   88.28753  -23.02557   10.16971   35.82150   -0.01883    0.11617    3.42481   66.37551    0.10720
 8657.20000   88.67145  -23.02340   10.17158   35.78665   -0.01789    0.11705    3.42479   66.50862    0.10769
 8657.30000   89.06557  -23.02138   10.17345   35.75183   -0.01696    0.11793    3.42477   66.62272    0.10816
 8657.40000   89.57337  -23.02232   10.17532   35.71705   -0.01601    0.11881    3.42478   66.60920    0.10863
 8657.50000   90.00319  -23.02326   10.17719   35.68229   -0.01507    0.11969    3.42480   66.59736    0.10911
 8657.60000   89.92570  -23.02270   10.17906   35.64758   -0.01412    0.12058    3.42479   66.58553    0.10958
 8657.70000   89.10499  -23.02215   10.18093   35.61289   -0.01318    0.12146    3.42480   66.57370    0.11005
 8657.80000   87.74491  -23.02241   10.18280   35.57824   -0.01223    0.12234    3.42481   66.56187    0.11034
 8657.90000   86.33384  -23.02267   10.18467   35.54362   -0.01118    0.12322    3.42481   66.55003    0.11034
 8658.00000   85.35160  -23.02251   10.18654   35.50904   -0.00942    0.12419    3.42480   66.53820    0.11034
 8658.10000   85.01301  -23.02234   10.18841   35.47449   -0.00745    0.12464    3.42484   66.52637    0.11034
 8658.20000   85.15016  -23.02238   10.19028   35.43998   -0.00544    0.12514    3.42486   66.51454    0.11028
 8658.30000   85.38835  -23.02242   10.19215   35.40549   -0.00345    0.12565    3.42480   66.50270    0.11018
 8658.40000   85.50170  -23.02236   10.19403   35.37104   -0.00288    0.12615    3.42476   66.49087    0.11007
 8658.50000   85.54877  -23.02231   10.19589   35.33663   -0.00233    0.12663    3.42489   66.47904    0.10996
 8658.60000   85.67136  -23.02231   10.19775   35.30225   -0.00181    0.12667    3.42498   66.46721    0.10986
 8658.70000   85.86579  -23.02231   10.19964   35.26790   -0.00248    0.12670    3.42475   66.45538    0.10975
 8658.80000   85.98194  -23.02231   10.20153   35.23311   -0.00305    0.12674    3.42460   66.44343    0.10964
 8658.90000   85.86964  -23.02231   10.20336   35.19875   -0.00326    0.12678    3.42507   66.43207    0.10954
 8659.00000   85.50568  -23.02231   10.20519   35.16468   -0.00350    0.12682    3.42540   66.41971    0.10943
 8659.10000   84.98328  -23.02231   10.20713   35.12973   -0.00367    0.12686    3.42367   66.39883    0.10932
 8659.20000   84.41295  -23.02231   10.20907   35.09671   -0.00387    0.12689    3.41917   66.37694    0.10921
 8659.30000   83.89396  -23.02231   10.21080   35.06055   -0.00436    0.12693    3.41336   66.35600    0.10911
 8659.40000   83.56448  -23.02231   10.21249   35.02910   -0.00481    0.12697    3.40804   66.33424    0.10900
 8659.50000   83.50033  -23.02231   10.21470   34.99139   -0.00520    0.12701    3.40341   66.31307    0.10889
 8659.60000   83.54733  -23.02231   10.21773   34.96156   -0.00564    0.12703    3.39866   66.29165    0.10879
 8659.70000   83.46502  -23.02231   10.22118   34.92260   -0.00588    0.12690    3.39346   66.27005    0.10868
 8659.80000   83.24880  -23.02231   10.22448   34.90753   -0.00596    0.12680    3.38827   66.24914    0.10857
 8659.90000   83.06299  -23.02231   10.22758   34.97950   -0.00601    0.12670    3.38353   66.22696    0.10847
 8660.00000   82.87658  -23.02231   10.23071   35.03983   -0.00605    0.12660    3.37890   66.20673    0.10836
 8660.10000   82.55230  -23.02231   10.23394   35.09037   -0.00611    0.12650    3.37365   66.18392    0.10825
 8660.20000   82.30592  -23.02231   10.23716   35.14979   -0.00614    0.12639    3.36812   66.16424    0.10815
 8660.30000   82.58660  -23.02231   10.24032   35.20411   -0.00621    0.12629    3.36360   66.14222    0.10804
 8660.40000   83.37325  -23.02231   10.24349   35.25956   -0.00623    0.12619    3.35963   66.11562    0.10793
 8660.50000   84.04967  -23.02231   10.24670   35.31510   -0.00631    0.12609    3.35374   66.12373    0.10782
 8660.60000   84.16809  -23.02231   10.24989   35.37072   -0.00686    0.12599    3.34677   66.13448    0.10772
 8660.70000   83.94293  -23.02231   10.25307   35.42643   -0.00757    0.12589    3.34567   66.14523    0.10761
 8660.80000   83.80121  -23.02231   10.25626   35.48223   -0.00827    0.12579    3.35581   66.15598    0.10750
 8660.90000   83.80983  -23.02231   10.25945   35.53811   -0.00896    0.12569    3.37186   66.16673    0.10740
 8661.00000   83.77719  -23.02231   10.26264   35.59409   -0.00968    0.12559    3.38199   66.17748    0.10729
 8661.10000   83.64194  -23.02231   10.26582   35.65015   -0.01036    0.12549    3.38098   66.18824    0.10718
 8661.20000   83.53168  -23.02231   10.26901   35.70630   -0.01109    0.12539    3.37404   66.19899    0.10710
 8661.30000   83.57603  -23.02231   10.27220   35.76254   -0.01158    0.12529    3.36813   66.20974    0.10705
 8661.40000   83.80373  -23.02231   10.27539   35.81886   -0.01132    0.12519    3.36456   66.21704    0.10700
 8661.50000   84.14190  -23.02231   10.27858   35.87528   -0.01118    0.12509    3.36067   66.19337    0.10696
 8661.60000   84.46344  -23.02239   10.28176   35.93179   -0.01058    0.12499    3.35486   66.17546    0.10692
 8661.70000   84.71303  -23.02252   10.28497   35.98838   -0.00997    0.12489    3.34856   66.15754    0.10688
 8661.80000   84.98665  -23.02251   10.28817   36.04506   -0.01026    0.12479    3.34502   66.13962    0.10683
 8661.90000   85.41795  -23.02242   10.29133   36.10184   -0.01087    0.12469    3.34656   66.12170    0.10679
 8662.00000   86.03207  -23.02263   10.29450   36.15870   -0.01157    0.12460    3.35220   66.10379    0.10675
 8662.10000   86.77522  -23.02304   10.29774   36.21565   -0.01161    0.12448    3.35881   66.08587    0.10669
 8662.20000   87.61127  -23.02283   10.30096   36.27269   -0.01157    0.12440    3.36457   66.06795    0.10663
 8662.30000   88.46405  -23.02218   10.30405   36.32982   -0.01160    0.12428    3.36997   66.05003    0.10654
 8662.40000   89.14504  -23.02272   10.30719   36.38704   -0.01158    0.12419    3.37582   66.03212    0.10646
 8662.50000   89.49798  -23.02410   10.31058   36.44435   -0.01159    0.12440    3.38183   66.01420    0.10637
 8662.60000   89.59611  -23.02329   10.31383   36.50175   -0.01126    0.12466    3.38760   65.99628    0.10628
 8662.70000   89.67077  -23.02095   10.31598   36.55925   -0.01093    0.12488    3.39329   65.97836    0.10620
