~Version Information Block
 VERS.                2.00:     CWLS LOG ASCII STANDARD - VERSION 2.000000
 WRAP.                  NO:     One Line Per Depth Step
#
~Well Information Block
#MNEM.UNIT                     Data                         Information
#----------   ------------------------------------------   ----------------
 STRT.FT                                     9000.0000:     START DEPTH
 STOP.FT                                    10600.0000:     STOP DEPTH
 STEP.FT                                        0.1000:     STEP
 NULL.                                       -999.2500:     NULL VALUE
 COMP.                            PRESIDIO OIL COMPANY:     COMPANY
 WELL.                          HAY RESERVIOR UNIT #58:     WELL
 FLD .                              HAY RESERVIOR UNIT:     FIELD
 LOC .                               1500' FSL 10' FWL:     LOCATION
 CNTY.                                      SWEETWATER:     COUNTY
 STAT.                                         WYOMING:     STATE
 CTRY.                                             USA:     COUNTRY
 SRVC.                                    SCHLUMBERGER:     SERVICE COMPANY
 DATE.                                      22/02/1994:     DATE
 API .                                      4903723301:     API NUMBER
 UWI .                                         3723301:     UWI NUMBER
 TVD .                                              NO:     TVD flag
 WSTA.                                             LOC:     Well status
 USGS.                                            E945:     USGS Number
 LATI.DEG                                     42.05082:     LATITUDE
 LONG.DEG                                   -108.37861:     LONGITUDE
 UTM-N.                                     4658743.82:     Northing
 UTM-E.                                      716932.37:     Easting
 CORE.FT                                          -9.2:     Core/Log Offset
#
~Curve Information Block
#MNEM.UNIT       API CODE      Curve Description
#----------    -------------   -------------------
 DEPT.FT                   :   Depth in Feet
 ILD .OHMM     05 120 46 01:   Deep Induction Standard Processed Resistivity
 SP  .MV       01 010 01 01:   Spontaneous Potential
 DPHI.DEC      42 890 03 01:   DPHI
 NPHI.DEC      42 890 03 01:   Neutron Porosity
 CALI.IN       70 280 01 01:   Caliper
 GR  .GAPI     35 310 01 01:   Gamma Ray
 RHOB.G/C3     42 350 01 01:   Bulk Density
 PEF .B/E                  :   Photo-Electric Factor
 DT4P.US/F                 :   
#
~Parameter Information Block
#MNEM.UNIT            Value               Description
#----------    --------------------    -------------------
 DATE.                  22-02-1994:    Date As Month-Day-Year
 RUN .                         ONE:    Run Number
 PDAT.                         UNK:    Permanent Datum
 EPD .FT                 6799.0000:    Elevation Of Perm. Datum
 LMF .                          KB:    Log Measured From
 FAPD.FT                   14.0000:    Feet Above Perm. Datum
 DMF .                          KB:    Drilling Measured From
 EKB .FT                 6813.0000:    Elevation Of Kelly Bushing
 EDF .FT                 6812.0000:    Elevation Of Derrick Floor
 EGL .FT                 6799.0000:    Elevation Of Ground Level
 TD  .FT                10600.0000:    Total Depth
 DD  .FT                10625.0000:    Depth Driller
 DL  .FT                10623.0000:    Depth Logger
 BLI .FT                 1061.0000:    Bottom Log Interval
 CSIZ.IN                     9.625:    Casing Size
 CBD1.                        1702:    Casing Bottom (Driller) 1
 CBL1.                        1700:    Casing Bottom (Logger) 1
 BS  .IN                     7.875:    Bit Size
 DFV .S                    45.0000:    Drilling Fluid Viscosity
 DFD .LB/G                 10.5000:    Drilling Fluid Density
 DFL .ML                    7.2000:    Drilling Fluid Loss
 DFPH.                      9.5000:    Drilling Fluid Ph
 MSS .                    MUD TANK:    Mud Sample Source
 RMS .OHMM                  4.6200:    Resistivity Of Mud Sample
 MST .DEGF                 50.0000:    Mud Sample Temperature
 RMF .OHMM                  3.0700:    Mud Filtrate Resistivity
 MFST.DEGF                 50.0000:    Mud Filtrate Sample Temperature
 RMC .OHMM                  7.1400:    Mud Cake Resistivity
 MCST.DEGF                 50.0000:    Mud Cake Sample Temperature
 RMB .OHMM                  1.0990:    Mud Resistivity At Bht
 BHT .DEGF                212.0000:    Bottom Hole Temperature
 MRT .DEGF                212.0000:    Maximum Recorded Temperature
 LUN .                        8415:    Logging Unit Number
 LUL .                      CASPER:    Logging Unit Location
 ENGI.               CHRIS PRESMYK:    Engineer'S Name
 WITN.                STEVE HEFNER:    Witness' Name
 DGBY.                         R2V:    
 WSTA.                         LOC:    
#
~Other Information Block
<DescLogPlotStart>   NEURALOG PLOT DEFINITION
PLOTDEFVERSION: 3
LASFILE: C:\nds\projects\mf-nov-13\las\3723301A.las
DEPTHSCALE: 240.000000
RESOLUTION: 200
DEPTHLABELFREQ: 100.000000
HEAVYGRIDFREQ: 100.000000
MEDIUMGRIDFREQ: 50.000000
LIGHTGRIDFREQ: 10.000000
#
#   TRACK 1
#
STARTTRACK: 
 LEFTX: 0.500000 inch
 RIGHTX: 3.000000 inch
 SCALETYPE: Log
 NUMCYCLES: 4
 STARTCYCLE: 2
CURVE: ILD   0.200000   2000.000000 (0,0,255)      Solid             2     N   
ENDTRACK: 
#
#   TRACK 2
#
STARTTRACK: 
 LEFTX: 3.500000 inch
 RIGHTX: 6.000000 inch
 SCALETYPE: Linear
 NUMCHARTDIVISIONS: 10
CURVE: SP    -80.000000 20.000000  (0,131,131)    Solid             2     Y    
BACKUP: -180.000000 -80.000000 (0,131,131)    Solid             2    
ENDTRACK: 
#
#   TRACK 3
#
STARTTRACK: 
 LEFTX: 6.000000 inch
 RIGHTX: 11.000000 inch
 SCALETYPE: Linear
 NUMCHARTDIVISIONS: 10
CURVE: DPHI  0.300000   -0.100000  (255,0,255)    Solid             2     N    
CURVE: NPHI  0.300000   -0.100000  (255,0,0)      Dot               2     Y    
BACKUP: 0.700000   0.300000   (255,0,0)      Dot               2    
ENDTRACK: 
#
#   TRACK 4
#
STARTTRACK: 
 LEFTX: 11.000000 inch
 RIGHTX: 13.500000 inch
 SCALETYPE: Linear
 NUMCHARTDIVISIONS: 10
CURVE: CALI  6.000000   16.000000  (255,131,0)    Solid             2     N    
CURVE: GR    0.000000   150.000000 (255,255,0)    Dot               2     Y    
BACKUP: 150.000000 300.000000 (255,255,0)    Dot               2    
ENDTRACK: 
#
#   TRACK 5
#
STARTTRACK: 
 LEFTX: 13.500000 inch
 RIGHTX: 18.500000 inch
 SCALETYPE: Linear
 NUMCHARTDIVISIONS: 10
CURVE: RHOB  2.000000   3.000000   (0,0,255)      Solid             2     Y    
BACKUP: 1.000000   2.000000   (0,0,255)      Solid             2    
CURVE: PEF   0.000000   10.000000  (0,131,131)    Dot               2     N    
ENDTRACK: 
#
#   TRACK 6
#
STARTTRACK: 
 LEFTX: 13.500000 inch
 RIGHTX: 18.500000 inch
 SCALETYPE: Linear
 NUMCHARTDIVISIONS: 10
CURVE: DT4P  240.000000 40.000000  (255,0,255)    Solid             2     N    
ENDTRACK: 
<DescLogPlotEnd>
~A DEPTH     ILD              SP               DPHI             NPHI             CALI             GR               RHOB             PEF              DT4P            
# ...
    9107.800 18.50044603      -90.87512742     0.06033902       0.16944143       9.13493660       91.68680895      2.54818008       2.85412810       -999.25000000   
    9107.900 18.47560755      -90.87992942     0.05962287       0.18201589       9.13534412       93.45713654      2.55503676       2.91640776       -999.25000000   
    9108.000 18.14667407      -90.88473143     0.05890672       0.19445911       9.13641521       94.85942160      2.55710169       2.99276764       -999.25000000   
    9108.100 17.89127037      -90.88953344     0.05827482       0.20632312       9.13780159       96.11770493      2.54569867       3.08453523       -999.25000000   
    9108.200 17.68250714      -90.89433544     0.07371113       0.21871028       9.13908964       97.50061361      2.52345751       3.15718727       -999.25000000   
    9108.300 17.43923953      -90.89913745     0.08752257       0.23069663       9.14022378       98.80721733      2.50036922       3.18785062       -999.25000000   
    9108.400 17.22910575      -90.90393945     0.10009675       0.24288976       9.14137361       99.56352424      2.48765786       3.19237662       -999.25000000   
    9108.500 16.99905739      -90.90874146     0.11342248       0.25501778       9.14260773       99.65736562      2.44189560       3.19489019       -999.25000000   
    9108.600 16.78787728      -90.91353950     0.13564671       0.26714580       9.14386541       99.46159649      2.40190860       3.20022497       -999.25000000   
    9108.700 16.56841958      -90.91832621     0.15821795       0.27927382       9.14506282       99.32975506      2.37433083       3.20858908       -999.25000000   
    9108.800 16.36032248      -90.92309767     0.17661388       0.29140184       9.14618476       99.28396597      2.33332719       3.22488448       -999.25000000   
    9108.900 16.14584511      -90.92788869     0.19325285       0.30140421       9.14736666       99.22199726      2.30645555       3.23563753       -999.25000000   
    9109.000 15.94656031      -90.93270222     0.21491599       0.30974925       9.14870466       99.13190855      2.26509504       3.20676644       -999.25000000   
    9109.100 15.73151657      -90.93747091     0.23450021       0.31629689       9.14996374       99.00421714      2.22110875       3.12679604       -999.25000000   
    9109.200 15.54505729      -90.94218495     0.25172709       0.32284453       9.15092070       98.77840697      2.21443947       3.02769494       -999.25000000   
    9109.300 15.32701482      -90.94699289     0.27073138       0.32939218       9.15205053       98.44806266      2.19229037       2.94278097       -999.25000000   
    9109.400 15.15339858      -90.95192164     0.28853758       0.33350050       9.15376524       98.12506786      2.16871621       2.86942103       -999.25000000   
    9109.500 14.93417440      -90.95667192     0.29980672       0.33780675       9.15508841       97.89827322      2.14432087       2.79031005       -999.25000000   
    9109.600 14.67510323      -90.96118841     0.29991509       0.34094417       9.15422739       97.74704191      2.14203997       2.70688381       -999.25000000   
    9109.700 14.64834081      -90.96603204     0.29960192       0.34272818       9.15084052       97.61784271      2.16149922       2.62846587       -999.25000000   
    9109.800 14.54819377      -90.97128807     0.30007597       0.32984152       9.14642347       97.50053602      2.17441900       2.54970148       -999.25000000   
    9109.900 14.44164439      -90.97589820     0.29950116       0.32507523       9.14231801       97.39499024      2.18550134       2.46446962       -999.25000000   
    9110.000 14.37073061      -90.97998356     0.30008202       0.29939819       9.13875374       97.28487984      2.19939577       2.38450323       -999.25000000   
    9110.100 14.28831611      -90.98733857     0.27560261       0.29315045       9.13551736       97.17629108      2.21802618       2.31503117       -999.25000000   
    9110.200 14.20637425      -91.00286835     0.22894655       0.28089525       9.13205450       97.08690351      2.21802618       2.23276376       -999.25000000   
    9110.300 14.12490232      -91.02701094     0.20407531       0.26864005       9.12776617       96.96794221      2.26545821       2.12569967       -999.25000000   
    9110.400 14.04389761      -91.05503034     0.18269979       0.25638486       9.12343625       96.72523594      2.29707956       2.04024258       -999.25000000   
    9110.500 13.96335747      -91.08240386     0.16848051       0.24412966       9.12066150       96.34853448      2.32870091       2.04095944       -999.25000000   
    9110.600 13.88327921      -91.10863168     0.16001223       0.23187446       9.11795262       95.90774947      2.37613293       2.12756961       -999.25000000   
    9110.700 13.80366019      -91.13518665     0.13029426       0.21961926       9.11032638       95.38895573      2.37613293       2.23578959       -999.25000000   
    9110.800 13.72449777      -91.16231744     0.10880068       0.20736407       9.09536458       94.67414453      2.43731118       2.32040229       -999.25000000   
    9110.900 13.64578935      -91.18926976     0.08836080       0.19510887       9.07713728       93.73762652      2.47809668       2.39192022       -999.25000000   
    9111.000 13.56753230      -91.21590675     0.06703310       0.18285367       9.06104707       92.71022489      2.51888218       2.47150581       -999.25000000   
    9111.100 13.48972406      -91.24263764     0.05457136       0.17542628       9.04717329       91.70576423      2.55966767       2.55682260       -999.25000000   
    9111.200 13.41236203      -91.26953606     0.04044472       0.17081244       9.03227379       90.76710479      2.62084592       2.64028817       -999.25000000   
    9111.300 13.33544367      -91.29638963     0.03020641       0.16750251       9.01612649       89.95212891      2.62084592       2.72234146       -999.25000000   
    9111.400 13.25896642      -91.32316257     0.02037476       0.16419258       9.00125262       89.23187235      2.63066465       2.80099398       -999.25000000   
    9111.500 13.18156741      -91.34995508     0.00990331       0.16064005       8.98734387       88.39681449      2.63721047       2.87999705       -999.25000000   
    9111.600 13.10777983      -91.37678180     0.00367057       0.15762378       8.97122818       87.37361082      2.64702920       2.95740060       -999.25000000   
    9111.700 13.02977724      -91.40359720     0.00252202       0.15513834       8.95310875       86.45045587      2.64702920       3.05983304       -999.25000000   
    9111.800 12.95865845      -91.43039049     0.00229534       0.15045650       8.93820115       85.80774018      2.64679681       3.15063485       -999.25000000   
    9111.900 12.87970617      -91.45718379     0.00143760       0.14652795       8.93016775       85.08925724      2.64664188       3.17481135       -999.25000000   
    9112.000 12.81107101      -91.48397708     0.00124872       0.14300868       8.92644742       83.93563523      2.64648695       3.15066801       -999.25000000   
    9112.100 12.73171401      -91.51077037     0.00138994       0.13916435       8.92232640       82.67160616      2.64633202       3.13410185       -999.25000000   
    9112.200 12.64444580      -91.53756367     0.00172857       0.13555916       8.91676759       81.89852706      2.64617709       3.12985187       -999.25000000   
    9112.300 12.64988755      -91.56435696     0.00191216       0.13280775       8.91158467       81.62730366      2.64602216       3.11729196       -999.25000000   
    9112.400 12.67134383      -91.59114529     0.00218108       0.13244260       8.90727747       81.37484663      2.64586722       3.10346987       -999.25000000   
    9112.500 12.68218832      -91.61788921     0.00240766       0.13212490       8.90277921       80.93801101      2.64571229       3.09536128       -999.25000000   
    9112.600 12.70224320      -91.64463010     0.00264134       0.13181376       8.89778190       80.54946579      2.64555736       3.08209726       -999.25000000   
