~Version Information Block
 VERS.                2.00:     CWLS LOG ASCII STANDARD - VERSION 2.000000
 WRAP.                  NO:     One Line Per Depth Step
#
~Well Information Block
#MNEM.UNIT                     Data                         Information
#----------   ------------------------------------------   ----------------
 STRT.FT                                    12600.0000:     START DEPTH
 STOP.FT                                    13950.0000:     STOP DEPTH
 STEP.FT                                        0.1000:     STEP
 NULL.                                       -999.2500:     NULL VALUE
 COMP.                        PRESIDIO EXPLORATION INC:     COMPANY
 WELL.                          PICKETLAKE UNIT #40-13:     WELL
 FLD .                                         WILDCAT:     FIELD
 LOC .                           1320' FSL & 1320' FEL:     LOCATION
 CNTY.                                      SWEETWATER:     COUNTY
 STAT.                                         WYOMING:     STATE
 CTRY.                                             USA:     COUNTRY
 SRVC.                                                :     SERVICE COMPANY
 DATE.                                      15/05/1995:     DATE
 API .                                      4903723472:     API NUMBER
 UWI .                                         3723472:     UWI NUMBER
 TVD .                                              NO:     TVD flag
 WSTA.                                             LOC:     Well status
 USGS.                                            F042:     USGS Number
 LATI.DEG                                     42.22387:     LATITUDE
 LONG.DEG                                   -108.34765:     LONGITUDE
 UTM-N.                                     4678038.95:     Northing
 UTM-E.                                       718897.4:     Easting
 CORE.                                              +5:     Core/Log Offset
#
~Curve Information Block
#MNEM.UNIT       API CODE      Curve Description
#----------    -------------   -------------------
 DEPT.FT                   :   Depth in Feet
 DTCO.US/F     60 520 08 01:   DTCO
 SPHI.V/V      61 890 01 01:   Sonic Porosity
 GR  .GAPI     35 310 01 01:   Gamma Ray
 CALI.IN       70 280 01 01:   Caliper
 ILD .OHMM     05 120 46 01:   Deep Induction Standard Processed Resistivity
 SP  .MV       01 010 01 01:   Spontaneous Potential
 PEF .b/e                  :   Photo-Electric Factor
 RHOB.G/C3     42 350 01 01:   Bulk Density
 DPHI.V/V      45 890 01 01:   Density Porosity
 NPHI.V/V      42 890 03 01:   Neutron Porosity
#
~Parameter Information Block
#MNEM.UNIT            Value               Description
#----------    --------------------    -------------------
 DATE.                  15-05-1995:    Date As Month-Day-Year
 RUN .                         ONE:    Run Number
 PDAT.                         UNK:    Permanent Datum
 EPD .FT                 7224.0000:    Elevation Of Perm. Datum
 LMF .                          KB:    Log Measured From
 FAPD.FT                   15.0000:    Feet Above Perm. Datum
 DMF .                          KB:    Drilling Measured From
 EKB .FT                 7240.0000:    Elevation Of Kelly Bushing
 EDF .FT                 7239.0000:    Elevation Of Derrick Floor
 EGL .FT                 7224.0000:    Elevation Of Ground Level
 TD  .FT                13950.0000:    Total Depth
 DD  .FT                13957.0000:    Depth Driller
 DL  .FT                13952.0000:    Depth Logger
 BLI .FT                13925.0000:    Bottom Log Interval
 TLI .FT                10000.0000:    Top Log Interval
 CSIZ.IN                   9.625IN:    Casing Size
 CBD1.                        2520:    Casing Bottom (Driller) 1
 CBL1.                        2518:    Casing Bottom (Logger) 1
 BS  .IN                   7.875IN:    Bit Size
 DFT .                         WTD:    Drilling Fluid Type
 DFV .S                    74.0000:    Drilling Fluid Viscosity
 DFD .LB/G                 10.8000:    Drilling Fluid Density
 DFL .ML                    7.2000:    Drilling Fluid Loss
 DFPH.                      9.5000:    Drilling Fluid Ph
 MSS .                     MUDTANK:    Mud Sample Source
 RMS .OHMM                  4.3300:    Resistivity Of Mud Sample
 MST .DEGF                 65.0000:    Mud Sample Temperature
 RMF .OHMM                  3.3800:    Mud Filtrate Resistivity
 MFST.DEGF                 65.0000:    Mud Filtrate Sample Temperature
 RMC .OHMM                  4.5000:    Mud Cake Resistivity
 MCST.DEGF                 65.0000:    Mud Cake Sample Temperature
 RMB .OHMM                  1.3760:    Mud Resistivity At Bht
 BHT .DEGF                219.0000:    Bottom Hole Temperature
 MRT .DEGF                219.0000:    Maximum Recorded Temperature
 LUN .                        8415:    Logging Unit Number
 LUL .                      CASPER:    Logging Unit Location
 ENGI.               T.CHRISTENSEN:    Engineer'S Name
 WITN.                STEVE HEFNER:    Witness' Name
 DGBY.                         R2V:    
 WSTA.                         LOC:    
#
~Other Information Block
<DescLogPlotStart>   NEURALOG PLOT DEFINITION
PLOTDEFVERSION: 3
LASFILE: C:\nds\projects\mf-nov-13\las\3723472C.las
DEPTHSCALE: 240.000000
RESOLUTION: 200
DEPTHLABELFREQ: 100.000000
HEAVYGRIDFREQ: 100.000000
MEDIUMGRIDFREQ: 50.000000
LIGHTGRIDFREQ: 10.000000
#
#   TRACK 1
#
STARTTRACK: 
 LEFTX: 0.500000 inch
 RIGHTX: 3.000000 inch
 SCALETYPE: Linear
 NUMCHARTDIVISIONS: 10
CURVE: DTCO  140.000000 40.000000  (0,0,255)      Solid             2     N    
CURVE: SPHI  0.300000   -0.100000  (0,131,131)    Dot               2     N    
ENDTRACK: 
#
#   TRACK 2
#
STARTTRACK: 
 LEFTX: 3.500000 inch
 RIGHTX: 6.000000 inch
 SCALETYPE: Linear
 NUMCHARTDIVISIONS: 10
CURVE: GR    0.000000   150.000000 (255,0,255)    Solid             2     Y    
BACKUP: 150.000000 300.000000 (255,0,255)    Solid             2    
CURVE: CALI  6.000000   16.000000  (255,0,0)      Dot               2     N    
ENDTRACK: 
#
#   TRACK 3
#
STARTTRACK: 
 LEFTX: 6.000000 inch
 RIGHTX: 11.000000 inch
 SCALETYPE: Log
 NUMCYCLES: 4
 STARTCYCLE: 2
CURVE: ILD   0.200000   2000.000000 (255,131,0)    Solid             2     N   
ENDTRACK: 
#
#   TRACK 4
#
STARTTRACK: 
 LEFTX: 11.000000 inch
 RIGHTX: 13.500000 inch
 SCALETYPE: Linear
 NUMCHARTDIVISIONS: 10
CURVE: SP    -80.000000 20.000000  (255,255,0)    Solid             2     N    
ENDTRACK: 
#
#   TRACK 5
#
STARTTRACK: 
 LEFTX: 13.500000 inch
 RIGHTX: 18.500000 inch
 SCALETYPE: Linear
 NUMCHARTDIVISIONS: 10
CURVE: PEF   0.000000   10.000000  (0,0,255)      Solid             2     N    
CURVE: RHOB  2.000000   3.000000   (0,131,131)    Dot               2     Y    
BACKUP: 1.000000   2.000000   (0,131,131)    Dot               2    
ENDTRACK: 
#
#   TRACK 6
#
STARTTRACK: 
 LEFTX: 18.500000 inch
 RIGHTX: 23.500000 inch
 SCALETYPE: Linear
 NUMCHARTDIVISIONS: 10
CURVE: DPHI  0.300000   -0.100000  (255,0,255)    Solid             2     N    
CURVE: NPHI  0.300000   -0.100000  (255,0,0)      Dot               2     Y    
BACKUP: 0.700000   0.300000   (255,0,0)      Dot               2    
ENDTRACK: 
<DescLogPlotEnd>
~A DEPTH     DTCO             SPHI             GR               CALI             ILD              SP               PEF              RHOB             DPHI             NPHI            
# ...
   13409.600 63.13725927      0.08553211       137.64006496     8.83044361       17.22119533      -14.77538580     3.27697403       2.67538105       -0.01335239      0.13918756      
   13409.700 63.08369925      0.08524798       137.98712746     8.83038771       17.26560861      -14.76941219     3.26655727       2.67423061       -0.01276545      0.13573118      
   13409.800 63.03013923      0.08496386       138.33425643     8.83033181       17.31013642      -14.75814674     3.25636859       2.67308108       -0.01212257      0.13268108      
   13409.900 62.97657921      0.08467973       138.68574027     8.83027591       17.35477908      -14.74893531     3.24474592       2.67204056       -0.01151971      0.12930511      
   13410.000 62.92301919      0.08439560       139.02982968     8.83022001       17.39953687      -14.74192620     3.23176261       2.67103158       -0.01089131      0.12617475      
   13410.100 62.86945916      0.08411147       139.36640539     8.83016411       17.44441008      -14.73411279     3.22097672       2.66986049       -0.01027702      0.12287222      
   13410.200 62.81589914      0.08382735       139.72105931     8.83010821       17.48939903      -14.72518390     3.21616112       2.66854599       -0.00965704      0.11968126      
   13410.300 62.76233912      0.08354322       140.08885208     8.83005230       17.53450400      -14.71667959     3.21737559       2.66744934       -0.00903799      0.11642435      
   13410.400 62.70877910      0.08325909       140.42099512     8.82999640       17.57972530      -14.70878381     3.22230159       2.66688761       -0.00842011      0.11320529      
   13410.500 62.65521908      0.08297497       140.72818028     8.82994050       17.62506322      -14.70066105     3.22910558       2.66672323       -0.00780046      0.11143479      
   13410.600 62.60165905      0.08270451       141.10603683     8.82988460       17.67051807      -14.69221810     3.23639804       2.66656813       -0.00719051      0.11146881      
   13410.700 62.54809903      0.08251613       141.55393309     8.82982870       17.71609014      -14.68388842     3.24309105       2.66627692       -0.00684105      0.11191639      
   13410.800 62.49453901      0.08254800       141.88779046     8.82977280       17.76177975      -14.67571165     3.25026276       2.66597936       -0.00684105      0.11222625      
   13410.900 62.44097899      0.08251450       141.96465193     8.82971689       17.80758718      -14.66748326     3.25948351       2.66574741       -0.00684105      0.11253611      
   13411.000 62.38741897      0.08198573       141.87458055     8.82966099       17.85351276      -14.65918814     3.26767745       2.66550836       -0.00684105      0.11284596      
   13411.100 62.33385894      0.08155483       141.74536812     8.82960509       17.89955678      -14.65091930     3.26783959       2.66524147       -0.00684105      0.11315582      
   13411.200 62.28029892      0.08118616       141.50452371     8.82954919       17.94571954      -14.64268909     3.25722368       2.66499851       -0.00684105      0.11346568      
   13411.300 62.22673890      0.08076239       141.03005881     8.82949329       17.99200136      -14.63445250     3.24082925       2.66475297       -0.00702482      0.11377554      
   13411.400 62.17317888      0.08038359       140.41499110     8.82943739       18.03840253      -14.62621592     3.22475148       2.66444310       -0.00715761      0.11408540      
   13411.500 62.13855422      0.07997083       139.86316467     8.82938149       18.08492338      -14.61797933     3.20981445       2.66416765       -0.00729041      0.11428571      
   13411.600 62.10865685      0.07958107       139.40313113     8.82932558       18.13156420      -14.60974274     3.19357432       2.66415962       -0.00742321      0.11428571      
   13411.700 62.08656850      0.07917818       138.91304218     8.82926968       18.17832531      -14.60150615     3.17533363       2.66452519       -0.00755600      0.11428571      
   13411.800 62.06448014      0.07878088       138.37046089     8.82921378       18.22520701      -14.59326957     3.15706581       2.66512507       -0.00768880      0.11428571      
   13411.900 62.04239179      0.07838215       137.86873276     8.82915788       18.27220962      -14.58503298     3.14050425       2.66575368       -0.00782160      0.11270423      
   13412.000 62.02030344      0.07798477       137.40687680     8.82910198       18.31933345      -14.57679639     3.12456501       2.66634005       -0.00795439      0.11150905      
   13412.100 61.99821508      0.07759438       136.87210822     8.82904608       18.36499764      -14.56855980     3.10633231       2.66692212       -0.00804829      0.11031388      
   13412.200 61.97612673      0.07719679       136.26158167     8.82899018       18.41773759      -14.56032322     3.08602654       2.66752539       -0.00850615      0.10911871      
   13412.300 61.95403838      0.07690763       135.75865450     8.82893427       18.48306996      -14.55208663     3.07006589       2.66813303       -0.00886027      0.10792354      
   13412.400 61.93775100      0.07690763       135.50874999     8.82887837       18.48981413      -14.54385004     3.06588396       2.66873004       -0.00921440      0.10672837      
   13412.500 62.04804065      0.07690763       135.43507193     8.82882247       18.48258495      -14.53561345     3.07345290       2.66931883       -0.00956852      0.10553320      
   13412.600 62.13539005      0.07690763       135.35997419     8.82876657       18.49012373      -14.52737687     3.08522979       2.66991153       -0.00992265      0.10433803      
   13412.700 62.22273944      0.07730924       135.22181885     8.82871067       18.48251367      -14.51914028     3.09505316       2.67051932       -0.01027677      0.10314286      
   13412.800 62.31008884      0.07771084       135.08713817     8.82865477       18.48998638      -14.51090369     3.10408501       2.67112829       -0.01063090      0.10221328      
   13412.900 62.39743824      0.07854667       134.99858386     8.82859887       18.48293738      -14.50267411     3.11733474       2.67171020       -0.01098502      0.10221328      
   13413.000 62.48478764      0.07923052       134.91002971     8.82854296       18.40906664      -14.49442351     3.13701130       2.67228478       -0.01133915      0.10221328      
   13413.100 62.57213703      0.07991438       134.77901835     8.82848706       18.35007152      -14.48620594     3.16096971       2.67291205       -0.01169327      0.10181087      
   13413.200 62.65948643      0.08059823       134.64458442     8.82843116       18.30165837      -14.47800963     3.18605883       2.67356808       -0.01204740      0.10181087      
   13413.300 62.74683583      0.08128209       134.56221699     8.82837526       18.24473495      -14.46976308     3.21094904       2.67410249       -0.01240152      0.10181087      
   13413.400 62.83418523      0.08196594       134.47990351     8.82831936       18.19507100      -14.46145937     3.23560667       2.67440445       -0.01275564      0.10221328      
   13413.500 62.92153462      0.08264980       134.26137357     8.82826346       18.13985350      -14.45327619     3.25993513       2.67455034       -0.01310977      0.10278285      
   13413.600 63.00888402      0.08333365       133.85042002     8.82820756       18.08947157      -14.44520762     3.28434777       2.67469992       -0.01346389      0.10327318      
   13413.700 63.09623342      0.08401751       133.34399897     8.82815165       18.03507179      -14.43687538     3.30970326       2.67490229       -0.01381802      0.10376350      
   13413.800 63.18358282      0.08470137       132.87597945     8.82809575       17.98497570      -14.42833687     3.33506156       2.67509972       -0.01417214      0.10425383      
   13413.900 63.27093221      0.08538522       132.48149084     8.82803985       17.93047716      -14.42030689     3.35847943       2.67527023       -0.01448692      0.10474416      
