~Version ---------------------------------------------------
VERS.   2.0 : CWLS log ASCII Standard -VERSION 2.0
WRAP.    NO : One line per depth step
DLM . SPACE : Column Data Section Delimiter
~Well ------------------------------------------------------
STRT.FT   8950.0     : START DEPTH
STOP.FT  10550.0     : STOP DEPTH
STEP.FT      0.5     : STEP
NULL.    -999.25     : NULL VALUE
COMP.        HRM     : COMPANY
WELL.57 Hay Reservoir: WELL
FLD .  Hay Reservoir : FIELD
LOC .     24N 97W    : LOCATION
CNTY.     Sweetwater : COUNTY
STAT.         WY     : STATE
CTRY.          USA   : COUNTRY
SRVC.           SLB? : SERVICE COMPANY
DATE. 11/14/2019     : DATE
API . 4903723193     : API NUMBER
UWI .   3723193A     : UWI NUMBER
TVD .         NO     : TVD flag
WSTA.        LOC     : Well status
USGS.            E952: USGS Number
LATI.DEG     42.04063: LATITUDE
LONG.DEG   -108.36672: LONGITUDE
UTM-N.     4657642.54: Northing
UTM-E.      717951.25: Easting
CORE.              -4: Core/Log Offset
~Curve Information -----------------------------------------
DEPT.FT                : Depth in Feet
DPHI.V/V  45 890 01 01 : Density Porosity
NPHI.V/V  42 890 03 01 : Neutron Porosity
GR  .API  35 310 01 01 : Gamma Ray
CALI.IN   70 280 01 01 : Caliper
RHOB.G/CC 42 350 01 01 : Bulk Density
PEF .BARN              : Photoelectric Effect
ILD .                  : Deep Induction
SP  .                  : Spontaneous Potential
~Params ----------------------------------------------------
~Other -----------------------------------------------------
~ASCII -----------------------------------------------------
# ...
 10110.00000    0.01600    0.15400   95.03100    9.31600    2.62500    3.24100   15.81700  -16.42000
 10110.50000    0.01800    0.15100   95.60700    9.30600    2.62000    3.25400   16.00400  -16.56300
 10111.00000    0.02000    0.15000   94.36400    9.30300    2.61700    3.23400   16.19300  -16.70800
 10111.50000    0.01800    0.14600   92.90200    9.30300    2.61900    3.16700   16.38400  -16.85200
 10112.00000    0.01600    0.14300   93.34600    9.30000    2.62200    3.13800   16.54000  -16.98000
 10112.50000    0.01600    0.14200   95.40100    9.29100    2.62400    3.14600   16.11700  -17.09600
 10113.00000    0.01400    0.14500   97.47400    9.28400    2.62500    3.14500   15.77100  -17.21000
 10113.50000    0.01100    0.15300   98.77500    9.29600    2.63100    3.10900   15.43300  -17.32400
 10114.00000    0.00900    0.16000   98.44300    9.30000    2.63400    3.15800   15.10200  -17.43900
 10114.50000    0.00800    0.16700   97.96300    9.29300    2.63500    3.25100   14.77800  -17.55300
 10115.00000    0.00900    0.16700   96.00300    9.28500    2.63200    3.30900   14.46400  -17.66800
 10115.50000    0.01100    0.16200   95.15600    9.28300    2.62900    3.30200   14.12000  -17.73500
 10116.00000    0.01400    0.15900   96.34800    9.28300    2.62400    3.27800   13.87700  -17.75200
 10116.50000    0.01700    0.15600   98.12500    9.28300    2.62000    3.28300   13.77100  -17.77000
 10117.00000    0.01900    0.15400   98.14300    9.28300    2.61700    3.28700   13.67200  -17.78700
 10117.50000    0.01900    0.15200   96.89500    9.28300    2.62000    3.28100   13.57300  -17.80400
 10118.00000    0.01700    0.15000   95.67300    9.28300    2.62700    3.24100   13.49000  -17.82200
 10118.50000    0.01400    0.14800   94.96900    9.28300    2.63100    3.19900   13.49000  -17.83900
 10119.00000    0.01100    0.14800   95.99300    9.28300    2.62900    3.19500   13.60300  -17.85600
 10119.50000    0.01200    0.15100   96.88700    9.28300    2.62600    3.19200   13.68600  -17.87400
 10120.00000    0.01300    0.15400   97.11400    9.27700    2.62600    3.18800   13.76900  -17.89100
 10120.50000    0.01400    0.15300   95.43800    9.27000    2.62600    3.19700   13.87000  -17.90800
 10121.00000    0.01400    0.15100   93.20800    9.26300    2.62500    3.22700   13.74500  -17.92300
 10121.50000    0.01400    0.14900   91.81600    9.25500    2.62500    3.26500   13.58900  -18.01300
 10122.00000    0.01400    0.14700   91.54600    9.24700    2.62400    3.30300   13.43500  -18.10900
 10122.50000    0.01400    0.14500   92.51500    9.23900    2.61800    3.33100   13.36500  -18.20600
 10123.00000    0.01700    0.14700   93.20500    9.23100    2.61000    3.35200   13.36500  -18.30600
 10123.50000    0.02200    0.15300   92.63600    9.22300    2.60200    3.43600   13.36500  -18.33000
 10124.00000    0.02600    0.15800   91.86200    9.22200    2.60500    3.59100   13.36500  -18.32900
 10124.50000    0.02800    0.15800   91.06300    9.22200    2.61100    3.66000   13.36500  -18.48700
 10125.00000    0.02500    0.14500   89.52200    9.21700    2.61600    3.53600   13.36500  -18.73700
 10125.50000    0.02000    0.13500   86.28800    9.21100    2.61800    3.37600   13.36500  -18.98900
 10126.00000    0.01700    0.13500   83.09600    9.20500    2.61600    3.28000   13.70300  -19.24300
 10126.50000    0.01900    0.13600   80.91100    9.19800    2.61200    3.26200   14.26100  -19.34200
 10127.00000    0.02200    0.13800   82.59700    9.19200    2.61300    3.26000   14.39400  -19.35400
 10127.50000    0.02300    0.13900   85.12700    9.18600    2.61800    3.26300   14.66300  -19.36400
 10128.00000    0.01900    0.13700   87.64500    9.17900    2.62200    3.26600   14.64200  -19.37400
 10128.50000    0.01700    0.13500   88.50500    9.17300    2.62400    3.25600   14.61000  -19.38500
 10129.00000    0.01500    0.13500   88.63800    9.16700    2.62600    3.22600   14.57800  -19.39600
 10129.50000    0.01300    0.13400   88.60300    9.16100    2.63100    3.23100   14.54600  -19.40600
 10130.00000    0.01100    0.13400   88.38000    9.16200    2.63600    3.25500   14.48600  -19.41700
 10130.50000    0.00700    0.13400   89.33000    9.16200    2.63900    3.28000   14.39300  -19.42700
 10131.00000    0.00600    0.13600   91.37900    9.16200    2.63400    3.28500   14.30000  -19.43800
 10131.50000    0.00800    0.13800   93.46500    9.16200    2.62900    3.28600   14.20800  -19.44800
 10132.00000    0.01200    0.13900   95.54600    9.16200    2.62400    3.24000   14.11700  -19.45900
 10132.50000    0.01500    0.13900   96.54400    9.16200    2.62300    3.18800   14.02600  -19.47000
 10133.00000    0.01500    0.13900   98.23600    9.16200    2.62200    3.12100   13.93600  -19.48000
 10133.50000    0.01500    0.13900   99.17200    9.16200    2.62400    3.08100   13.84600  -19.49100
 10134.00000    0.01500    0.14200   99.02900    9.16200    2.62500    3.10000   13.75700  -19.50100
 10134.50000    0.01400    0.14300   96.69800    9.15800    2.62700    3.20200   13.74200  -19.51200
 10135.00000    0.01200    0.14500   94.09600    9.14100    2.62900    3.30600   13.87200  -19.52200
 10135.50000    0.01200    0.14800   92.66700    9.12500    2.63000    3.41100   13.99900  -19.53500
 10136.00000    0.01200    0.15000   93.24200    9.12700    2.62800    3.50200   14.12900  -19.36500
 10136.50000    0.01200    0.15000   93.75400    9.13500    2.63000    3.48700   14.26300  -19.08900
 10137.00000    0.01000    0.14600   92.68900    9.14200    2.63400    3.41100   14.39700  -18.80900
 10137.50000    0.00600    0.14000   91.75600    9.14100    2.64100    3.33600   14.53200  -18.53600
 10138.00000    0.00200    0.13700   94.13500    9.13700    2.64600    3.26800   14.66800  -18.42400
 10138.50000    0.00000    0.13400   98.19300    9.11800    2.64600    3.25700   14.79900  -18.31900
 10139.00000    0.00200    0.13400  102.24100    9.10800    2.64200    3.28200   14.79900  -18.21300
 10139.50000    0.00400    0.13600  103.84400    9.08100    2.64200    3.34100   14.79900  -18.13600
 10140.00000    0.00400    0.13800  101.82500    9.02100    2.64200    3.47100   14.72500  -18.19300
 10140.50000    0.00400    0.14000   99.38200    8.96200    2.64100    3.51700   14.52800  -18.24800
 10141.00000    0.00500    0.14200   97.95100    8.94000    2.64100    3.35900   14.35900  -18.30200
 10141.50000    0.00500    0.14300   96.81300    8.93900    2.63900    3.24400   14.19600  -18.35700
 10142.00000    0.00600    0.14400   96.43600    8.93700    2.63600    3.21800   14.03500  -18.41100
 10142.50000    0.01200    0.14700   99.71800    8.92800    2.62800    3.21700   13.65300  -18.46500
 10143.00000    0.01800    0.15000  102.85300    8.92000    2.61700    3.27500   13.49000  -18.52200
 10143.50000    0.02400    0.15200  106.09200    8.91900    2.60700    3.40100   13.61500  -18.49800
 10144.00000    0.02700    0.14300  105.37600    8.91900    2.60600    3.71900   13.74200  -18.45600
 10144.50000    0.02100    0.13600  102.41100    8.91900    2.62000    3.93100   13.98100  -18.41300
 10145.00000    0.01000    0.13100  100.27900    8.91900    2.63300    3.71300   14.26100  -18.37100
 10145.50000    0.00100    0.13300  102.04700    8.91900    2.64500    3.47800   14.35600  -18.32900
 10146.00000    0.00000    0.13900  104.72000    8.91900    2.64800    3.24300   14.70800  -18.28600
 10146.50000    0.00300    0.15200  106.58400    8.91900    2.64500    3.06400   15.06900  -18.24400
 10147.00000    0.00500    0.16600  106.40700    8.92200    2.63900    3.08000   15.43400  -18.20200
 10147.50000    0.00400    0.18000   99.48000    8.93200    2.64400    3.09000   15.92500  -18.15900
 10148.00000   -0.00700    0.16800   91.93500    8.93800    2.66000    3.10300   14.84200  -18.09100
 10148.50000   -0.01300    0.15100   84.37100    8.92900    2.67100    3.29200   13.69800  -17.93000
 10149.00000    0.01700    0.13500   83.46800    8.92000    2.62900    4.23300   12.63500  -17.77400
 10149.50000    0.05200    0.13500   89.48900    8.91900    2.53800    5.16200   12.07000  -17.61700
