~Version ---------------------------------------------------
VERS. 2.0 : CWLS log ASCII Standard -VERSION 2.0
WRAP.  NO : One Line Per Depth Step
~Well ------------------------------------------------------
STRT .FT              8400.0 : START DEPTH
STOP .FT              9700.0 : STOP DEPTH
STEP .FT  0.1000000000003638 : STEP
NULL .               -999.25 : NULL VALUE
COMP .  PRESIDIO OIL COMPANY : COMPANY
WELL .     J.T. FEDERAL NO.5 : WELL
FLD  .   SOUTH HAY RESOURCES : FIELD
LOC  . 1266' FNL & 1684' FEL : LOCATION
CNTY .            SWEETWATER : COUNTY
STAT .               WYOMING : STATE
CTRY .                   USA : COUNTRY
SRVC .                       : SERVICE COMPANY
DATE .            30/06/1993 : DATE
API  .            4903723152 : API NUMBER
UWI  .               3723152 : UWI NUMBER
TVD  .                    NO : TVD flag
WSTA .                   LOC : Well status
USGS .                  S179 : USGS Number
LATI .DEG           41.97079 : LATITUDE
LONG .DEG           -108.322 : LONGITUDE
UTM-N.            4650002.36 : Northing
UTM-E.             721895.66 : Easting
CORE .                   N/A : Core/Log Offset
~Curve Information -----------------------------------------
DEPT    .FT                : Depth in Feet
GR      .GAPI 35 310 01 01 : Gamma Ray
SP      .MV   01 010 01 01 : Spontaneous Potential
CALI    .IN   70 280 01 01 : Caliper
ILD     .OHMM 05 120 46 01 : Deep Induction Standard Processed Resistivity
DPHI    .V/V  45 890 01 01 : Density Porosity
NPHI    .V/V  42 890 03 01 : Neutron Porosity
PE      .B/E               : PE
DT      .US/F 60 520 08 01 : Delta-T
ACOUSTIC.DEC               : ACOUSTIC
~Params ----------------------------------------------------
DATE. 30-06-1993 : Date As Month-Day-Year
RUN .        ONE : Run Number
PDAT.        UNK : Permanent Datum
EPD .FT   6607.0 : Elevation Of Perm. Datum
LMF .         KB : Log Measured From
FAPD.FT     16.0 : Feet Above Perm. Datum
DMF .         KB : Drilling Measured From
EKB .FT   6623.0 : Elevation Of Kelly Bushing
EDF .FT   6622.0 : Elevation Of Derrick Floor
EGL .FT   6607.0 : Elevation Of Ground Level
TD  .FT   9700.0 : Total Depth
DD  .FT   9780.0 : Depth Driller
DL  .FT   9724.0 : Depth Logger
BLI .FT   9720.0 : Bottom Log Interval
CSIZ.IN  9.625IN : Casing Size
CBD1.       1698 : Casing Bottom (Driller) 1
CBL1.       1697 : Casing Bottom (Logger) 1
BS  .IN  7.875IN : Bit Size
DFT .        GEL : Drilling Fluid Type
DFV .S      55.0 : Drilling Fluid Viscosity
DFD .LB/G   10.2 : Drilling Fluid Density
DFL .ML      7.6 : Drilling Fluid Loss
DFPH.        9.5 : Drilling Fluid Ph
MSS .   FLOWLINE : Mud Sample Source
RMS .OHMM    1.5 : Resistivity Of Mud Sample
MST .DEGF   74.0 : Mud Sample Temperature
RMF .OHMM    1.8 : Mud Filtrate Resistivity
MFST.DEGF   66.0 : Mud Filtrate Sample Temperature
RMC .OHMM   2.44 : Mud Cake Resistivity
MCST.DEGF   69.0 : Mud Cake Sample Temperature
RMB .OHMM    0.6 : Mud Resistivity At Bht
BHT .DEGF  197.0 : Bottom Hole Temperature
MRT .DEGF  197.0 : Maximum Recorded Temperature
LUN .      52546 : Logging Unit Number
LUL .      VERNL : Logging Unit Location
ENGI.    K EVATT : Engineer'S Name
WITN.    HEFFNER : Witness' Name
DGBY.        R2V : 
WSTA.        LOC : 
~Other -----------------------------------------------------
<DescLogPlotStart>   NEURALOG PLOT DEFINITION
PLOTDEFVERSION: 3
LASFILE: C:\nds\projects\mf-nov-13\las\3723152A.las
DEPTHSCALE: 240.000000
RESOLUTION: 200
DEPTHLABELFREQ: 100.000000
HEAVYGRIDFREQ: 100.000000
MEDIUMGRIDFREQ: 50.000000
LIGHTGRIDFREQ: 10.000000
#
#   TRACK 1
#
STARTTRACK:
LEFTX: 0.500000 inch
RIGHTX: 3.000000 inch
SCALETYPE: Linear
NUMCHARTDIVISIONS: 10
CURVE: GR    0.000000   150.000000 (0,0,255)      Solid             2     N
CURVE: SP    -100.000000 0.000000   (0,131,131)    Dot               2     N
ENDTRACK:
#
#   TRACK 2
#
STARTTRACK:
LEFTX: 0.500000 inch
RIGHTX: 3.000000 inch
SCALETYPE: Linear
NUMCHARTDIVISIONS: 10
CURVE: CALI  6.000000   16.000000  (255,0,255)    Solid             2     Y
BACKUP: -4.000000  6.000000   (255,0,255)    Solid             2
ENDTRACK:
#
#   TRACK 3
#
STARTTRACK:
LEFTX: 3.500000 inch
RIGHTX: 8.500000 inch
SCALETYPE: Log
NUMCYCLES: 4
STARTCYCLE: 2
CURVE: ILD   0.200000   2000.000000 (255,0,0)      Solid             2     N
ENDTRACK:
#
#   TRACK 4
#
STARTTRACK:
LEFTX: 3.500000 inch
RIGHTX: 8.500000 inch
SCALETYPE: Linear
NUMCHARTDIVISIONS: 10
CURVE: DPHI  0.300000   -0.100000  (255,131,0)    Solid             2     Y
BACKUP: 0.700000   0.300000   (255,131,0)    Solid             2
CURVE: NPHI  0.300000   -0.100000  (255,255,0)    Dot               2     Y
BACKUP: 0.700000   0.300000   (255,255,0)    Dot               2
ENDTRACK:
#
#   TRACK 5
#
STARTTRACK:
LEFTX: 3.500000 inch
RIGHTX: 6.000000 inch
SCALETYPE: Linear
NUMCHARTDIVISIONS: 10
CURVE: PE    0.000000   10.000000  (0,0,255)      Solid             2     N
ENDTRACK:
#
#   TRACK 6
#
STARTTRACK:
LEFTX: 8.500000 inch
RIGHTX: 13.500000 inch
SCALETYPE: Linear
NUMCHARTDIVISIONS: 10
CURVE: DT    140.000000 40.000000  (0,131,131)    Solid             2     Y
BACKUP: 40.000000  -60.000000 (0,131,131)    Solid             2
CURVE: ACOUSTIC 0.300000   -0.100000  (255,0,255)    Dot               2     Y
BACKUP: 0.700000   0.300000   (255,0,255)    Dot               2
BACKUP: -0.100000  -0.500000  (255,0,255)    Dot               2
ENDTRACK:
<DescLogPlotEnd>
~ASCII -----------------------------------------------------
# ...
 8991.30000   83.44743  -24.63927    9.76568   26.69343   -0.01391    0.10522    3.46786   65.88736    0.10485
 8991.40000   83.72432  -24.64976    9.76178   26.57534   -0.01481    0.10530    3.47385   65.88046    0.10492
 8991.50000   84.04258  -24.65799    9.75788   26.45777   -0.01559    0.10537    3.47976   65.87356    0.10499
 8991.60000   84.49913  -24.62131    9.75399   26.34073   -0.01648    0.10545    3.48570   65.86667    0.10506
 8991.70000   84.88109  -24.52943    9.75009   26.22420   -0.01727    0.10553    3.49181   65.85977    0.10513
 8991.80000   85.14851  -24.42503    9.74620   26.10818   -0.01816    0.10560    3.49785   65.85287    0.10520
 8991.90000   85.64005  -24.34137    9.74230   25.99268   -0.01889    0.10568    3.50360   65.84598    0.10527
 8992.00000   86.64705  -24.25693    9.73840   25.87769   -0.01924    0.10575    3.50946   65.83908    0.10533
 8992.10000   87.97025  -24.14901    9.73451   25.76321   -0.01955    0.10583    3.51592   65.83218    0.10540
 8992.20000   89.09194  -24.05561    9.73061   25.64924   -0.01987    0.10589    3.52201   65.82529    0.10547
 8992.30000   89.87353  -24.03380    9.72672   25.53577   -0.02012    0.10677    3.52560   65.81839    0.10554
 8992.40000   90.83222  -24.07908    9.72282   25.42280   -0.01971    0.10753    3.52581   65.81136    0.10561
 8992.50000   92.31257  -24.13476    9.71892   25.31033   -0.01936    0.10828    3.52418   65.70994    0.10568
 8992.60000   93.56262  -24.16903    9.71502   25.19836   -0.01901    0.10904    3.52272   65.76166    0.10575
 8992.70000   93.34444  -24.19811    9.71112   25.08689   -0.01866    0.10980    3.52185   65.81339    0.10582
 8992.80000   91.63308  -24.23832    9.70724   24.92060   -0.01831    0.11056    3.52092   65.86511    0.10588
 8992.90000   89.90099  -24.27901    9.70333   24.92060   -0.01809    0.11132    3.51968   65.91684    0.10606
 8993.00000   89.38099  -24.31101    9.69940   24.95866   -0.01822    0.11207    3.51848   65.96856    0.10623
 8993.10000   89.75261  -24.34711    9.69553   24.98406   -0.01831    0.11283    3.51744   66.02028    0.10640
 8993.20000   90.04046  -24.39582    9.69169   25.00950   -0.01840    0.11359    3.51638   66.07201    0.10657
 8993.30000   90.03366  -24.43582    9.68773   25.03495   -0.01850    0.11435    3.51524   66.12373    0.10674
 8993.40000   90.12125  -24.43908    9.68373   25.06044   -0.01859    0.11510    3.51411   66.17546    0.10691
 8993.50000   90.31993  -24.40730    9.67994   25.08595   -0.01868    0.11586    3.51301   66.21704    0.10709
 8993.60000   90.37518  -24.36781    9.67623   25.11077   -0.01877    0.11662    3.51192   66.20306    0.10726
 8993.70000   90.43893  -24.33823    9.67213   25.13628   -0.01890    0.11738    3.51080   66.18820    0.10743
 8993.80000   90.77491  -24.31341    9.66770   25.16183   -0.01880    0.11813    3.50969   66.17665    0.10760
 8993.90000   90.97317  -24.28495    9.66403   25.18783   -0.01863    0.11889    3.50859   66.16345    0.10777
 8994.00000   90.32284  -24.25400    9.66200   25.21331   -0.01846    0.11965    3.50749   66.14988    0.10794
 8994.10000   88.80841  -24.22417    9.66111   25.23930   -0.01830    0.12041    3.50639   66.13916    0.10811
 8994.20000   86.99904  -24.19560    9.66023   25.26495   -0.01813    0.12134    3.50528   66.12271    0.10828
 8994.30000   85.17576  -24.16781    9.65895   25.29091   -0.01796    0.12142    3.50418   66.11948    0.10845
 8994.40000   83.36948  -24.13969    9.65764   25.31673   -0.01779    0.12153    3.50308   66.17289    0.10862
 8994.50000   81.93704  -24.10827    9.65654   25.34247   -0.01763    0.12163    3.50198   66.22578    0.10872
 8994.60000   81.25550  -24.07459    9.65545   25.36827   -0.01746    0.12175    3.50089   66.26020    0.10809
 8994.70000   81.14248  -24.04646    9.65425   25.39409   -0.01729    0.12127    3.49980   66.31625    0.10764
 8994.80000   81.29111  -24.02894    9.65304   25.41994   -0.01712    0.12072    3.49868   66.34753    0.10719
 8994.90000   81.88397  -24.01722    9.65189   25.44582   -0.01696    0.12018    3.49757   66.40551    0.10674
 8995.00000   83.15033  -24.00395    9.65074   25.47172   -0.01679    0.11963    3.49651   66.41388    0.10629
 8995.10000   84.81275  -23.98859    9.64957   25.49765   -0.01662    0.11909    3.49544   66.23015    0.10584
 8995.20000   86.47733  -23.97448    9.64839   25.52360   -0.01645    0.11855    3.49427   66.10282    0.10537
 8995.30000   88.05297  -23.96186    9.64723   25.54958   -0.01629    0.11800    3.49311   65.97550    0.10495
 8995.40000   89.39817  -23.94862    9.64607   25.57559   -0.01612    0.11746    3.49216   65.84818    0.10446
 8995.50000   90.16774  -23.93455    9.64490   25.60163   -0.01595    0.11691    3.49117   65.72086    0.10387
 8995.60000   90.34682  -23.92083    9.64373   25.62769   -0.01578    0.11646    3.48981   65.59354    0.10365
 8995.70000   90.43998  -23.90753    9.64256   25.65377   -0.01562    0.11703    3.48852   65.46622    0.10343
 8995.80000   90.80131  -23.89405    9.64139   25.67989   -0.01545    0.11750    3.48794   65.33890    0.10309
 8995.90000   91.20256  -23.88036    9.64022   25.70603   -0.01528    0.11798    3.48727   65.21158    0.10287
 8996.00000   91.34805  -23.86677    9.63905   25.73219   -0.01511    0.11846    3.48442   65.08426    0.10254
 8996.10000   91.47813  -23.85327    9.63788   25.75839   -0.01495    0.11894    3.47849   64.95694    0.10224
 8996.20000   92.11270  -23.83973    9.63672   25.78461   -0.01484    0.11942    3.47107   64.79716    0.10244
 8996.30000   93.31387  -23.82613    9.63555   25.81085   -0.01571    0.11972    3.46418   64.91278    0.10284
 8996.40000   94.63415  -23.81257    9.63438   25.83713   -0.01636    0.12176    3.45814   65.10142    0.10313
 8996.50000   95.82881  -23.79900    9.63321   25.86343   -0.01700    0.12323    3.45199   65.26949    0.10352
 8996.60000   97.13690  -23.78543    9.63204   25.88975   -0.01765    0.12471    3.44524   65.48377    0.10383
 8996.70000   98.59044  -23.77186    9.63087   25.91611   -0.01830    0.12619    3.43847   65.69806    0.10426
 8996.80000   99.57643  -23.75828    9.62970   25.94249   -0.01895    0.12767    3.43231   65.91234    0.10544
 8996.90000   99.53346  -23.74471    9.62853   25.96889   -0.01959    0.12915    3.42631   66.12663    0.10683
 8997.00000   98.70833  -23.73114    9.62737   25.99533   -0.02024    0.13063    3.41940   66.34092    0.10823
 8997.10000   97.76816  -23.71757    9.62620   26.02179   -0.02089    0.13211    3.41184   66.55520    0.10963
 8997.20000   96.98292  -23.70400    9.62503   26.04828   -0.02175    0.13359    3.40592   66.76949    0.11102
 8997.30000   96.19406  -23.69042    9.62386   26.07479   -0.02175    0.13507    3.40361   66.98377    0.11242
 8997.40000   95.32071  -23.67685    9.62269   26.11462   -0.02175    0.13655    3.40410   67.19806    0.11382
 8997.50000   94.47473  -23.66328    9.62152   26.11462   -0.02175    0.13803    3.40479   67.41234    0.11521
 8997.60000   93.70705  -23.64971    9.62035   26.11462   -0.02175    0.13951    3.40444   67.62663    0.11552
 8997.70000   92.93423  -23.63614    9.61918   26.11462   -0.02175    0.14126    3.40402   67.84092    0.11583
 8997.80000   92.09800  -23.62256    9.61802   26.11462   -0.02175    0.14087    3.40440   68.04260    0.11614
 8997.90000   91.25727  -23.60899    9.61685   26.11462   -0.02175    0.14039    3.40479   68.04260    0.11643
 8998.00000   90.48177  -23.59542    9.61568   26.11462   -0.02279    0.13991    3.40418   67.90872    0.11616
 8998.10000   89.72770  -23.58185    9.61451   26.11462   -0.02399    0.13943    3.40364   67.78458    0.11591
 8998.20000   88.86880  -23.56827    9.61334   26.11462   -0.02519    0.13896    3.40573   67.65932    0.11567
 8998.30000   87.91362  -23.55470    9.61219   26.14419   -0.02638    0.13848    3.41173   67.54500    0.11542
 8998.40000   87.10229  -23.54113    9.61100   26.16392   -0.02758    0.13801    3.42045   67.43208    0.11521
 8998.50000   86.65603  -23.52756    9.60982   26.18367   -0.02877    0.13692    3.42973   67.18665    0.11386
