~Version Information Block
 VERS.                2.00:     CWLS LOG ASCII STANDARD - VERSION 2.000000
 WRAP.                  NO:     One Line Per Depth Step
#
~Well Information Block
#MNEM.UNIT                     Data                         Information
#----------   ------------------------------------------   ----------------
 STRT.FT                                     8200.0000:     START DEPTH
 STOP.FT                                     9700.0000:     STOP DEPTH
 STEP.FT                                        0.1000:     STEP
 NULL.                                       -999.2500:     NULL VALUE
 COMP.                        PRESIDIO EXPLORATION INC:     COMPANY
 WELL.                                   HAY DAM 34-12:     WELL
 FLD .                                          HAYDAM:     FIELD
 LOC .                                   SEC12-23N-97W:     LOCATION
 CNTY.                                      SWEETWATER:     COUNTY
 STAT.                                         WYOMING:     STATE
 CTRY.                                             USA:     COUNTRY
 SRVC.                                    SCHLUMBERGER:     SERVICE COMPANY
 DATE.                                      26/07/1994:     DATE
 API .                                      4903723385:     API NUMBER
 UWI .                                         3723385:     UWI NUMBER
 TVD .                                              NO:     TVD flag
 WSTA.                                             LOC:     Well status
 USGS.                                            F041:     USGS Number
 LATI.DEG                                     41.97739:     LATITUDE
 LONG.DEG                                   -108.32133:     LONGITUDE
 UTM-N.                                        4650736:     Northing
 UTM-E.                                      721928.25:     Easting
 CORE.                                              -5:     Core/Log Offset
#
~Curve Information Block
#MNEM.UNIT       API CODE      Curve Description
#----------    -------------   -------------------
 DEPT.FT                   :   Depth in Feet
 ILD .OHMM     05 120 46 01:   Deep Induction Standard Processed Resistivity
 SP  .MV       01 010 01 01:   Spontaneous Potential
 RHOB.G/C3     42 350 01 01:   Bulk Density
 PEF .b/e                  :   Photo-Electric Factor
 GR  .GAPI     35 310 01 01:   Gamma Ray
 CALI.IN       70 280 01 01:   Caliper
 DPHI.V/V      45 890 01 01:   Density Porosity
 NPHI.V/V      42 890 03 01:   Neutron Porosity
 DTCO.US/F                 :   Delta-T Compressional
#
~Parameter Information Block
#MNEM.UNIT            Value               Description
#----------    --------------------    -------------------
 DATE.                  26-07-1994:    Date As Month-Day-Year
 RUN .                         ONE:    Run Number
 PDAT.                         UNK:    Permanent Datum
 EPD .FT                 6611.0000:    Elevation Of Perm. Datum
 LMF .                          KB:    Log Measured From
 FAPD.FT                   15.0000:    Feet Above Perm. Datum
 DMF .                          KB:    Drilling Measured From
 EKB .FT                 6627.0000:    Elevation Of Kelly Bushing
 EDF .FT                 6626.0000:    Elevation Of Derrick Floor
 EGL .FT                 6611.0000:    Elevation Of Ground Level
 TD  .FT                 9700.0000:    Total Depth
 DD  .FT                 9735.0000:    Depth Driller
 DL  .FT                 9729.0000:    Depth Logger
 BLI .FT                 9719.0000:    Bottom Log Interval
 TLI .FT                 1716.0000:    Top Log Interval
 CSIZ.IN                  9.625 IN:    Casing Size
 CBD1.                        1715:    Casing Bottom (Driller) 1
 CBL1.                        1716:    Casing Bottom (Logger) 1
 BS  .IN                   7.675IN:    Bit Size
 DFT .                    GEL-CHEM:    Drilling Fluid Type
 DFV .S                    45.0000:    Drilling Fluid Viscosity
 DFD .LB/G                 10.1000:    Drilling Fluid Density
 DFL .ML                    8.0000:    Drilling Fluid Loss
 DFPH.                     10.0000:    Drilling Fluid Ph
 MSS .                     MUDTANK:    Mud Sample Source
 RMS .OHMM                  1.4400:    Resistivity Of Mud Sample
 MST .DEGF                 85.0000:    Mud Sample Temperature
 RMF .OHMM                  1.1700:    Mud Filtrate Resistivity
 MFST.DEGF                 80.0000:    Mud Filtrate Sample Temperature
 RMC .OHMM                  1.3300:    Mud Cake Resistivity
 MCST.DEGF                 80.0000:    Mud Cake Sample Temperature
 RMB .OHMM                  0.7480:    Mud Resistivity At Bht
 BHT .DEGF                170.0000:    Bottom Hole Temperature
 MRT .DEGF                170.0000:    Maximum Recorded Temperature
 LUN .                        8415:    Logging Unit Number
 LUL .                      CASPER:    Logging Unit Location
 ENGI.                 CHRISTENSEN:    Engineer'S Name
 WITN.                       LYNON:    Witness' Name
 DGBY.                         R2V:    
 WSTA.                         LOC:    
#
~Other Information Block
<DescLogPlotStart>   NEURALOG PLOT DEFINITION
PLOTDEFVERSION: 3
LASFILE: C:\nds\projects\mf-nov-13\las\3723385A.las
DEPTHSCALE: 240.000000
RESOLUTION: 200
DEPTHLABELFREQ: 100.000000
HEAVYGRIDFREQ: 100.000000
MEDIUMGRIDFREQ: 50.000000
LIGHTGRIDFREQ: 10.000000
#
#   TRACK 1
#
STARTTRACK: 
 LEFTX: 0.500000 inch
 RIGHTX: 3.000000 inch
 SCALETYPE: Log
 NUMCYCLES: 4
 STARTCYCLE: 2
CURVE: ILD   0.200000   2000.000000 (0,0,255)      Solid             2     N   
ENDTRACK: 
#
#   TRACK 2
#
STARTTRACK: 
 LEFTX: 3.500000 inch
 RIGHTX: 6.000000 inch
 SCALETYPE: Linear
 NUMCHARTDIVISIONS: 10
CURVE: SP    -80.000000 20.000000  (0,131,131)    Solid             2     Y    
BACKUP: 20.000000  120.000000 (0,131,131)    Solid             2    
BACKUP: -180.000000 -80.000000 (0,131,131)    Solid             2    
ENDTRACK: 
#
#   TRACK 3
#
STARTTRACK: 
 LEFTX: 6.000000 inch
 RIGHTX: 11.000000 inch
 SCALETYPE: Linear
 NUMCHARTDIVISIONS: 10
CURVE: RHOB  2.000000   3.000000   (255,0,255)    Solid             2     Y    
BACKUP: 1.000000   2.000000   (255,0,255)    Solid             2    
CURVE: PEF   0.000000   10.000000  (255,0,0)      Dot               2     N    
ENDTRACK: 
#
#   TRACK 4
#
STARTTRACK: 
 LEFTX: 11.000000 inch
 RIGHTX: 13.500000 inch
 SCALETYPE: Linear
 NUMCHARTDIVISIONS: 10
CURVE: GR    0.000000   150.000000 (255,131,0)    Solid             2     Y    
BACKUP: 150.000000 300.000000 (255,131,0)    Solid             2    
CURVE: CALI  6.000000   16.000000  (255,255,0)    Dot               2     Y    
BACKUP: 16.000000  26.000000  (255,255,0)    Dot               2    
ENDTRACK: 
#
#   TRACK 5
#
STARTTRACK: 
 LEFTX: 13.500000 inch
 RIGHTX: 18.500000 inch
 SCALETYPE: Linear
 NUMCHARTDIVISIONS: 10
CURVE: DPHI  0.300000   -0.100000  (0,0,255)      Solid             2     N    
CURVE: NPHI  0.300000   -0.100000  (0,131,131)    Dot               2     Y    
BACKUP: 0.700000   0.300000   (0,131,131)    Dot               2    
ENDTRACK: 
#
#   TRACK 6
#
STARTTRACK: 
 LEFTX: 13.500000 inch
 RIGHTX: 18.500000 inch
 SCALETYPE: Linear
 NUMCHARTDIVISIONS: 10
CURVE: DTCO  240.000000 40.000000  (255,0,255)    Solid             2     N    
ENDTRACK: 
<DescLogPlotEnd>
~A DEPTH     ILD              SP               RHOB             PEF              GR               CALI             DPHI             NPHI             DTCO            
# ...
    8998.700 34.35340225      -22.20222827     2.66502424       3.28638790       118.25773044     8.73737374       -0.00920846      0.11490433       -999.25000000   
    8998.800 34.35340225      -22.21596224     2.66582266       3.29952173       117.98558855     8.73737374       -0.00962336      0.11505740       -999.25000000   
    8998.900 34.35340225      -22.22964034     2.66665245       3.30864296       117.83193094     8.73737374       -0.01003827      0.11519570       -999.25000000   
    8999.000 34.35340225      -22.24429924     2.66745201       3.30709993       117.97008614     8.73737374       -0.01045317      0.11530715       -999.25000000   
    8999.100 34.35340225      -22.25893731     2.66823613       3.29497450       118.35859121     8.73737374       -0.01086808      0.11639718       -999.25000000   
    8999.200 34.14168986      -22.27175377     2.66903734       3.27882077       118.81715519     8.73737374       -0.01128298      0.11730997       -999.25000000   
    8999.300 33.95617787      -22.28488073     2.66984568       3.26402795       119.33402634     8.73737374       -0.01169789      0.11822276       -999.25000000   
    8999.400 33.77167387      -22.30161600     2.67064525       3.25069248       120.07916064     8.73737374       -0.01211279      0.11913555       -999.25000000   
    8999.500 33.58817240      -22.31678942     2.67144330       3.23658433       121.09834030     8.73737374       -0.01252769      0.11973817       -999.25000000   
    8999.600 33.40566800      -22.31823960     2.67224669       3.22122541       122.22100919     8.73737374       -0.01294260      0.12136878       -999.25000000   
    8999.700 33.22348734      -22.30221787     2.67304840       3.20643255       123.30326714     8.73737374       -0.01335750      0.12258583       -999.25000000   
    8999.800 33.04621421      -22.27890554     2.67384558       3.19332744       124.35864697     8.73737374       -0.01359517      0.12380289       -999.25000000   
    8999.900 32.86443762      -22.25829948     2.67464808       3.17951316       125.42719363     8.73737374       -0.01443404      0.12501994       -999.25000000   
    9000.000 32.68676741      -22.24008197     2.67545494       3.16205896       126.50126185     8.73737374       -0.01502182      0.12623699       -999.25000000   
    9000.100 32.50865484      -22.22115099     2.67624777       3.14419122       127.58490539     8.73737374       -0.01560960      0.12745404       -999.25000000   
    9000.200 32.33182857      -22.20212628     2.67703378       3.13406328       128.67549900     8.73737374       -0.01619738      0.12867110       -999.25000000   
    9000.300 32.15622172      -22.18269220     2.67784730       3.13459632       129.72894828     8.73737374       -0.01678516      0.12988815       -999.25000000   
    9000.400 31.98110123      -22.16138575     2.67867007       3.14026324       130.76565043     8.73737374       -0.01737294      0.13110520       -999.25000000   
    9000.500 31.80740797      -22.14193505     2.67944084       3.14646693       131.88953043     8.73737374       -0.01796073      0.13232226       -999.25000000   
    9000.600 31.63424642      -22.12848850     2.68020053       3.15531807       133.05098046     8.73737374       -0.01854851      0.13353931       -999.25000000   
    9000.700 31.46239770      -22.11438155     2.68106395       3.16911899       133.95104078     8.73737374       -0.01913629      0.13475636       -999.25000000   
    9000.800 31.29147638      -22.08770719     2.68193406       3.18514100       134.37655421     8.73737374       -0.01972407      0.13597341       -999.25000000   
    9000.900 31.12113032      -22.04785239     2.68244966       3.20013881       134.49472546     8.73737374       -0.02044310      0.13746224       -999.25000000   
    9001.000 30.95209992      -22.00539066     2.68240310       3.21436263       134.62823843     8.73737374       -0.02028197      0.13786506       -999.25000000   
    9001.100 30.78354487      -21.96667727     2.68202824       3.22893344       134.86606031     8.73737374       -0.02007452      0.13838369       -999.25000000   
    9001.200 30.61634234      -21.92889630     2.68168236       3.24316526       135.08382980     8.73737374       -0.01986707      0.13890232       -999.25000000   
    9001.300 30.45050770      -21.88917925     2.68143189       3.25434244       135.23742391     8.73737374       -0.01965962      0.13942095       -999.25000000   
    9001.400 30.28505208      -21.84911509     2.68115297       3.25766806       135.42215243     8.73737374       -0.01945217      0.13993958       -999.25000000   
    9001.500 30.12049548      -21.81012628     2.68083832       3.24978532       135.66318861     8.73737374       -0.01924471      0.14045821       -999.25000000   
    9001.600 29.95683302      -21.77124300     2.68055830       3.23529180       135.81563334     8.73737374       -0.01903726      0.14097684       -999.25000000   
    9001.700 29.79405983      -21.73178859     2.68027245       3.22474457       135.72402726     8.73737374       -0.01882981      0.14149043       -999.25000000   
    9001.800 29.63217109      -21.69232505     2.67992478       3.22292335       135.40369318     8.73737374       -0.01862236      0.14149043       -999.25000000   
    9001.900 29.47116198      -21.65313326     2.67963135       3.22455001       135.00483623     8.73737374       -0.01842900      0.14149043       -999.25000000   
    9002.000 29.31102773      -21.61392781     2.67956758       3.22435813       134.63352682     8.73737374       -0.01842900      0.14149043       -999.25000000   
    9002.100 29.15176358      -21.57460380     2.67973292       3.22460437       134.28020442     8.73737374       -0.01852004      0.14149043       -999.25000000   
    9002.200 28.99336481      -21.53529003     2.67998504       3.22896828       133.91275570     8.73737374       -0.01860302      0.14108761       -999.25000000   
    9002.300 28.81804624      -21.49602694     2.68023443       3.23590054       133.54246984     8.73737374       -0.01868600      0.14092783       -999.25000000   
    9002.400 28.81804624      -21.45676768     2.68047042       3.24255584       133.17801732     8.73737374       -0.01876898      0.14078953       -999.25000000   
    9002.500 28.81804624      -21.41750842     2.68068667       3.24933495       132.80674061     8.73737374       -0.01885196      0.14065123       -999.25000000   
    9002.600 28.81804624      -21.37824916     2.68091059       3.25653817       132.43944644     8.73737374       -0.01893494      0.14051292       -999.25000000   
    9002.700 28.81804624      -21.33898990     2.68119667       3.26225312       132.09055343     8.73737374       -0.01901793      0.14037462       -999.25000000   
    9002.800 28.81804624      -21.29973064     2.68146429       3.26748061       131.72380197     8.73737374       -0.01910091      0.14023632       -999.25000000   
    9002.900 28.81804624      -21.26047138     2.68147943       3.27799032       131.31898003     8.73737374       -0.01918389      0.14009802       -999.25000000   
    9003.000 28.96275710      -21.22121212     2.68113106       3.29701889       130.97176440     8.73737374       -0.01923464      0.13995972       -999.25000000   
    9003.100 29.08128976      -21.18195286     2.68060056       3.32024866       130.82480389     8.73737374       -0.01894663      0.13987915       -999.25000000   
    9003.200 29.20030753      -21.14269360     2.68012647       3.34161545       130.93036993     8.73737374       -0.01873917      0.14137207       -999.25000000   
    9003.300 29.31981239      -21.10343434     2.67972061       3.36074079       131.27315247     8.73737374       -0.01853172      0.14242528       -999.25000000   
    9003.400 29.43980634      -21.06417508     2.67927046       3.38096912       131.86869378     8.73737374       -0.01832427      0.14347850       -999.25000000   
    9003.500 29.56029137      -21.02491582     2.67879385       3.40267546       132.71392147     8.73737374       -0.01811682      0.14453172       -999.25000000   
