~Version ---------------------------------------------------
VERS. 2.0 : CWLS log ASCII Standard -VERSION 2.0
WRAP.  NO : One Line Per Depth Step
~Well ------------------------------------------------------
STRT .FT              8400.0 : START DEPTH
STOP .FT              9700.0 : STOP DEPTH
STEP .FT  0.1000000000003638 : STEP
NULL .               -999.25 : NULL VALUE
COMP .  PRESIDIO OIL COMPANY : COMPANY
WELL .     J.T. FEDERAL NO.5 : WELL
FLD  .   SOUTH HAY RESOURCES : FIELD
LOC  . 1266' FNL & 1684' FEL : LOCATION
CNTY .            SWEETWATER : COUNTY
STAT .               WYOMING : STATE
CTRY .                   USA : COUNTRY
SRVC .                       : SERVICE COMPANY
DATE .            30/06/1993 : DATE
API  .            4903723152 : API NUMBER
UWI  .               3723152 : UWI NUMBER
TVD  .                    NO : TVD flag
WSTA .                   LOC : Well status
USGS .                  S179 : USGS Number
LATI .DEG           41.97079 : LATITUDE
LONG .DEG           -108.322 : LONGITUDE
UTM-N.            4650002.36 : Northing
UTM-E.             721895.66 : Easting
CORE .                   N/A : Core/Log Offset
~Curve Information -----------------------------------------
DEPT    .FT                : Depth in Feet
GR      .GAPI 35 310 01 01 : Gamma Ray
SP      .MV   01 010 01 01 : Spontaneous Potential
CALI    .IN   70 280 01 01 : Caliper
ILD     .OHMM 05 120 46 01 : Deep Induction Standard Processed Resistivity
DPHI    .V/V  45 890 01 01 : Density Porosity
NPHI    .V/V  42 890 03 01 : Neutron Porosity
PE      .B/E               : PE
DT      .US/F 60 520 08 01 : Delta-T
ACOUSTIC.DEC               : ACOUSTIC
~Params ----------------------------------------------------
DATE. 30-06-1993 : Date As Month-Day-Year
RUN .        ONE : Run Number
PDAT.        UNK : Permanent Datum
EPD .FT   6607.0 : Elevation Of Perm. Datum
LMF .         KB : Log Measured From
FAPD.FT     16.0 : Feet Above Perm. Datum
DMF .         KB : Drilling Measured From
EKB .FT   6623.0 : Elevation Of Kelly Bushing
EDF .FT   6622.0 : Elevation Of Derrick Floor
EGL .FT   6607.0 : Elevation Of Ground Level
TD  .FT   9700.0 : Total Depth
DD  .FT   9780.0 : Depth Driller
DL  .FT   9724.0 : Depth Logger
BLI .FT   9720.0 : Bottom Log Interval
CSIZ.IN  9.625IN : Casing Size
CBD1.       1698 : Casing Bottom (Driller) 1
CBL1.       1697 : Casing Bottom (Logger) 1
BS  .IN  7.875IN : Bit Size
DFT .        GEL : Drilling Fluid Type
DFV .S      55.0 : Drilling Fluid Viscosity
DFD .LB/G   10.2 : Drilling Fluid Density
DFL .ML      7.6 : Drilling Fluid Loss
DFPH.        9.5 : Drilling Fluid Ph
MSS .   FLOWLINE : Mud Sample Source
RMS .OHMM    1.5 : Resistivity Of Mud Sample
MST .DEGF   74.0 : Mud Sample Temperature
RMF .OHMM    1.8 : Mud Filtrate Resistivity
MFST.DEGF   66.0 : Mud Filtrate Sample Temperature
RMC .OHMM   2.44 : Mud Cake Resistivity
MCST.DEGF   69.0 : Mud Cake Sample Temperature
RMB .OHMM    0.6 : Mud Resistivity At Bht
BHT .DEGF  197.0 : Bottom Hole Temperature
MRT .DEGF  197.0 : Maximum Recorded Temperature
LUN .      52546 : Logging Unit Number
LUL .      VERNL : Logging Unit Location
ENGI.    K EVATT : Engineer'S Name
WITN.    HEFFNER : Witness' Name
DGBY.        R2V : 
WSTA.        LOC : 
~Other -----------------------------------------------------
<DescLogPlotStart>   NEURALOG PLOT DEFINITION
PLOTDEFVERSION: 3
LASFILE: C:\nds\projects\mf-nov-13\las\3723152A.las
DEPTHSCALE: 240.000000
RESOLUTION: 200
DEPTHLABELFREQ: 100.000000
HEAVYGRIDFREQ: 100.000000
MEDIUMGRIDFREQ: 50.000000
LIGHTGRIDFREQ: 10.000000
#
#   TRACK 1
#
STARTTRACK:
LEFTX: 0.500000 inch
RIGHTX: 3.000000 inch
SCALETYPE: Linear
NUMCHARTDIVISIONS: 10
CURVE: GR    0.000000   150.000000 (0,0,255)      Solid             2     N
CURVE: SP    -100.000000 0.000000   (0,131,131)    Dot               2     N
ENDTRACK:
#
#   TRACK 2
#
STARTTRACK:
LEFTX: 0.500000 inch
RIGHTX: 3.000000 inch
SCALETYPE: Linear
NUMCHARTDIVISIONS: 10
CURVE: CALI  6.000000   16.000000  (255,0,255)    Solid             2     Y
BACKUP: -4.000000  6.000000   (255,0,255)    Solid             2
ENDTRACK:
#
#   TRACK 3
#
STARTTRACK:
LEFTX: 3.500000 inch
RIGHTX: 8.500000 inch
SCALETYPE: Log
NUMCYCLES: 4
STARTCYCLE: 2
CURVE: ILD   0.200000   2000.000000 (255,0,0)      Solid             2     N
ENDTRACK:
#
#   TRACK 4
#
STARTTRACK:
LEFTX: 3.500000 inch
RIGHTX: 8.500000 inch
SCALETYPE: Linear
NUMCHARTDIVISIONS: 10
CURVE: DPHI  0.300000   -0.100000  (255,131,0)    Solid             2     Y
BACKUP: 0.700000   0.300000   (255,131,0)    Solid             2
CURVE: NPHI  0.300000   -0.100000  (255,255,0)    Dot               2     Y
BACKUP: 0.700000   0.300000   (255,255,0)    Dot               2
ENDTRACK:
#
#   TRACK 5
#
STARTTRACK:
LEFTX: 3.500000 inch
RIGHTX: 6.000000 inch
SCALETYPE: Linear
NUMCHARTDIVISIONS: 10
CURVE: PE    0.000000   10.000000  (0,0,255)      Solid             2     N
ENDTRACK:
#
#   TRACK 6
#
STARTTRACK:
LEFTX: 8.500000 inch
RIGHTX: 13.500000 inch
SCALETYPE: Linear
NUMCHARTDIVISIONS: 10
CURVE: DT    140.000000 40.000000  (0,131,131)    Solid             2     Y
BACKUP: 40.000000  -60.000000 (0,131,131)    Solid             2
CURVE: ACOUSTIC 0.300000   -0.100000  (255,0,255)    Dot               2     Y
BACKUP: 0.700000   0.300000   (255,0,255)    Dot               2
BACKUP: -0.100000  -0.500000  (255,0,255)    Dot               2
ENDTRACK:
<DescLogPlotEnd>
~ASCII -----------------------------------------------------
# ...
 9159.20000   90.97698  -19.86213    9.71128   11.61871   -0.00198    0.15121    3.50113   68.79608    0.13027
 9159.30000   90.32625  -19.82729    9.71478   11.49402   -0.00282    0.15084    3.50458   68.52339    0.12890
 9159.40000   90.74971  -19.79270    9.71822   11.36551   -0.00367    0.15047    3.50506   68.28220    0.12779
 9159.50000   91.51374  -19.75849    9.72171   11.24044   -0.00451    0.15020    3.50214   68.00573    0.12779
 9159.60000   92.06633  -19.72401    9.72531   11.11675   -0.00536    0.15075    3.49784   67.84036    0.12779
 9159.70000   92.48687  -19.68929    9.72883   10.99442   -0.00620    0.15102    3.49415   67.95912    0.12779
 9159.80000   93.00283  -19.65501    9.73214   10.87344   -0.00671    0.15312    3.49109   68.04117    0.12779
 9159.90000   93.58606  -19.62097    9.73560   10.75379   -0.00623    0.15465    3.48783   68.32326    0.13086
 9160.00000   94.12152  -19.58615    9.73948   10.63545   -0.00589    0.15619    3.48423   68.64704    0.13308
 9160.10000   94.64272  -19.55104    9.74291   10.51842   -0.00555    0.15773    3.48074   68.98289    0.13531
 9160.20000   95.28615  -19.51733    9.74433   10.40267   -0.00508    0.15927    3.47744   69.63134    0.13753
 9160.30000   96.14790  -19.48423    9.74336   10.28820   -0.00527    0.16080    3.47408   70.27771    0.13975
 9160.40000   97.22998  -19.44834    9.74131   10.17499   -0.00557    0.16234    3.47062   70.92233    0.14198
 9160.50000   98.47627  -19.41021    9.73956   10.06302   -0.00588    0.16388    3.46720   71.57013    0.14420
 9160.60000   99.87914  -19.37680    9.73823    9.95229   -0.00618    0.16542    3.46381   72.21524    0.14642
 9160.70000  101.52113  -19.35351    9.73678    9.84278   -0.00649    0.16696    3.46042   72.86071    0.14865
 9160.80000  103.44286  -19.33685    9.73512    9.73447   -0.00679    0.16849    3.45702   73.50910    0.15091
 9160.90000  105.50275  -19.31951    9.73352    9.62735   -0.00711    0.17003    3.45361   74.12671    0.15527
 9161.00000  107.52095  -19.29940    9.73204    9.52141   -0.00606    0.17157    3.45019   74.55107    0.15972
 9161.10000  109.50966  -19.27933    9.73052    9.41663   -0.00495    0.17311    3.44679   74.94866    0.16349
 9161.20000  111.57754  -19.26067    9.72894    9.31301   -0.00384    0.17464    3.44343   75.35873    0.16613
 9161.30000  113.62738  -19.24183    9.72738    9.21053   -0.00273    0.17618    3.44005   75.64894    0.16842
 9161.40000  115.39914  -19.22210    9.72585    9.10918   -0.00183    0.17772    3.43659   75.83001    0.17072
 9161.50000  116.83912  -19.20271    9.72431    9.00894   -0.00030    0.17926    3.43318   75.96176    0.17301
 9161.60000  118.14833  -19.18393    9.72276    8.90981    0.00098    0.18080    3.42973   76.10607    0.17530
 9161.70000  119.37750  -19.16440    9.72121    8.81176    0.00226    0.18233    3.42533   76.23793    0.17647
 9161.80000  120.25436  -19.14420    9.71967    8.73522    0.00354    0.18387    3.41873   76.38272    0.18117
 9161.90000  120.57688  -19.12555    9.71813    8.80214    0.00482    0.18541    3.40967   76.56125    0.18432
 9162.00000  120.56706  -19.10796    9.71659    8.85775    0.00549    0.18695    3.39933   76.78177    0.18748
 9162.10000  120.60991  -19.08747    9.71505    8.91372    0.00555    0.18849    3.38904   77.09864    0.19063
 9162.20000  120.78288  -19.06505    9.71351    8.97005    0.00559    0.19002    3.37912   77.42831    0.19432
 9162.30000  120.88561  -19.04799    9.71197    9.02673    0.00564    0.19207    3.36916   77.74688    0.19512
 9162.40000  120.87781  -19.03441    9.71042    9.08376    0.00568    0.19224    3.35903   78.07345    0.19609
 9162.50000  120.87523  -19.01027    9.70888    9.13820    0.00572    0.19250    3.34891   78.38742    0.19706
 9162.60000  121.01631  -18.97830    9.70734    9.19762    0.00576    0.19276    3.33889   78.70994    0.19797
 9162.70000  120.82834  -18.97683    9.70580    9.25420    0.00581    0.19301    3.32887   79.03245    0.19774
 9162.80000  119.60179  -19.04501    9.70425    9.31437    0.00585    0.19329    3.31879   79.35497    0.19753
 9162.90000  117.43844  -19.17540    9.70271    9.37098    0.00589    0.19110    3.30871   79.67748    0.19731
 9163.00000  115.11865  -19.32408    9.70118    9.43312    0.00684    0.18869    3.29866   79.90872    0.19716
 9163.10000  112.97063  -19.46220    9.69963    9.48897    0.00784    0.18638    3.28860   80.04665    0.19417
 9163.20000  110.74142  -19.59455    9.69807    9.55338    0.00874    0.18230    3.27853   80.11156    0.19183
 9163.30000  108.18611  -19.73225    9.69654    9.60871    0.00989    0.17840    3.26847   79.71129    0.18950
 9163.40000  105.20613  -19.87289    9.69503    9.68287    0.01094    0.17450    3.25842   79.30020    0.18716
 9163.50000  101.84435  -20.01072    9.69346    9.89749    0.01199    0.17060    3.24835   78.60317    0.18483
 9163.60000   98.31859  -20.14681    9.69185   10.16319    0.01304    0.16670    3.23827   77.37175    0.18174
 9163.70000   94.81332  -20.28433    9.69036   10.42589    0.01409    0.16281    3.22822   76.14033    0.17718
 9163.80000   91.36465  -20.42293    9.68894   10.70428    0.01514    0.15891    3.21820   74.90891    0.17046
 9163.90000   87.92032  -20.56109    9.68728   10.98277    0.01619    0.15501    3.20814   73.67748    0.16374
 9164.00000   84.37841  -20.69829    9.68543   11.27411    0.01725    0.15111    3.19800   72.44606    0.15702
 9164.10000   80.90408  -20.83521    9.68407   11.56927    0.01830    0.14721    3.18795   71.21464    0.15030
 9164.20000   78.11581  -20.97347    9.68379   11.87456    0.01935    0.14331    3.17803   69.98322    0.14359
 9164.30000   76.12221  -21.11310    9.68435   12.18671    0.02040    0.13942    3.16791   68.75180    0.13687
 9164.40000   74.61878  -21.25051    9.68502   12.50740    0.02145    0.13552    3.15755   67.52038    0.13103
 9164.50000   73.15767  -21.38516    9.68546   12.83671    0.02250    0.13069    3.14788   66.52130    0.12792
 9164.60000   71.54660  -21.52370    9.68586   13.17429    0.02355    0.12912    3.14026   66.30832    0.12517
 9164.70000   69.91276  -21.66814    9.68637   13.52117    0.02460    0.12706    3.13506   66.12914    0.12241
 9164.80000   68.42227  -21.80450    9.68691   13.87683    0.02565    0.12499    3.13130   66.01420    0.11966
 9164.90000   66.98034  -21.92074    9.68738   14.24213    0.02670    0.12293    3.12762   66.21866    0.11805
 9165.00000   65.32829  -22.03021    9.68784   14.61676    0.02775    0.12087    3.12349   66.36917    0.11647
 9165.10000   63.49886  -22.15315    9.68834   15.00125    0.02880    0.11890    3.11935   66.51968    0.11535
 9165.20000   61.96553  -22.27783    9.68884   15.39610    0.02985    0.11797    3.11570   66.67018    0.11423
 9165.30000   61.11576  -22.37840    9.68932   15.80109    0.03090    0.11708    3.11210   66.82069    0.11278
 9165.40000   60.75444  -22.47041    9.68980   16.21707    0.03195    0.11619    3.10771   66.97120    0.11282
 9165.50000   60.39098  -22.59273    9.69029   16.64358    0.03300    0.11530    3.10311   67.12170    0.11287
 9165.60000   59.84775  -22.72296    9.69078   17.08022    0.03406    0.11441    3.10062   67.27797    0.11292
 9165.70000   59.29281  -22.77059    9.69127   17.52940    0.03476    0.11352    3.10177   67.42476    0.11298
 9165.80000   58.82869  -22.67556    9.69175   17.99040    0.03441    0.11264    3.10540   67.39332    0.11303
 9165.90000   58.37114  -22.46628    9.69224   18.46352    0.03416    0.11175    3.10919   67.32292    0.11309
 9166.00000   57.86305  -22.21449    9.69272   18.94909    0.03390    0.11086    3.11235   67.28836    0.11314
 9166.10000   57.35184  -21.98944    9.69321   19.44742    0.03354    0.10997    3.11549   67.21703    0.11318
 9166.20000   56.86600  -21.85672    9.69369   19.95886    0.03341    0.10874    3.11886   67.18104    0.11261
 9166.30000   56.38093  -21.85171    9.69418   20.48375    0.03313    0.10798    3.12216   67.12502    0.11211
 9166.40000   55.88526  -21.93525    9.69466   21.02244    0.03261    0.10677    3.12550   66.90969    0.11160
