~Version ---------------------------------------------------
VERS. 2.0 : CWLS log ASCII Standard -VERSION 2.0
WRAP.  NO : One Line Per Depth Step
~Well ------------------------------------------------------
STRT .FT              12000.0 : START DEPTH
STOP .FT              13400.0 : STOP DEPTH
STEP .FT   0.1000000000003638 : STEP
NULL .                -999.25 : NULL VALUE
COMP . ENRON OIL &GAS COMPANY : COMPANY
WELL .       CEPO-LEWIS 21-38 : WELL
FLD  .             CEPO-LEWIS : FIELD
LOC  .   1205' FWL &1300' FSL : LOCATION
CNTY .             SWEETWATER : COUNTY
STAT .                WYOMING : STATE
CTRY .                    USA : COUNTRY
SRVC .                        : SERVICE COMPANY
DATE .             25/05/1998 : DATE
API  .             4903724185 : API NUMBER
UWI  .                3724185 : UWI NUMBER
TVD  .                     NO : TVD flag
WSTA .                    LOC : Well status
USGS .                   CEPO : USGS Number
LATI .DEG            41.18194 : LATITUDE
LONG .DEG          -108.14139 : LONGITUDE
UTM-N.             4562894.53 : Northing
UTM-E.              739764.57 : Easting
CORE .FT                 -3.9 : Core/Log Offset
~Curve Information -----------------------------------------
DEPT .FT                : Depth in Feet
GR   .GAPI 35 310 01 01 : Gamma Ray
SP   .MV   01 010 01 01 : Spontaneous Potential
CALI .IN   70 280 01 01 : Caliper
AHT90.OHMM              : 
ILD  .OHMM 05 120 46 01 : Deep Induction Standard Processed Resistivity
HCAL .IN                : 
DPHI .V/V  45 890 01 01 : Density Porosity
NPOR .V/V               : Neutron Porosity Output From An Application Program
RHOB .G/C3 42 350 01 01 : Bulk Density
PEF  .b/e               : Photo-Electric Factor
DT   .US/F 60 520 08 01 : Delta-T
SPHI .V/V  61 890 01 01 : Sonic Porosity
RESD .OHMM              : Deep Resistivity - Merged AHT90 & ILD
~Params ----------------------------------------------------
DATE.  25-05-1998 : Date As Month-Day-Year
RUN .         ONE : Run Number
PDAT.         UNK : Permanent Datum
EPD .FT    6416.0 : Elevation Of Perm. Datum
LMF .          KB : Log Measured From
FAPD.FT      21.0 : Feet Above Perm. Datum
DMF .          KB : Drilling Measured From
EKB .FT    6437.0 : Elevation Of Kelly Bushing
EDF .FT    6436.0 : Elevation Of Derrick Floor
EGL .FT    6416.0 : Elevation Of Ground Level
TD  .FT   13400.0 : Total Depth
DD  .FT   12587.0 : Depth Driller
DL  .FT   12616.0 : Depth Logger
BLI .FT   12602.0 : Bottom Log Interval
TLI .FT    2346.0 : Top Log Interval
DFT .    GEL-CHEM : Drilling Fluid Type
LUN .        8269 : Logging Unit Number
LUL . ROCK SPRING : Logging Unit Location
DGBY.         R2V : 
WSTA.         LOC : 
~Other -----------------------------------------------------
<DescLogPlotStart>   NEURALOG PLOT DEFINITION
PLOTDEFVERSION: 3
LASFILE: C:\nds\projects\mf-nov-13\las\3724185G.las
DEPTHSCALE: 240.000000
RESOLUTION: 200
DEPTHLABELFREQ: 100.000000
HEAVYGRIDFREQ: 100.000000
MEDIUMGRIDFREQ: 50.000000
LIGHTGRIDFREQ: 10.000000
#
#   TRACK 1
#
STARTTRACK:
LEFTX: 0.500000 inch
RIGHTX: 3.000000 inch
SCALETYPE: Linear
NUMCHARTDIVISIONS: 10
CURVE: GR    0.000000   150.000000 (0,0,255)      Solid             2     N
CURVE: SP    -100.000000 0.000000   (0,131,131)    Dot               2     Y
BACKUP: 0.000000   100.000000 (0,131,131)    Dot               2
BACKUP: 100.000000 200.000000 (0,131,131)    Dot               2
BACKUP: 200.000000 300.000000 (0,131,131)    Dot               2
BACKUP: 300.000000 400.000000 (0,131,131)    Dot               2
CURVE: CALI  4.000000   14.000000  (255,0,255)    Short_Dash        2     N
CURVE: HCAL  4.000000   14.000000  (255,0,0)      Medium_Dash       2     Y
BACKUP: -6.000000  4.000000   (255,0,0)      Medium_Dash       2
ENDTRACK:
#
#   TRACK 2
#
STARTTRACK:
LEFTX: 3.500000 inch
RIGHTX: 8.500000 inch
SCALETYPE: Log
NUMCYCLES: 4
STARTCYCLE: 2
CURVE: AHT90 0.200000   2000.000000 (255,131,0)    Solid             2     N
CURVE: ILD   0.200000   2000.000000 (255,255,0)    Dot               2     N
ENDTRACK:
#
#   TRACK 3
#
STARTTRACK:
LEFTX: 3.500000 inch
RIGHTX: 8.500000 inch
SCALETYPE: Linear
NUMCHARTDIVISIONS: 10
CURVE: DPHI  0.300000   -0.100000  (0,0,255)      Solid             2     Y
BACKUP: 0.700000   0.300000   (0,0,255)      Solid             2
CURVE: NPOR  0.300000   -0.100000  (0,131,131)    Dot               2     Y
BACKUP: 0.700000   0.300000   (0,131,131)    Dot               2
ENDTRACK:
#
#   TRACK 4
#
STARTTRACK:
LEFTX: 3.500000 inch
RIGHTX: 8.500000 inch
SCALETYPE: Linear
NUMCHARTDIVISIONS: 10
CURVE: RHOB  2.000000   3.000000   (255,0,255)    Solid             2     Y
BACKUP: 1.000000   2.000000   (255,0,255)    Solid             2
BACKUP: 3.000000   4.000000   (255,0,255)    Solid             2
CURVE: PEF   0.000000   20.000000  (255,0,0)      Dot               2     N
ENDTRACK:
#
#   TRACK 5
#
STARTTRACK:
LEFTX: 3.500000 inch
RIGHTX: 8.500000 inch
SCALETYPE: Linear
NUMCHARTDIVISIONS: 10
CURVE: DT    140.000000 40.000000  (255,131,0)    Solid             2     Y
BACKUP: 240.000000 140.000000 (255,131,0)    Solid             2
ENDTRACK:
<DescLogPlotEnd>
~ASCII -----------------------------------------------------
# ...
 13201.20000   -5.18648   21.00461    -999.25    -999.25    6.84629    6.37913    0.03761    0.16681    2.62100    5.90701    -999.25    -999.25    6.84629
 13201.30000   -4.79324   21.01674    -999.25    -999.25    6.83961    6.37602    0.04064    0.16803    2.61651    5.94146    -999.25    -999.25    6.83961
 13201.40000   -4.43129   21.03001    -999.25    -999.25    6.83293    6.37292    0.04429    0.16969    2.61180    5.98228    -999.25    -999.25    6.83293
 13201.50000   -4.09385   21.04282    -999.25    -999.25    6.82626    6.36983    0.04630    0.17009    2.60675    6.02333    -999.25    -999.25    6.82626
 13201.60000   -3.70331   21.05500    -999.25    -999.25    6.81960    6.36674    0.04873    0.17027    2.60157    6.04442    -999.25    -999.25    6.81960
 13201.70000   -3.27319   21.06746    -999.25    -999.25    6.81295    6.36365    0.05176    0.17054    2.59657    6.03349    -999.25    -999.25    6.81295
 13201.80000   -3.01686   21.08023    -999.25    -999.25    6.80630    6.36052    0.05416    0.17090    2.59189    6.00187    -999.25    -999.25    6.80630
 13201.90000   -3.12285   21.09286    -999.25    -999.25    6.79966    6.35743    0.05719    0.17090    2.58736    5.96948    -999.25    -999.25    6.79966
 13202.00000   -3.49378   21.10534    -999.25    -999.25    6.79302    6.35438    0.06042    0.16779    2.58270    5.94356    -999.25    -999.25    6.79302
 13202.10000   -3.86576   21.11789    -999.25    -999.25    6.78639    6.35127    0.06070    0.16332    2.57827    5.91900    -999.25    -999.25    6.78639
 13202.20000   -4.13368   21.13051    -999.25    -999.25    6.77977    6.34807    0.06046    0.15884    2.57515    5.89069    -999.25    -999.25    6.77977
 13202.30000   -4.39720   21.14309    -999.25    -999.25    6.77315    6.34510    0.06067    0.15437    2.57421    5.85955    -999.25    -999.25    6.77315
 13202.40000   -4.73014   21.15563    -999.25    -999.25    6.76654    6.34281    0.06051    0.14874    2.57502    5.83227    -999.25    -999.25    6.76654
 13202.50000   -5.06381   21.16818    -999.25    -999.25    6.75994    6.34131    0.06063    0.14773    2.57640    5.81655    -999.25    -999.25    6.75994
 13202.60000   -5.32942   21.18063    -999.25    -999.25    6.75664    6.34024    0.06035    0.14638    2.57783    5.81231    -999.25    -999.25    6.75664
 13202.70000   -5.59998   21.19306    -999.25    -999.25    6.75664    6.33917    0.06012    0.14459    2.57950    5.81137    -999.25    -999.25    6.75664
 13202.80000   -5.96628   21.20567    -999.25    -999.25    6.75664    6.33802    0.05977    0.14474    2.58115    5.81090    -999.25    -999.25    6.75664
 13202.90000   -6.31114   21.21833    -999.25    -999.25    6.75664    6.33689    0.05855    0.14461    2.58224    5.81934    -999.25    -999.25    6.75664
 13203.00000   -6.38549   21.23056    -999.25    -999.25    6.75664    6.33580    0.05702    0.14460    2.58332    5.84254    -999.25    -999.25    6.75664
 13203.10000   -6.15467   21.24273    -999.25    -999.25    6.77233    6.33469    0.05544    0.14438    2.58597    5.87316    -999.25    -999.25    6.77233
 13203.20000   -5.85194   21.25577    -999.25    -999.25    6.80381    6.33357    0.05392    0.14430    2.59086    5.90072    -999.25    -999.25    6.80381
 13203.30000   -5.58152   21.26891    -999.25    -999.25    6.83543    6.33245    0.05208    0.14523    2.59676    5.92425    -999.25    -999.25    6.83543
 13203.40000   -5.11741   21.28037    -999.25    -999.25    6.86721    6.33134    0.04839    0.14653    2.60210    5.94870    -999.25    -999.25    6.86721
 13203.50000   -4.26625   21.29174    -999.25    -999.25    6.89913    6.33023    0.04399    0.14766    2.60663    5.97540    -999.25    -999.25    6.89913
 13203.60000   -3.19051   21.30618    -999.25    -999.25    6.93120    6.32911    0.03948    0.14917    2.61123    6.00186    -999.25    -999.25    6.93120
 13203.70000   -2.17281   21.32068    -999.25    -999.25    6.96342    6.32800    0.03517    0.15230    2.61656    6.02672    -999.25    -999.25    6.96342
 13203.80000   -1.25417   21.32910    -999.25    -999.25    6.99579    6.32688    0.03057    0.15623    2.62220    6.05126    -999.25    -999.25    6.99579
 13203.90000   -0.30861   21.33749    -999.25    -999.25    7.02831    6.32577    0.02636    0.15986    2.62737    6.07763    -999.25    -999.25    7.02831
 13204.00000    0.68705   21.36497    -999.25    -999.25    7.06098    6.32466    0.02167    0.16382    2.63250    6.10606    -999.25    -999.25    7.06098
 13204.10000    1.65974   21.42149    -999.25    -999.25    7.09772    6.32354    0.01712    0.16742    2.63892    6.13101    -999.25    -999.25    7.09772
 13204.20000    2.60778   21.49430    -999.25    -999.25    7.13859    6.32243    0.01665    0.17139    2.64629    6.13913    -999.25    -999.25    7.13859
 13204.30000    3.58484   21.56479    -999.25    -999.25    7.17970    6.32131    0.01663    0.17533    2.65175    6.11508    -999.25    -999.25    7.17970
 13204.40000    4.56999   21.62924    -999.25    -999.25    7.22104    6.32019    0.01643    0.17583    2.65303    6.05513    -999.25    -999.25    7.22104
 13204.50000    5.51240   21.69453    -999.25    -999.25    7.26262    6.31908    0.01621    0.17637    2.65139    5.97545    -999.25    -999.25    7.26262
 13204.60000    6.46071   21.76291    -999.25    -999.25    7.30444    6.31796    0.01718    0.17694    2.64965    5.90109    -999.25    -999.25    7.30444
 13204.70000    7.48600   21.83077    -999.25    -999.25    7.34650    6.31684    0.01820    0.17694    2.64875    5.84400    -999.25    -999.25    7.34650
 13204.80000    8.48701   21.89689    -999.25    -999.25    7.38881    6.31573    0.01921    0.17734    2.64787    5.79651    -999.25    -999.25    7.38881
 13204.90000    9.21512   21.96332    -999.25    -999.25    7.43135    6.31461    0.02023    0.17789    2.64664    5.74681    -999.25    -999.25    7.43135
 13205.00000    9.50978   22.03083    -999.25    -999.25    7.47415    6.31349    0.02125    0.17845    2.64538    5.69321    -999.25    -999.25    7.47415
 13205.10000    9.43960   22.09816    -999.25    -999.25    7.51718    6.31236    0.02226    0.17901    2.64417    5.64029    -999.25    -999.25    7.51718
 13205.20000    9.21136   22.16467    -999.25    -999.25    7.56047    6.31126    0.02217    0.17957    2.64303    5.58943    -999.25    -999.25    7.56047
 13205.30000    8.95671   22.23127    -999.25    -999.25    7.60401    6.31016    0.02209    0.18013    2.64232    5.53843    -999.25    -999.25    7.60401
 13205.40000    8.54558   22.29882    -999.25    -999.25    7.64779    6.30902    0.02201    0.18069    2.64208    5.48606    -999.25    -999.25    7.64779
 13205.50000    7.63985   22.36625    -999.25    -999.25    7.69183    6.30786    0.02193    0.18125    2.64173    5.43310    -999.25    -999.25    7.69183
 13205.60000    6.04411   22.43204    -999.25    -999.25    7.73612    6.30679    0.02185    0.18177    2.64118    5.38127    -999.25    -999.25    7.73612
 13205.70000    3.98343   22.49873    -999.25    -999.25    7.78067    6.30575    0.02099    0.18177    2.64125    5.33253    -999.25    -999.25    7.78067
 13205.80000    1.87882   22.57314    -999.25    -999.25    7.82547    6.30453    0.02020    0.18218    2.64236    5.28777    -999.25    -999.25    7.82547
 13205.90000   -0.09861   22.65977    -999.25    -999.25    7.87054    6.30326    0.01938    0.18218    2.64387    5.24661    -999.25    -999.25    7.87054
 13206.00000   -2.07401   22.75533    -999.25    -999.25    7.91586    6.30249    0.01858    0.17613    2.64518    5.20879    -999.25    -999.25    7.91586
 13206.10000   -4.12497   22.85274    -999.25    -999.25    7.96144    6.30262    0.01774    0.17058    2.64647    5.17337    -999.25    -999.25    7.96144
 13206.20000   -6.15026   22.94860    -999.25    -999.25    7.98433    6.30335    0.01696    0.16503    2.64785    5.13726    -999.25    -999.25    7.98433
 13206.30000   -8.11708   23.04403    -999.25    -999.25    7.98433    6.30410    0.01621    0.15948    2.64895    5.09917    -999.25    -999.25    7.98433
