~Version Information Block
 VERS.                2.00:     CWLS LOG ASCII STANDARD - VERSION 2.000000
 WRAP.                  NO:     One Line Per Depth Step
#
~Well Information Block
#MNEM.UNIT                     Data                         Information
#----------   ------------------------------------------   ----------------
 STRT.FT                                     9000.0000:     START DEPTH
 STOP.FT                                    10600.0000:     STOP DEPTH
 STEP.FT                                        0.1000:     STEP
 NULL.                                       -999.2500:     NULL VALUE
 COMP.                            PRESIDIO OIL COMPANY:     COMPANY
 WELL.                          HAY RESERVIOR UNIT #58:     WELL
 FLD .                              HAY RESERVIOR UNIT:     FIELD
 LOC .                               1500' FSL 10' FWL:     LOCATION
 CNTY.                                      SWEETWATER:     COUNTY
 STAT.                                         WYOMING:     STATE
 CTRY.                                             USA:     COUNTRY
 SRVC.                                    SCHLUMBERGER:     SERVICE COMPANY
 DATE.                                      22/02/1994:     DATE
 API .                                      4903723301:     API NUMBER
 UWI .                                         3723301:     UWI NUMBER
 TVD .                                              NO:     TVD flag
 WSTA.                                             LOC:     Well status
 USGS.                                            E945:     USGS Number
 LATI.DEG                                     42.05082:     LATITUDE
 LONG.DEG                                   -108.37861:     LONGITUDE
 UTM-N.                                     4658743.82:     Northing
 UTM-E.                                      716932.37:     Easting
 CORE.FT                                          -9.2:     Core/Log Offset
#
~Curve Information Block
#MNEM.UNIT       API CODE      Curve Description
#----------    -------------   -------------------
 DEPT.FT                   :   Depth in Feet
 ILD .OHMM     05 120 46 01:   Deep Induction Standard Processed Resistivity
 SP  .MV       01 010 01 01:   Spontaneous Potential
 DPHI.DEC      42 890 03 01:   DPHI
 NPHI.DEC      42 890 03 01:   Neutron Porosity
 CALI.IN       70 280 01 01:   Caliper
 GR  .GAPI     35 310 01 01:   Gamma Ray
 RHOB.G/C3     42 350 01 01:   Bulk Density
 PEF .B/E                  :   Photo-Electric Factor
 DT4P.US/F                 :   
#
~Parameter Information Block
#MNEM.UNIT            Value               Description
#----------    --------------------    -------------------
 DATE.                  22-02-1994:    Date As Month-Day-Year
 RUN .                         ONE:    Run Number
 PDAT.                         UNK:    Permanent Datum
 EPD .FT                 6799.0000:    Elevation Of Perm. Datum
 LMF .                          KB:    Log Measured From
 FAPD.FT                   14.0000:    Feet Above Perm. Datum
 DMF .                          KB:    Drilling Measured From
 EKB .FT                 6813.0000:    Elevation Of Kelly Bushing
 EDF .FT                 6812.0000:    Elevation Of Derrick Floor
 EGL .FT                 6799.0000:    Elevation Of Ground Level
 TD  .FT                10600.0000:    Total Depth
 DD  .FT                10625.0000:    Depth Driller
 DL  .FT                10623.0000:    Depth Logger
 BLI .FT                 1061.0000:    Bottom Log Interval
 CSIZ.IN                     9.625:    Casing Size
 CBD1.                        1702:    Casing Bottom (Driller) 1
 CBL1.                        1700:    Casing Bottom (Logger) 1
 BS  .IN                     7.875:    Bit Size
 DFV .S                    45.0000:    Drilling Fluid Viscosity
 DFD .LB/G                 10.5000:    Drilling Fluid Density
 DFL .ML                    7.2000:    Drilling Fluid Loss
 DFPH.                      9.5000:    Drilling Fluid Ph
 MSS .                    MUD TANK:    Mud Sample Source
 RMS .OHMM                  4.6200:    Resistivity Of Mud Sample
 MST .DEGF                 50.0000:    Mud Sample Temperature
 RMF .OHMM                  3.0700:    Mud Filtrate Resistivity
 MFST.DEGF                 50.0000:    Mud Filtrate Sample Temperature
 RMC .OHMM                  7.1400:    Mud Cake Resistivity
 MCST.DEGF                 50.0000:    Mud Cake Sample Temperature
 RMB .OHMM                  1.0990:    Mud Resistivity At Bht
 BHT .DEGF                212.0000:    Bottom Hole Temperature
 MRT .DEGF                212.0000:    Maximum Recorded Temperature
 LUN .                        8415:    Logging Unit Number
 LUL .                      CASPER:    Logging Unit Location
 ENGI.               CHRIS PRESMYK:    Engineer'S Name
 WITN.                STEVE HEFNER:    Witness' Name
 DGBY.                         R2V:    
 WSTA.                         LOC:    
#
~Other Information Block
<DescLogPlotStart>   NEURALOG PLOT DEFINITION
PLOTDEFVERSION: 3
LASFILE: C:\nds\projects\mf-nov-13\las\3723301A.las
DEPTHSCALE: 240.000000
RESOLUTION: 200
DEPTHLABELFREQ: 100.000000
HEAVYGRIDFREQ: 100.000000
MEDIUMGRIDFREQ: 50.000000
LIGHTGRIDFREQ: 10.000000
#
#   TRACK 1
#
STARTTRACK: 
 LEFTX: 0.500000 inch
 RIGHTX: 3.000000 inch
 SCALETYPE: Log
 NUMCYCLES: 4
 STARTCYCLE: 2
CURVE: ILD   0.200000   2000.000000 (0,0,255)      Solid             2     N   
ENDTRACK: 
#
#   TRACK 2
#
STARTTRACK: 
 LEFTX: 3.500000 inch
 RIGHTX: 6.000000 inch
 SCALETYPE: Linear
 NUMCHARTDIVISIONS: 10
CURVE: SP    -80.000000 20.000000  (0,131,131)    Solid             2     Y    
BACKUP: -180.000000 -80.000000 (0,131,131)    Solid             2    
ENDTRACK: 
#
#   TRACK 3
#
STARTTRACK: 
 LEFTX: 6.000000 inch
 RIGHTX: 11.000000 inch
 SCALETYPE: Linear
 NUMCHARTDIVISIONS: 10
CURVE: DPHI  0.300000   -0.100000  (255,0,255)    Solid             2     N    
CURVE: NPHI  0.300000   -0.100000  (255,0,0)      Dot               2     Y    
BACKUP: 0.700000   0.300000   (255,0,0)      Dot               2    
ENDTRACK: 
#
#   TRACK 4
#
STARTTRACK: 
 LEFTX: 11.000000 inch
 RIGHTX: 13.500000 inch
 SCALETYPE: Linear
 NUMCHARTDIVISIONS: 10
CURVE: CALI  6.000000   16.000000  (255,131,0)    Solid             2     N    
CURVE: GR    0.000000   150.000000 (255,255,0)    Dot               2     Y    
BACKUP: 150.000000 300.000000 (255,255,0)    Dot               2    
ENDTRACK: 
#
#   TRACK 5
#
STARTTRACK: 
 LEFTX: 13.500000 inch
 RIGHTX: 18.500000 inch
 SCALETYPE: Linear
 NUMCHARTDIVISIONS: 10
CURVE: RHOB  2.000000   3.000000   (0,0,255)      Solid             2     Y    
BACKUP: 1.000000   2.000000   (0,0,255)      Solid             2    
CURVE: PEF   0.000000   10.000000  (0,131,131)    Dot               2     N    
ENDTRACK: 
#
#   TRACK 6
#
STARTTRACK: 
 LEFTX: 13.500000 inch
 RIGHTX: 18.500000 inch
 SCALETYPE: Linear
 NUMCHARTDIVISIONS: 10
CURVE: DT4P  240.000000 40.000000  (255,0,255)    Solid             2     N    
ENDTRACK: 
<DescLogPlotEnd>
~A DEPTH     ILD              SP               DPHI             NPHI             CALI             GR               RHOB             PEF              DT4P            
# ...
    9852.600 29.67713580      -32.35112381     0.00972919       0.11323972       8.84978304       65.89255204      2.63375537       3.72477799       64.46953900     
    9852.700 29.03423374      -32.30827921     0.00972919       0.11311936       8.85178183       65.97938408      2.63354824       3.69151285       64.46886472     
    9852.800 28.40525901      -32.26461810     0.01033099       0.11303912       8.85382324       65.97678887      2.63219700       3.65702950       64.46819043     
    9852.900 27.78990989      -32.22139970     0.01093280       0.11295888       8.85585044       65.97067372      2.63025835       3.61888807       64.46751615     
    9853.000 27.18789120      -32.17934823     0.01093280       0.11283852       8.85785729       66.03726319      2.62846777       3.58119461       64.46684186     
    9853.100 26.59891418      -32.13717244     0.01376988       0.11283852       8.85987093       66.09470936      2.62691809       3.54604480       64.46616758     
    9853.200 26.02269629      -32.09302811     0.01566127       0.11365916       8.86189345       66.01648273      2.62529664       3.51411423       64.46549329     
    9853.300 25.45896113      -32.04888879     0.01755266       0.11420626       8.86391300       65.81936018      2.62355524       3.49078111       64.46481901     
    9853.400 24.90743828      -32.00854322     0.01944405       0.11475335       8.86592742       65.61790799      2.62189371       3.47660045       64.46414472     
    9853.500 24.36786319      -31.96769023     0.02133543       0.11530045       8.86794355       65.44320340      2.62029160       3.46327842       64.46347044     
    9853.600 23.83997702      -31.91158684     0.02417252       0.11584754       8.86995968       65.23184115      2.61856870       3.44729809       64.46279615     
    9853.700 23.32352657      -31.82967717     0.02417252       0.11639464       8.87197581       65.02271527      2.61682296       3.43178796       64.46212187     
    9853.800 22.81826409      -31.72842519     0.02447342       0.11694173       8.87399194       64.91238709      2.61528319       3.41746699       64.46144758     
    9853.900 22.32394722      -31.62329492     0.02467402       0.11748883       8.87600806       64.78673544      2.61373760       3.40282185       64.46077330     
    9854.000 21.82274151      -31.52193460     0.02497492       0.11803593       8.87802419       64.43482904      2.61179503       3.38671562       64.46009902     
    9854.100 21.38340379      -31.42164031     0.02497492       0.11885657       8.88004032       64.11581724      2.60990587       3.37128608       64.45942473     
    9854.200 20.87820584      -31.31931774     0.02280843       0.11885657       8.88205645       64.47482587      2.60937429       3.35948728       64.45875045     
    9854.300 20.47406352      -31.21647670     0.02136409       0.12229546       8.88407258       65.61491973      2.61086670       3.35337051       64.45807616     
    9854.400 19.97730114      -31.11488259     0.01991976       0.12458805       8.88608871       66.83090375      2.61353802       3.35122622       64.45740188     
    9854.500 19.38538977      -31.01354630     0.01847543       0.12688064       8.88810484       67.70728959      2.61613785       3.34896795       64.45672759     
    9854.600 19.33126975      -30.91119161     0.01703109       0.12917323       8.89012097       68.87240385      2.61836459       3.34432433       64.45605331     
    9854.700 19.19194838      -30.80875348     0.01558676       0.13146583       8.89213710       71.02014112      2.62061420       3.33981285       64.45537902     
    9854.800 19.01936932      -30.70756195     0.01414243       0.13490471       8.89415323       73.71895843      2.62301934       3.34053158       64.45470474     
    9854.900 18.93328096      -30.60630640     0.01269809       0.13490471       8.89616935       76.02673224      2.62541726       3.34863264       64.45403045     
    9855.000 18.77749771      -30.50306491     0.01053159       0.13731194       8.89818548       77.92562526      2.62779037       3.36106700       64.45335617     
    9855.100 18.67686005      -30.40005015     0.01053159       0.13891675       8.90020161       80.18889230      2.63015740       3.37354561       64.45268188     
    9855.200 18.53834761      -30.30053251     0.00812437       0.14052156       8.90221774       82.90307123      2.63242721       3.38473557       64.45200760     
    9855.300 18.42558843      -30.20052382     0.00812437       0.14212638       8.90423387       85.11569341      2.63471781       3.39570770       64.45133331     
    9855.400 18.29968472      -30.09374117     0.00651956       0.14373119       8.90625000       86.16692838      2.63728617       3.40730596       64.45065684     
    9855.500 18.18188018      -29.98872680     0.00651956       0.14543182       8.90826613       86.56348452      2.63983228       3.41934755       64.44998668     
    9855.600 18.06194028      -29.90879669     0.00611836       0.14776530       8.91028226       87.09970323      2.64146888       3.43109421       64.44930672     
    9855.700 17.94279160      -29.86622973     0.00611836       0.14779365       8.91229839       87.79222372      2.64172017       3.44201310       64.44863945     
    9855.800 17.82442890      -29.84644494     0.00611836       0.14505440       8.91431452       88.29863681      2.64097003       3.45297635       64.44795680     
    9855.900 17.70684699      -29.82653198     0.00611836       0.14317939       8.91633065       88.80267907      2.63969332       3.46558139       64.44729171     
    9856.000 17.59004074      -29.79984507     0.00799900       0.14139717       8.91834677       89.62411244      2.63786111       3.47853981       64.44667452     
    9856.100 17.47400502      -29.77331441     0.00925276       0.13950482       8.92036290       90.30664814      2.63544859       3.48678103       64.44600711     
    9856.200 17.35873475      -29.75021474     0.01050652       0.13772650       8.92237903       90.04212283      2.63285446       3.48680058       64.44538190     
    9856.300 17.24422488      -29.72702433     0.01176028       0.13583468       8.92439516       88.88379967      2.63040778       3.48119745       64.44477412     
    9856.400 17.13047039      -29.70196221     0.01301404       0.13405097       8.92641129       87.65149452      2.62799245       3.47527931       64.44415112     
    9856.500 17.01746631      -29.67694646     0.01426780       0.13215609       8.92842742       86.73216108      2.62549150       3.47100997       64.44354065     
    9856.600 16.90520767      -29.65290281     0.01552156       0.13039026       8.93044355       85.77170133      2.62306843       3.46685560       64.44292054     
    9856.700 16.79368957      -29.62893863     0.01677533       0.12846224       8.93245968       84.53009208      2.62071171       3.46186849       64.44230727     
    9856.800 16.68290712      -29.60449601     0.01802909       0.12674350       8.93447581       83.25392734      2.61812228       3.45681905       64.44168962     
    9856.900 16.57285546      -29.57988915     0.01928285       0.12475743       8.93649194       82.13107817      2.61539905       3.45222516       64.44107438     
    9857.000 16.46352977      -29.55548920     0.02053661       0.12310240       8.93850806       81.04285911      2.61321590       3.44766869       64.44045814     
    9857.100 16.35492528      -29.53147787     0.02179037       0.12120110       8.94052419       79.92693874      2.61196044       3.44287308       64.43984203     
    9857.200 16.24703721      -29.50733397     0.02304413       0.11845537       8.94253861       78.83141460      2.61125963       3.43805026       64.43922623     
    9857.300 16.08653808      -29.48236117     0.02429789       0.11845537       8.94455817       77.65662216      2.61062622       3.43333747       64.43860997     
    9857.400 16.08653808      -29.45743762     0.02617854       0.11809428       8.94655731       76.31709342      2.61001566       3.42865326       64.43799416     
