~Version Information Block
 VERS.                2.00:     CWLS LOG ASCII STANDARD - VERSION 2.000000
 WRAP.                  NO:     One Line Per Depth Step
#
~Well Information Block
#MNEM.UNIT                     Data                         Information
#----------   ------------------------------------------   ----------------
 STRT.FT                                     9000.0000:     START DEPTH
 STOP.FT                                    10600.0000:     STOP DEPTH
 STEP.FT                                        0.1000:     STEP
 NULL.                                       -999.2500:     NULL VALUE
 COMP.                            PRESIDIO OIL COMPANY:     COMPANY
 WELL.                          HAY RESERVIOR UNIT #58:     WELL
 FLD .                              HAY RESERVIOR UNIT:     FIELD
 LOC .                               1500' FSL 10' FWL:     LOCATION
 CNTY.                                      SWEETWATER:     COUNTY
 STAT.                                         WYOMING:     STATE
 CTRY.                                             USA:     COUNTRY
 SRVC.                                    SCHLUMBERGER:     SERVICE COMPANY
 DATE.                                      22/02/1994:     DATE
 API .                                      4903723301:     API NUMBER
 UWI .                                         3723301:     UWI NUMBER
 TVD .                                              NO:     TVD flag
 WSTA.                                             LOC:     Well status
 USGS.                                            E945:     USGS Number
 LATI.DEG                                     42.05082:     LATITUDE
 LONG.DEG                                   -108.37861:     LONGITUDE
 UTM-N.                                     4658743.82:     Northing
 UTM-E.                                      716932.37:     Easting
 CORE.FT                                          -9.2:     Core/Log Offset
#
~Curve Information Block
#MNEM.UNIT       API CODE      Curve Description
#----------    -------------   -------------------
 DEPT.FT                   :   Depth in Feet
 ILD .OHMM     05 120 46 01:   Deep Induction Standard Processed Resistivity
 SP  .MV       01 010 01 01:   Spontaneous Potential
 DPHI.DEC      42 890 03 01:   DPHI
 NPHI.DEC      42 890 03 01:   Neutron Porosity
 CALI.IN       70 280 01 01:   Caliper
 GR  .GAPI     35 310 01 01:   Gamma Ray
 RHOB.G/C3     42 350 01 01:   Bulk Density
 PEF .B/E                  :   Photo-Electric Factor
 DT4P.US/F                 :   
#
~Parameter Information Block
#MNEM.UNIT            Value               Description
#----------    --------------------    -------------------
 DATE.                  22-02-1994:    Date As Month-Day-Year
 RUN .                         ONE:    Run Number
 PDAT.                         UNK:    Permanent Datum
 EPD .FT                 6799.0000:    Elevation Of Perm. Datum
 LMF .                          KB:    Log Measured From
 FAPD.FT                   14.0000:    Feet Above Perm. Datum
 DMF .                          KB:    Drilling Measured From
 EKB .FT                 6813.0000:    Elevation Of Kelly Bushing
 EDF .FT                 6812.0000:    Elevation Of Derrick Floor
 EGL .FT                 6799.0000:    Elevation Of Ground Level
 TD  .FT                10600.0000:    Total Depth
 DD  .FT                10625.0000:    Depth Driller
 DL  .FT                10623.0000:    Depth Logger
 BLI .FT                 1061.0000:    Bottom Log Interval
 CSIZ.IN                     9.625:    Casing Size
 CBD1.                        1702:    Casing Bottom (Driller) 1
 CBL1.                        1700:    Casing Bottom (Logger) 1
 BS  .IN                     7.875:    Bit Size
 DFV .S                    45.0000:    Drilling Fluid Viscosity
 DFD .LB/G                 10.5000:    Drilling Fluid Density
 DFL .ML                    7.2000:    Drilling Fluid Loss
 DFPH.                      9.5000:    Drilling Fluid Ph
 MSS .                    MUD TANK:    Mud Sample Source
 RMS .OHMM                  4.6200:    Resistivity Of Mud Sample
 MST .DEGF                 50.0000:    Mud Sample Temperature
 RMF .OHMM                  3.0700:    Mud Filtrate Resistivity
 MFST.DEGF                 50.0000:    Mud Filtrate Sample Temperature
 RMC .OHMM                  7.1400:    Mud Cake Resistivity
 MCST.DEGF                 50.0000:    Mud Cake Sample Temperature
 RMB .OHMM                  1.0990:    Mud Resistivity At Bht
 BHT .DEGF                212.0000:    Bottom Hole Temperature
 MRT .DEGF                212.0000:    Maximum Recorded Temperature
 LUN .                        8415:    Logging Unit Number
 LUL .                      CASPER:    Logging Unit Location
 ENGI.               CHRIS PRESMYK:    Engineer'S Name
 WITN.                STEVE HEFNER:    Witness' Name
 DGBY.                         R2V:    
 WSTA.                         LOC:    
#
~Other Information Block
<DescLogPlotStart>   NEURALOG PLOT DEFINITION
PLOTDEFVERSION: 3
LASFILE: C:\nds\projects\mf-nov-13\las\3723301A.las
DEPTHSCALE: 240.000000
RESOLUTION: 200
DEPTHLABELFREQ: 100.000000
HEAVYGRIDFREQ: 100.000000
MEDIUMGRIDFREQ: 50.000000
LIGHTGRIDFREQ: 10.000000
#
#   TRACK 1
#
STARTTRACK: 
 LEFTX: 0.500000 inch
 RIGHTX: 3.000000 inch
 SCALETYPE: Log
 NUMCYCLES: 4
 STARTCYCLE: 2
CURVE: ILD   0.200000   2000.000000 (0,0,255)      Solid             2     N   
ENDTRACK: 
#
#   TRACK 2
#
STARTTRACK: 
 LEFTX: 3.500000 inch
 RIGHTX: 6.000000 inch
 SCALETYPE: Linear
 NUMCHARTDIVISIONS: 10
CURVE: SP    -80.000000 20.000000  (0,131,131)    Solid             2     Y    
BACKUP: -180.000000 -80.000000 (0,131,131)    Solid             2    
ENDTRACK: 
#
#   TRACK 3
#
STARTTRACK: 
 LEFTX: 6.000000 inch
 RIGHTX: 11.000000 inch
 SCALETYPE: Linear
 NUMCHARTDIVISIONS: 10
CURVE: DPHI  0.300000   -0.100000  (255,0,255)    Solid             2     N    
CURVE: NPHI  0.300000   -0.100000  (255,0,0)      Dot               2     Y    
BACKUP: 0.700000   0.300000   (255,0,0)      Dot               2    
ENDTRACK: 
#
#   TRACK 4
#
STARTTRACK: 
 LEFTX: 11.000000 inch
 RIGHTX: 13.500000 inch
 SCALETYPE: Linear
 NUMCHARTDIVISIONS: 10
CURVE: CALI  6.000000   16.000000  (255,131,0)    Solid             2     N    
CURVE: GR    0.000000   150.000000 (255,255,0)    Dot               2     Y    
BACKUP: 150.000000 300.000000 (255,255,0)    Dot               2    
ENDTRACK: 
#
#   TRACK 5
#
STARTTRACK: 
 LEFTX: 13.500000 inch
 RIGHTX: 18.500000 inch
 SCALETYPE: Linear
 NUMCHARTDIVISIONS: 10
CURVE: RHOB  2.000000   3.000000   (0,0,255)      Solid             2     Y    
BACKUP: 1.000000   2.000000   (0,0,255)      Solid             2    
CURVE: PEF   0.000000   10.000000  (0,131,131)    Dot               2     N    
ENDTRACK: 
#
#   TRACK 6
#
STARTTRACK: 
 LEFTX: 13.500000 inch
 RIGHTX: 18.500000 inch
 SCALETYPE: Linear
 NUMCHARTDIVISIONS: 10
CURVE: DT4P  240.000000 40.000000  (255,0,255)    Solid             2     N    
ENDTRACK: 
<DescLogPlotEnd>
~A DEPTH     ILD              SP               DPHI             NPHI             CALI             GR               RHOB             PEF              DT4P            
# ...
   10597.400 8.33936753       18.48786773      -0.00571934      0.13731194       7.72265475       127.77217742     2.66418703       3.08175107       68.47082495     
   10597.500 8.33198166       18.46500038      -0.00641926      0.13731194       7.72274532       127.77217742     2.66522105       3.06688825       68.47082495     
   10597.600 8.33198166       18.44208809      -0.00711918      0.13731194       7.72286176       127.77217742     2.66645993       3.05236226       68.47082495     
   10597.700 8.33198166       18.41927741      -0.00781909      0.13731194       7.72309732       127.77217742     2.66770003       3.03632109       68.47082495     
   10597.800 8.33198166       18.39648835      -0.00832497      0.13731194       7.72328410       127.77217742     2.66871550       3.01993850       68.47082495     
   10597.900 8.33198166       18.37365494      -0.00947952      0.13731194       7.72325203       127.77217742     2.66967256       3.00504913       68.47082495     
   10598.000 8.33156816       18.35081233      -0.01040712      0.13731194       7.72331083       127.77217742     2.67087814       2.99067572       68.47082495     
   10598.100 8.33280883       18.32799539      -0.01126427      0.13731194       7.72381277       127.77217742     2.67231415       2.97411264       68.47082495     
   10598.200 8.33146381       18.30518433      -0.01220838      0.13731194       7.72413684       127.77217742     2.67370199       2.95567603       68.47082495     
   10598.300 8.33295464       18.28237327      -0.01308583      0.13731194       7.72301081       127.77217742     2.67493334       2.94018064       68.47082495     
   10598.400 8.33142012       18.25956221      -0.01400548      0.13731194       7.72012270       127.77217742     2.67615185       2.93155075       68.47082495     
   10598.500 8.30648206       18.23675115      -0.01490867      0.13731194       7.71659521       127.77217742     2.67744077       2.92729312       68.47082495     
   10598.600 8.28260753       18.21390130      -0.01580221      0.13731194       7.71351333       127.77217742     2.67873964       2.92139414       68.47082495     
   10598.700 8.26154262       18.19105146      -0.01673036      0.13731194       7.71083336       127.77217742     2.68000805       2.91252482       68.47082495     
   10598.800 8.23811889       18.16826861      -0.01760169      0.13731194       7.70806447       127.77217742     2.68127904       2.90579877       68.47082495     
   10598.900 8.21677236       18.14548577      -0.01854795      0.13731194       7.70512017       127.77217742     2.68254630       2.90603683       68.47082495     
   10599.000 8.19390398       18.12254940      -0.01940626      0.13731194       7.70213643       127.77217742     2.68379874       2.91214297       68.47082495     
   10599.100 8.17224916       18.09961304      -0.01999234      0.13731194       7.69919868       127.77217742     2.68509108       2.91954039       68.47082495     
   10599.200 8.14987624       18.07699817      -0.02079958      0.13731194       7.69643154       127.77217742     2.68641404       2.92544724       68.47082495     
   10599.300 8.12801665       18.05438330      -0.02145279      0.13731194       7.69374265       127.77217742     2.68764799       2.93022681       68.47082495     
   10599.400 8.10601464       18.03115744      -0.02202170      0.13731194       7.69065666       127.77217742     2.68882123       2.93537578       68.47082495     
   10599.500 8.08427523       18.00793158      -0.02266168      0.13731194       7.68714542       127.77217742     2.69017620       2.94171741       68.47082495     
   10599.600 8.06247424       17.98582571      -0.02324554      0.13731194       7.68426624       127.77217742     2.69173299       2.94860007       68.47082495     
   10599.700 8.04073204       17.96371985      -0.02358683      0.13731194       7.68308335       127.77217742     2.69300608       2.95401554       68.47082495     
   10599.800 8.02882008       17.93940272      -0.02357655      0.13731194       7.68326862       127.77217742     2.69352433       2.95630030       68.47082495     
   10599.900 8.02882008       17.91508559      -0.02357964      0.13731194       7.68360082       127.77217742     2.69344034       2.95604432       68.47082495     
   10600.000 8.02882008       17.89796808      -0.02357918      0.13731194       7.68351178       127.77217742     2.69329470       2.95543216       68.47082495     
