~Version ---------------------------------------------------
VERS.   2.0 : CWLS log ASCII Standard -VERSION 2.0
WRAP.    NO : One line per depth step
DLM . SPACE : Column Data Section Delimiter
~Well ------------------------------------------------------
STRT.FT       8390.0 : START DEPTH
STOP.FT       9710.0 : STOP DEPTH
STEP.FT          0.5 : STEP
NULL.        -999.25 : NULL VALUE
COMP.  HRM Resources : COMPANY
WELL.  23-12 Hay Dam : WELL
FLD .        Hay Dam : FIELD
LOC . 23N R97W Sec12 : LOCATION
CNTY.     Sweetwater : COUNTY
STAT.             WY : STATE
CTRY.            USA : COUNTRY
SRVC.            SLB : SERVICE COMPANY
DATE.     11/14/2019 : DATE
API .     4903723253 : API NUMBER
UWI .       3723253A : UWI NUMBER
TVD .             NO : TVD flag
WSTA.            LOC : Well status
USGS.           E974 : USGS Number
LATI.DEG     41.97803: LATITUDE
LONG.DEG    -108.3282: LONGITUDE
UTM-N.     4650790.25: Northing
UTM-E.       721356.8: Easting
CORE.             -13: Core/Log Offset
~Curve Information -----------------------------------------
DEPT.FT               : Depth in Feet
GR  .API 35 310 01 01 : Gamma Ray
CALI.IN  70 280 01 01 : Caliper
PEF .BARN             : Photoelectric Effect
NPHI.V/V 42 890 03 01 : Neutron Porosity
DPHI.V/V 45 890 01 01 : Density Porosity
SP  .                 : 
ILD .                 : 
~Params ----------------------------------------------------
~Other -----------------------------------------------------
~ASCII -----------------------------------------------------
# ...
 8660.00000  104.92000    9.21800    2.88500    0.13800    0.03400   -7.31900   29.01400
 8660.50000  106.04100    9.22200    2.88400    0.14000    0.03100   -7.31900   29.24900
 8661.00000  105.09700    9.22600    2.92600    0.14400    0.03100   -7.28700   29.44800
 8661.50000  103.89500    9.22900    2.96700    0.14800    0.03100   -7.25000   29.64800
 8662.00000  101.33100    9.23300    3.00800    0.14900    0.03300   -7.21300   29.84900
 8662.50000   98.94000    9.23700    3.03100    0.14400    0.03400   -7.17600   30.05200
 8663.00000   98.34200    9.24000    3.03100    0.14000    0.03600   -7.14000   30.25700
 8663.50000  101.35700    9.24400    3.03200    0.14000    0.03900   -7.15900   30.46300
 8664.00000  105.74700    9.24800    3.00800    0.14100    0.03800   -7.27100   30.74500
 8664.50000  107.20000    9.25600    2.99200    0.14300    0.03200   -7.38200   30.71800
 8665.00000  104.86600    9.26900    3.02900    0.14600    0.02500   -7.49300   30.67500
 8665.50000  103.17500    9.28200    3.09900    0.14900    0.02500   -7.60400   30.63200
 8666.00000  104.03000    9.28100    3.11200    0.15100    0.02600   -7.71700   30.59000
 8666.50000  106.64800    9.25800    3.04800    0.15000    0.02500   -7.76300   30.54700
 8667.00000  109.26200    9.24600    2.94600    0.14900    0.02000   -7.80500   30.50400
 8667.50000  109.43900    9.24100    2.88800    0.14800    0.01500   -7.84800   30.46200
 8668.00000  106.64900    9.23600    2.95700    0.14600    0.01000   -7.89100   30.82900
 8668.50000  103.94500    9.23100    3.02400    0.14400    0.01000   -7.92500   31.19700
 8669.00000  101.34200    9.22900    3.07200    0.14200    0.01900   -7.92800   31.56900
 8669.50000   99.85600    9.22700    3.06000    0.14000    0.02700   -7.87600   31.94600
 8670.00000   98.27500    9.22600    3.04800    0.13800    0.02700   -7.79300   32.43700
 8670.50000   97.65600    9.22500    3.03600    0.13600    0.02700   -7.99600   33.16300
 8671.00000   99.62600    9.22400    3.05800    0.13300    0.02400   -8.20400   33.90600
 8671.50000  101.69400    9.22300    3.10100    0.12600    0.01700   -8.41100   34.35300
 8672.00000  101.01700    9.22200    3.12700    0.11800    0.01000   -8.52300   34.15400
 8672.50000  101.50100    9.22100    3.09900    0.12200    0.00500   -8.37100   33.83800
 8673.00000  106.05400    9.21900    3.02800    0.12900    0.00800   -8.21800   33.52600
 8673.50000  111.67200    9.21800    2.95700    0.13600    0.00900   -8.06500   33.21600
 8674.00000  116.94100    9.21700    2.91000    0.14000    0.00700   -7.91300   32.90900
 8674.50000  117.74700    9.21600    2.91000    0.14100    0.00400   -7.76100   32.60500
 8675.00000  115.77100    9.21500    2.95700    0.14100    0.00300   -7.61000   32.30400
 8675.50000  113.28000    9.21400    3.03600    0.14100    0.00300   -7.52500   32.00500
 8676.00000  113.19800    9.21300    3.11100    0.14000    0.00500   -7.54000   31.61000
 8676.50000  114.78100    9.21100    3.12400    0.14000    0.00600   -7.55400   31.77600
 8677.00000  114.40000    9.21000    3.13400    0.14000    0.00600   -7.56900   32.01400
 8677.50000  112.53700    9.20900    3.14500    0.14100    0.00600   -7.58300   32.24000
 8678.00000  111.66600    9.20900    3.15600    0.14100    0.00800   -7.59700   32.46700
 8678.50000  113.02100    9.20900    3.16800    0.14000    0.00900   -7.61100   32.69700
 8679.00000  114.35500    9.20900    3.15700    0.13900    0.00800   -7.62500   32.92600
 8679.50000  114.44500    9.20900    3.12900    0.13700    0.00700   -7.63900   33.11400
 8680.00000  112.78700    9.20900    3.10200    0.13600    0.00600   -7.65400   32.52400
 8680.50000  111.29000    9.20900    3.09600    0.13600    0.00400   -7.66800   31.84800
 8681.00000  111.12300    9.20900    3.10300    0.14000    0.00500   -7.68200   31.17700
 8681.50000  115.02400    9.20500    3.11000    0.14400    0.00900   -7.69700   30.73800
 8682.00000  119.89400    9.19700    3.11200    0.14500    0.01200   -7.71100   30.89400
 8682.50000  124.23200    9.18900    3.11200    0.13900    0.01200   -7.68100   31.02800
 8683.00000  120.77100    9.18800    3.13800    0.13300    0.01000   -7.43400   31.16000
 8683.50000  117.07700    9.18700    3.16700    0.12700    0.00800   -7.18900   31.30600
 8684.00000  113.42600    9.18700    3.19500    0.12600    0.00600   -6.94300   31.60200
 8684.50000  110.69400    9.18600    3.21200    0.12800    0.00600   -6.99600   32.44800
 8685.00000  110.86800    9.18500    3.20900    0.12900    0.00600   -7.09100   33.25800
 8685.50000  110.40900    9.18400    3.20600    0.13000    0.00500   -7.18500   34.08700
 8686.00000  108.26600    9.18300    3.20300    0.13100    0.00400   -7.28000   34.93500
 8686.50000  106.13400    9.18300    3.20000    0.13100    0.00400   -7.21900   35.80500
 8687.00000  105.68400    9.18200    3.19700    0.13100    0.00600   -7.21000   35.97900
 8687.50000  105.88300    9.18100    3.19500    0.13000    0.00700   -7.44200   35.82900
 8688.00000  108.49600    9.18000    3.19500    0.13000    0.00500   -7.67300   35.72300
 8688.50000  113.89300    9.17900    3.21600    0.13300    0.00400   -7.91200   35.61700
 8689.00000  119.93500    9.17800    3.24400    0.13600    0.00200   -8.01400   35.51100
 8689.50000  122.13800    9.17800    3.30400    0.13500    0.00200   -8.11100   35.40600
 8690.00000  120.63100    9.17700    3.31400    0.13400    0.00600   -8.21000   35.32000
 8690.50000  117.47700    9.17600    3.27500    0.13300    0.01200   -8.31400   34.83400
 8691.00000  115.55600    9.17500    3.22000    0.13400    0.01200   -8.18800   34.34500
 8691.50000  116.22400    9.17400    3.19300    0.13500    0.01100   -8.01300   33.86300
 8692.00000  118.33700    9.17400    3.21100    0.13600    0.00800   -7.77700   33.38800
 8692.50000  121.76600    9.17300    3.26800    0.13700    0.00700   -7.46600   32.91900
 8693.00000  125.20600    9.17200    3.31400    0.14500    0.00800   -7.15700   32.45800
 8693.50000  128.11100    9.17100    3.30800    0.15100    0.00800   -6.84500   32.00200
 8694.00000  126.32600    9.17000    3.29700    0.15600    0.00700   -6.71600   31.55300
 8694.50000  125.06700    9.16900    3.31000    0.15600    0.00500   -6.71300   31.03200
 8695.00000  129.50000    9.17200    3.39200    0.15600    0.00300   -6.71300   31.11800
 8695.50000  139.16500    9.17700    3.47500    0.15600    0.00100   -6.71300   31.22300
 8696.00000  143.91800    9.18300    3.47000    0.15600   -0.00100   -6.71700   31.32900
 8696.50000  144.21700    9.18900    3.38800    0.15600   -0.00700   -6.77600   31.43500
 8697.00000  143.81200    9.19500    3.30700    0.15300   -0.01300   -6.83400   31.54200
 8697.50000  143.38800    9.20000    3.26900    0.14900   -0.01700   -6.89200   31.61000
 8698.00000  142.76500    9.20600    3.28700    0.15000   -0.01900   -6.84100   31.61000
 8698.50000  141.20400    9.21200    3.35600    0.15200   -0.01800   -6.71500   31.01400
 8699.00000  139.70500    9.21700    3.26700    0.15600   -0.01500   -6.58800   30.42700
 8699.50000  137.93200    9.22300    3.13400    0.15700   -0.01200   -6.46100   29.85100
 8700.00000  130.94400    9.22900    3.00100    0.14900   -0.01000   -6.33400   29.28500
 8700.50000  124.08700    9.23400    2.90800    0.13800   -0.01000   -6.20700   28.73100
 8701.00000  117.25300    9.24000    2.97000    0.13000   -0.01300   -6.08000   28.18700
 8701.50000  111.91800    9.24600    3.08600    0.12400   -0.01700   -5.95300   27.65300
 8702.00000  107.53600    9.25200    3.18800    0.12400   -0.01800   -5.88100   27.13000
 8702.50000  105.21100    9.25700    3.13200    0.12400   -0.01600   -5.84000   26.76300
 8703.00000  105.25100    9.26300    3.07300    0.12400   -0.01000   -5.79900   26.84200
 8703.50000  107.16300    9.26900    3.01500    0.12300   -0.00300   -5.75800   26.90400
 8704.00000  109.25000    9.27400    2.99000    0.12300   -0.00400   -5.71700   26.96500
 8704.50000  112.28000    9.28000    3.02500    0.12500   -0.00800   -5.67600   27.02700
