~Version ---------------------------------------------------
VERS. 2.0 : CWLS log ASCII Standard -VERSION 2.0
WRAP.  NO : One Line Per Depth Step
~Well ------------------------------------------------------
STRT .FT              8400.0 : START DEPTH
STOP .FT              9700.0 : STOP DEPTH
STEP .FT  0.1000000000003638 : STEP
NULL .               -999.25 : NULL VALUE
COMP .  PRESIDIO OIL COMPANY : COMPANY
WELL .     J.T. FEDERAL NO.5 : WELL
FLD  .   SOUTH HAY RESOURCES : FIELD
LOC  . 1266' FNL & 1684' FEL : LOCATION
CNTY .            SWEETWATER : COUNTY
STAT .               WYOMING : STATE
CTRY .                   USA : COUNTRY
SRVC .                       : SERVICE COMPANY
DATE .            30/06/1993 : DATE
API  .            4903723152 : API NUMBER
UWI  .               3723152 : UWI NUMBER
TVD  .                    NO : TVD flag
WSTA .                   LOC : Well status
USGS .                  S179 : USGS Number
LATI .DEG           41.97079 : LATITUDE
LONG .DEG           -108.322 : LONGITUDE
UTM-N.            4650002.36 : Northing
UTM-E.             721895.66 : Easting
CORE .                   N/A : Core/Log Offset
~Curve Information -----------------------------------------
DEPT    .FT                : Depth in Feet
GR      .GAPI 35 310 01 01 : Gamma Ray
SP      .MV   01 010 01 01 : Spontaneous Potential
CALI    .IN   70 280 01 01 : Caliper
ILD     .OHMM 05 120 46 01 : Deep Induction Standard Processed Resistivity
DPHI    .V/V  45 890 01 01 : Density Porosity
NPHI    .V/V  42 890 03 01 : Neutron Porosity
PE      .B/E               : PE
DT      .US/F 60 520 08 01 : Delta-T
ACOUSTIC.DEC               : ACOUSTIC
~Params ----------------------------------------------------
DATE. 30-06-1993 : Date As Month-Day-Year
RUN .        ONE : Run Number
PDAT.        UNK : Permanent Datum
EPD .FT   6607.0 : Elevation Of Perm. Datum
LMF .         KB : Log Measured From
FAPD.FT     16.0 : Feet Above Perm. Datum
DMF .         KB : Drilling Measured From
EKB .FT   6623.0 : Elevation Of Kelly Bushing
EDF .FT   6622.0 : Elevation Of Derrick Floor
EGL .FT   6607.0 : Elevation Of Ground Level
TD  .FT   9700.0 : Total Depth
DD  .FT   9780.0 : Depth Driller
DL  .FT   9724.0 : Depth Logger
BLI .FT   9720.0 : Bottom Log Interval
CSIZ.IN  9.625IN : Casing Size
CBD1.       1698 : Casing Bottom (Driller) 1
CBL1.       1697 : Casing Bottom (Logger) 1
BS  .IN  7.875IN : Bit Size
DFT .        GEL : Drilling Fluid Type
DFV .S      55.0 : Drilling Fluid Viscosity
DFD .LB/G   10.2 : Drilling Fluid Density
DFL .ML      7.6 : Drilling Fluid Loss
DFPH.        9.5 : Drilling Fluid Ph
MSS .   FLOWLINE : Mud Sample Source
RMS .OHMM    1.5 : Resistivity Of Mud Sample
MST .DEGF   74.0 : Mud Sample Temperature
RMF .OHMM    1.8 : Mud Filtrate Resistivity
MFST.DEGF   66.0 : Mud Filtrate Sample Temperature
RMC .OHMM   2.44 : Mud Cake Resistivity
MCST.DEGF   69.0 : Mud Cake Sample Temperature
RMB .OHMM    0.6 : Mud Resistivity At Bht
BHT .DEGF  197.0 : Bottom Hole Temperature
MRT .DEGF  197.0 : Maximum Recorded Temperature
LUN .      52546 : Logging Unit Number
LUL .      VERNL : Logging Unit Location
ENGI.    K EVATT : Engineer'S Name
WITN.    HEFFNER : Witness' Name
DGBY.        R2V : 
WSTA.        LOC : 
~Other -----------------------------------------------------
<DescLogPlotStart>   NEURALOG PLOT DEFINITION
PLOTDEFVERSION: 3
LASFILE: C:\nds\projects\mf-nov-13\las\3723152A.las
DEPTHSCALE: 240.000000
RESOLUTION: 200
DEPTHLABELFREQ: 100.000000
HEAVYGRIDFREQ: 100.000000
MEDIUMGRIDFREQ: 50.000000
LIGHTGRIDFREQ: 10.000000
#
#   TRACK 1
#
STARTTRACK:
LEFTX: 0.500000 inch
RIGHTX: 3.000000 inch
SCALETYPE: Linear
NUMCHARTDIVISIONS: 10
CURVE: GR    0.000000   150.000000 (0,0,255)      Solid             2     N
CURVE: SP    -100.000000 0.000000   (0,131,131)    Dot               2     N
ENDTRACK:
#
#   TRACK 2
#
STARTTRACK:
LEFTX: 0.500000 inch
RIGHTX: 3.000000 inch
SCALETYPE: Linear
NUMCHARTDIVISIONS: 10
CURVE: CALI  6.000000   16.000000  (255,0,255)    Solid             2     Y
BACKUP: -4.000000  6.000000   (255,0,255)    Solid             2
ENDTRACK:
#
#   TRACK 3
#
STARTTRACK:
LEFTX: 3.500000 inch
RIGHTX: 8.500000 inch
SCALETYPE: Log
NUMCYCLES: 4
STARTCYCLE: 2
CURVE: ILD   0.200000   2000.000000 (255,0,0)      Solid             2     N
ENDTRACK:
#
#   TRACK 4
#
STARTTRACK:
LEFTX: 3.500000 inch
RIGHTX: 8.500000 inch
SCALETYPE: Linear
NUMCHARTDIVISIONS: 10
CURVE: DPHI  0.300000   -0.100000  (255,131,0)    Solid             2     Y
BACKUP: 0.700000   0.300000   (255,131,0)    Solid             2
CURVE: NPHI  0.300000   -0.100000  (255,255,0)    Dot               2     Y
BACKUP: 0.700000   0.300000   (255,255,0)    Dot               2
ENDTRACK:
#
#   TRACK 5
#
STARTTRACK:
LEFTX: 3.500000 inch
RIGHTX: 6.000000 inch
SCALETYPE: Linear
NUMCHARTDIVISIONS: 10
CURVE: PE    0.000000   10.000000  (0,0,255)      Solid             2     N
ENDTRACK:
#
#   TRACK 6
#
STARTTRACK:
LEFTX: 8.500000 inch
RIGHTX: 13.500000 inch
SCALETYPE: Linear
NUMCHARTDIVISIONS: 10
CURVE: DT    140.000000 40.000000  (0,131,131)    Solid             2     Y
BACKUP: 40.000000  -60.000000 (0,131,131)    Solid             2
CURVE: ACOUSTIC 0.300000   -0.100000  (255,0,255)    Dot               2     Y
BACKUP: 0.700000   0.300000   (255,0,255)    Dot               2
BACKUP: -0.100000  -0.500000  (255,0,255)    Dot               2
ENDTRACK:
<DescLogPlotEnd>
~ASCII -----------------------------------------------------
 8400.00000  114.55375  -47.97160   10.39796   23.34012   -0.03760    0.14085    3.50610   67.83976    0.11724
 8400.10000  114.55375  -47.97160   10.39796   23.34012   -0.03739    0.14085    3.50610   67.83976    0.11724
 8400.20000  114.55375  -48.17444   10.39796   23.34012   -0.03705    0.14085    3.50610   67.83976    0.11724
 8400.30000  114.55375  -48.20431   10.39796   22.06546   -0.03670    0.14085    3.50610   67.83976    0.11724
 8400.40000  114.55375  -48.26019   10.39796   22.06546   -0.03635    0.14085    3.50610   67.83976    0.11724
 8400.50000   98.73225  -48.31606   10.39796   22.12362   -0.03598    0.14085    3.51109   67.83976    0.11724
 8400.60000   98.73225  -48.37193   10.35714   22.16248   -0.03608    0.14085    3.51725   67.83976    0.11724
 8400.70000  114.55375  -48.42781   10.39276   22.20141   -0.03618    0.14016    3.52340   67.79006    0.11724
 8400.80000  114.12945  -48.48368   10.38999   22.24041   -0.03629    0.13947    3.52956   67.73631    0.11724
 8400.90000  113.40310  -48.53955   10.38721   22.27948   -0.03640    0.13877    3.53571   67.68256    0.11724
 8401.00000  112.67675  -48.59543   10.38444   22.31861   -0.03651    0.13808    3.54187   67.62880    0.11724
 8401.10000  111.95040  -48.65130   10.38166   22.35782   -0.03662    0.13760    3.54675   67.57505    0.11724
 8401.20000  111.22405  -48.70717   10.37888   22.39709   -0.03673    0.13642    3.54489   67.53550    0.11679
 8401.30000  110.49769  -48.78296   10.37611   22.43643   -0.03679    0.13552    3.54335   67.41469    0.11641
 8401.40000  111.13112  -48.85155   10.39483   22.61113   -0.03700    0.13576    3.54941   67.54131    0.11663
 8401.50000  109.55025  -48.79720   10.37332   22.47584   -0.03763    0.13465    3.54153   67.31913    0.11605
 8401.60000  108.82135  -48.80553   10.36996   22.51532   -0.03821    0.13371    3.54028   67.22357    0.11566
 8401.70000  108.42971  -48.81278   10.36780   22.55487   -0.03879    0.13285    3.53894   67.12801    0.11529
 8401.80000  107.70427  -48.82635   10.36533   22.59449   -0.03937    0.13192    3.53726   67.03245    0.11491
 8401.90000  106.82247  -48.84078   10.36211   22.63418   -0.03995    0.13104    3.53557   66.93689    0.11440
 8402.00000  106.09182  -48.85182   10.35918   22.67394   -0.04053    0.13014    3.53406   66.84133    0.11357
 8402.10000  105.43486  -48.86254   10.35744   22.71377   -0.04111    0.12923    3.53267   66.74577    0.11225
 8402.20000  104.71272  -48.87509   10.35696   22.75366   -0.04167    0.12835    3.53117   66.65021    0.11099
 8402.30000  103.96602  -48.88779   10.35708   22.79363   -0.04197    0.12743    3.52940   66.55465    0.10965
 8402.40000  103.22841  -48.89954   10.35721   22.83367   -0.04226    0.12657    3.52768   66.45909    0.10834
 8402.50000  102.48535  -48.91122   10.35713   22.87378   -0.04248    0.12562    3.52689   66.36353    0.10799
 8402.60000  101.77715  -48.92335   10.35707   22.91396   -0.04235    0.12478    3.52757   66.26797    0.10772
 8402.70000  101.08097  -48.93552   10.35712   22.95421   -0.04224    0.12414    3.52919   66.17241    0.10736
 8402.80000  100.31650  -48.94748   10.35715   22.99453   -0.04213    0.12347    3.53082   66.07685    0.10708
 8402.90000   99.51066  -48.95942   10.35713   23.03492   -0.04202    0.12285    3.53216   65.98129    0.10674
 8403.00000   98.83551  -48.97148   10.35711   23.07538   -0.04191    0.12215    3.53350   65.91278    0.10644
 8403.10000   98.38066  -48.98353   10.35713   23.11592   -0.04180    0.12202    3.53500   65.84381    0.10613
 8403.20000   98.01525  -48.99559   10.35714   23.15652   -0.04167    0.12180    3.53649   65.79006    0.10581
 8403.30000   97.61645  -49.00764   10.35714   23.19720   -0.04123    0.12158    3.53790   65.73631    0.10550
 8403.40000   97.29524  -49.01975   10.35713   23.23794   -0.04065    0.12137    3.53931   65.68256    0.10518
 8403.50000   97.22241  -49.03187   10.35714   23.27876   -0.04007    0.12115    3.54077   65.62880    0.10487
 8403.60000   97.34687  -49.04387   10.35714   23.34012   -0.03949    0.12093    3.54223   65.57505    0.10455
 8403.70000   97.46969  -49.05588   10.35714   23.34012   -0.03891    0.12112    3.54364   65.50710    0.10423
 8403.80000   97.52680  -49.06813   10.35714   23.26742   -0.03833    0.12131    3.54509   65.53347    0.10385
 8403.90000   97.60092  -49.08040   10.35714   23.21907   -0.03775    0.12150    3.54677   65.56930    0.10399
 8404.00000   97.70955  -49.09213   10.35714   23.17082   -0.03717    0.12168    3.54879   65.60852    0.10415
 8404.10000   97.78222  -49.10384   10.35714   23.12268   -0.03659    0.12187    3.55113   65.64835    0.10432
 8404.20000   97.83494  -49.11658   10.35714   23.07463   -0.03601    0.12206    3.55363   65.69233    0.10448
 8404.30000   97.96327  -49.12934   10.35714   23.02669   -0.03516    0.12215    3.55605   65.73631    0.10465
 8404.40000   98.10581  -49.14023   10.35714   22.97884   -0.03506    0.12243    3.55831   65.78029    0.10481
 8404.50000   97.97573  -49.15107   10.35714   22.90726   -0.03487    0.12262    3.56068   65.82427    0.10498
 8404.60000   97.34629  -49.16560   10.35714   22.90726   -0.03468    0.12280    3.56333   65.86757    0.10514
 8404.70000   96.32976  -49.18026   10.35714   22.71709   -0.03449    0.12299    3.56567   65.91147    0.10531
 8404.80000   95.29685  -49.18303   10.35714   22.59119   -0.03430    0.12318    3.56673   65.95567    0.10547
 8404.90000   94.58600  -49.16666   10.35714   22.46598   -0.03411    0.12337    3.56628   65.99926    0.10564
 8405.00000   94.34278  -49.13803   10.35714   22.34147   -0.03392    0.12389    3.56515   66.04358    0.10588
 8405.10000   94.53895  -49.10921   10.35714   22.21765   -0.03373    0.12444    3.56420   66.08727    0.10622
 8405.20000   95.02328  -49.08408   10.35714   22.09452   -0.03354    0.12500    3.56350   66.13117    0.10687
 8405.30000   95.60641  -49.05901   10.35714   21.97207   -0.03335    0.12555    3.56272   66.17574    0.10751
 8405.40000   96.18864  -49.03208   10.35714   21.85030   -0.03316    0.12611    3.56182   66.21808    0.10816
 8405.50000   96.77881  -49.00511   10.35714   21.72920   -0.03297    0.12666    3.56096   66.26464    0.10880
 8405.60000   97.36934  -48.97916   10.35714   21.60877   -0.03278    0.12721    3.56017   66.30443    0.10945
 8405.70000   97.90636  -48.95323   10.35714   21.48901   -0.03259    0.12777    3.55935   66.35392    0.11009
 8405.80000   98.43646  -48.92676   10.35714   21.36992   -0.03232    0.12832    3.55850   66.39063    0.11074
 8405.90000   99.14271  -48.90028   10.35714   21.25148   -0.03243    0.12907    3.55766   66.44302    0.11138
 8406.00000  100.13106  -48.87406   10.35714   21.13370   -0.03262    0.13015    3.55684   66.47733    0.11203
 8406.10000  101.28223  -48.84784   10.35714   21.01658   -0.03282    0.13181    3.55601   66.52130    0.11263
 8406.20000  102.40746  -48.82152   10.35714   20.90010   -0.03301    0.13347    3.55517   66.72873    0.11335
 8406.30000  103.46742  -48.79518   10.35714   20.78427   -0.03320    0.13513    3.55432   66.90896    0.11392
 8406.40000  104.53494  -48.76892   10.35714   20.66908   -0.03340    0.13679    3.55351   67.08919    0.11443
 8406.50000  105.63607  -48.74265   10.35714   20.55453   -0.03359    0.13846    3.55270   67.26942    0.11582
 8406.60000  106.73231  -48.71639   10.35714   20.44061   -0.03378    0.14012    3.55184   67.44965    0.11701
 8406.70000  107.80745  -48.69012   10.35714   20.32733   -0.03394    0.14178    3.55096   67.62988    0.11805
 8406.80000  108.88764  -48.66386   10.35714   20.21467   -0.03367    0.14344    3.55019   67.81011    0.11922
 8406.90000  109.98159  -48.63759   10.35714   20.10264   -0.03343    0.14510    3.54944   67.99034    0.12029
 8407.00000  111.06898  -48.61133   10.35713   19.99123   -0.03320    0.14614    3.54849   68.17056    0.12142
 8407.10000  112.14445  -48.58506   10.35713   19.88043   -0.03296    0.14733    3.54748   68.35079    0.12253
 8407.20000  113.23073  -48.55878   10.35714   19.77025   -0.03273    0.14820    3.54705   68.53102    0.12363
