~Version Information Block
 VERS.                2.00:     CWLS LOG ASCII STANDARD - VERSION 2.000000
 WRAP.                  NO:     One Line Per Depth Step
#
~Well Information Block
#MNEM.UNIT                     Data                         Information
#----------   ------------------------------------------   ----------------
 STRT.FT                                     8200.0000:     START DEPTH
 STOP.FT                                     9700.0000:     STOP DEPTH
 STEP.FT                                        0.1000:     STEP
 NULL.                                       -999.2500:     NULL VALUE
 COMP.                        PRESIDIO EXPLORATION INC:     COMPANY
 WELL.                                   HAY DAM 34-12:     WELL
 FLD .                                          HAYDAM:     FIELD
 LOC .                                   SEC12-23N-97W:     LOCATION
 CNTY.                                      SWEETWATER:     COUNTY
 STAT.                                         WYOMING:     STATE
 CTRY.                                             USA:     COUNTRY
 SRVC.                                    SCHLUMBERGER:     SERVICE COMPANY
 DATE.                                      26/07/1994:     DATE
 API .                                      4903723385:     API NUMBER
 UWI .                                         3723385:     UWI NUMBER
 TVD .                                              NO:     TVD flag
 WSTA.                                             LOC:     Well status
 USGS.                                            F041:     USGS Number
 LATI.DEG                                     41.97739:     LATITUDE
 LONG.DEG                                   -108.32133:     LONGITUDE
 UTM-N.                                        4650736:     Northing
 UTM-E.                                      721928.25:     Easting
 CORE.                                              -5:     Core/Log Offset
#
~Curve Information Block
#MNEM.UNIT       API CODE      Curve Description
#----------    -------------   -------------------
 DEPT.FT                   :   Depth in Feet
 ILD .OHMM     05 120 46 01:   Deep Induction Standard Processed Resistivity
 SP  .MV       01 010 01 01:   Spontaneous Potential
 RHOB.G/C3     42 350 01 01:   Bulk Density
 PEF .b/e                  :   Photo-Electric Factor
 GR  .GAPI     35 310 01 01:   Gamma Ray
 CALI.IN       70 280 01 01:   Caliper
 DPHI.V/V      45 890 01 01:   Density Porosity
 NPHI.V/V      42 890 03 01:   Neutron Porosity
 DTCO.US/F                 :   Delta-T Compressional
#
~Parameter Information Block
#MNEM.UNIT            Value               Description
#----------    --------------------    -------------------
 DATE.                  26-07-1994:    Date As Month-Day-Year
 RUN .                         ONE:    Run Number
 PDAT.                         UNK:    Permanent Datum
 EPD .FT                 6611.0000:    Elevation Of Perm. Datum
 LMF .                          KB:    Log Measured From
 FAPD.FT                   15.0000:    Feet Above Perm. Datum
 DMF .                          KB:    Drilling Measured From
 EKB .FT                 6627.0000:    Elevation Of Kelly Bushing
 EDF .FT                 6626.0000:    Elevation Of Derrick Floor
 EGL .FT                 6611.0000:    Elevation Of Ground Level
 TD  .FT                 9700.0000:    Total Depth
 DD  .FT                 9735.0000:    Depth Driller
 DL  .FT                 9729.0000:    Depth Logger
 BLI .FT                 9719.0000:    Bottom Log Interval
 TLI .FT                 1716.0000:    Top Log Interval
 CSIZ.IN                  9.625 IN:    Casing Size
 CBD1.                        1715:    Casing Bottom (Driller) 1
 CBL1.                        1716:    Casing Bottom (Logger) 1
 BS  .IN                   7.675IN:    Bit Size
 DFT .                    GEL-CHEM:    Drilling Fluid Type
 DFV .S                    45.0000:    Drilling Fluid Viscosity
 DFD .LB/G                 10.1000:    Drilling Fluid Density
 DFL .ML                    8.0000:    Drilling Fluid Loss
 DFPH.                     10.0000:    Drilling Fluid Ph
 MSS .                     MUDTANK:    Mud Sample Source
 RMS .OHMM                  1.4400:    Resistivity Of Mud Sample
 MST .DEGF                 85.0000:    Mud Sample Temperature
 RMF .OHMM                  1.1700:    Mud Filtrate Resistivity
 MFST.DEGF                 80.0000:    Mud Filtrate Sample Temperature
 RMC .OHMM                  1.3300:    Mud Cake Resistivity
 MCST.DEGF                 80.0000:    Mud Cake Sample Temperature
 RMB .OHMM                  0.7480:    Mud Resistivity At Bht
 BHT .DEGF                170.0000:    Bottom Hole Temperature
 MRT .DEGF                170.0000:    Maximum Recorded Temperature
 LUN .                        8415:    Logging Unit Number
 LUL .                      CASPER:    Logging Unit Location
 ENGI.                 CHRISTENSEN:    Engineer'S Name
 WITN.                       LYNON:    Witness' Name
 DGBY.                         R2V:    
 WSTA.                         LOC:    
#
~Other Information Block
<DescLogPlotStart>   NEURALOG PLOT DEFINITION
PLOTDEFVERSION: 3
LASFILE: C:\nds\projects\mf-nov-13\las\3723385A.las
DEPTHSCALE: 240.000000
RESOLUTION: 200
DEPTHLABELFREQ: 100.000000
HEAVYGRIDFREQ: 100.000000
MEDIUMGRIDFREQ: 50.000000
LIGHTGRIDFREQ: 10.000000
#
#   TRACK 1
#
STARTTRACK: 
 LEFTX: 0.500000 inch
 RIGHTX: 3.000000 inch
 SCALETYPE: Log
 NUMCYCLES: 4
 STARTCYCLE: 2
CURVE: ILD   0.200000   2000.000000 (0,0,255)      Solid             2     N   
ENDTRACK: 
#
#   TRACK 2
#
STARTTRACK: 
 LEFTX: 3.500000 inch
 RIGHTX: 6.000000 inch
 SCALETYPE: Linear
 NUMCHARTDIVISIONS: 10
CURVE: SP    -80.000000 20.000000  (0,131,131)    Solid             2     Y    
BACKUP: 20.000000  120.000000 (0,131,131)    Solid             2    
BACKUP: -180.000000 -80.000000 (0,131,131)    Solid             2    
ENDTRACK: 
#
#   TRACK 3
#
STARTTRACK: 
 LEFTX: 6.000000 inch
 RIGHTX: 11.000000 inch
 SCALETYPE: Linear
 NUMCHARTDIVISIONS: 10
CURVE: RHOB  2.000000   3.000000   (255,0,255)    Solid             2     Y    
BACKUP: 1.000000   2.000000   (255,0,255)    Solid             2    
CURVE: PEF   0.000000   10.000000  (255,0,0)      Dot               2     N    
ENDTRACK: 
#
#   TRACK 4
#
STARTTRACK: 
 LEFTX: 11.000000 inch
 RIGHTX: 13.500000 inch
 SCALETYPE: Linear
 NUMCHARTDIVISIONS: 10
CURVE: GR    0.000000   150.000000 (255,131,0)    Solid             2     Y    
BACKUP: 150.000000 300.000000 (255,131,0)    Solid             2    
CURVE: CALI  6.000000   16.000000  (255,255,0)    Dot               2     Y    
BACKUP: 16.000000  26.000000  (255,255,0)    Dot               2    
ENDTRACK: 
#
#   TRACK 5
#
STARTTRACK: 
 LEFTX: 13.500000 inch
 RIGHTX: 18.500000 inch
 SCALETYPE: Linear
 NUMCHARTDIVISIONS: 10
CURVE: DPHI  0.300000   -0.100000  (0,0,255)      Solid             2     N    
CURVE: NPHI  0.300000   -0.100000  (0,131,131)    Dot               2     Y    
BACKUP: 0.700000   0.300000   (0,131,131)    Dot               2    
ENDTRACK: 
#
#   TRACK 6
#
STARTTRACK: 
 LEFTX: 13.500000 inch
 RIGHTX: 18.500000 inch
 SCALETYPE: Linear
 NUMCHARTDIVISIONS: 10
CURVE: DTCO  240.000000 40.000000  (255,0,255)    Solid             2     N    
ENDTRACK: 
<DescLogPlotEnd>
~A DEPTH     ILD              SP               RHOB             PEF              GR               CALI             DPHI             NPHI             DTCO            
# ...
    9493.600 12.89041631      25.17127215      2.61462555       2.93177934       120.85480498     8.43897597       0.02105529       0.18221004       72.16198126     
    9493.700 12.89041631      25.18725890      2.61569990       2.92457529       119.96947282     8.43725183       0.02104982       0.17953069       71.89424364     
    9493.800 12.89041631      25.20310284      2.61671588       2.91765642       119.21020612     8.43552769       0.02067042       0.17695538       71.62650602     
    9493.900 12.89041631      25.21943527      2.61769486       2.91033618       118.47159460     8.43380355       0.02003946       0.17425928       71.35876841     
    9494.000 12.89041631      25.23601944      2.61870263       2.90241520       117.66970440     8.43207941       0.01942094       0.17170160       71.09103079     
    9494.100 12.89041631      25.25165105      2.61971919       2.89616293       116.88850778     8.43035528       0.01879443       0.16898404       70.82329317     
    9494.200 12.89170229      25.26694938      2.62073021       2.89460184       116.11454282     8.42863114       0.01817120       0.16640618       70.55555556     
    9494.300 12.96825400      25.28403654      2.62175324       2.89775685       115.35367160     8.42690700       0.01754884       0.16377845       70.38403614     
    9494.400 13.04226519      25.30155460      2.62275765       2.90262159       114.58012581     8.42518286       0.01692649       0.16115072       70.30873494     
    9494.500 13.10841642      25.31550728      2.62372831       2.90686229       113.78704524     8.42345873       0.01630413       0.15852299       70.23343373     
    9494.600 13.18209101      25.32827437      2.62475712       2.91063197       113.00929494     8.42173459       0.01568177       0.15558912       70.15813253     
    9494.700 13.25022649      25.34965203      2.62585247       2.91474317       112.26225757     8.42001072       0.01505942       0.15493745       70.08283133     
    9494.800 13.32333528      25.38400733      2.62673541       2.91906712       111.50566850     8.41828477       0.01443706       0.15419984       70.00753012     
    9494.900 13.39343920      25.42348312      2.62708773       2.92319329       110.71330156     8.41655607       0.01379658       0.15346224       69.93222892     
    9495.000 13.46643004      25.45906650      2.62693880       2.92722223       109.95050694     8.41483124       0.01359517       0.15272463       69.85692771     
    9495.100 13.53769840      25.49126265      2.62657968       2.93136224       109.27785702     8.41311192       0.01338771       0.15198702       69.71050870     
    9495.200 13.61165690      25.52483565      2.62622365       2.93554094       108.62442923     8.41138291       0.01318026       0.15124941       69.49297189     
    9495.300 13.68291127      25.56004757      2.62596168       2.93967090       107.94527963     8.40964318       0.01299094       0.15051180       69.27543507     
    9495.400 13.75896255      25.59444516      2.62578921       2.94380145       107.45353219     8.40792529       0.01352412       0.14977420       69.05789826     
    9495.500 13.82933736      25.62800426      2.62538697       2.94793705       107.44235241     8.40622556       0.01401446       0.14914401       68.84036145     
    9495.600 13.90798396      25.66206645      2.62421656       2.95204131       107.89956870     8.40448190       0.01450481       0.15015666       68.62282463     
    9495.700 13.97745143      25.69653247      2.62224155       2.95617887       108.55950205     8.40271038       0.01499515       0.15104059       68.40528782     
    9495.800 14.05827387      25.73070939      2.62026063       2.96037370       109.29306989     8.40102287       0.01548549       0.15192452       68.18775100     
    9495.900 14.13769400      25.76471548      2.61910570       2.96447087       110.17818474     8.39937756       0.01597583       0.15280844       67.97021419     
    9496.000 14.10711197      25.79886731      2.61875816       2.96846190       111.23824138     8.39756118       0.01646617       0.15369237       67.75267738     
    9496.100 14.05904512      25.83308417      2.61861854       2.97266015       112.36044805     8.39565440       0.01695651       0.15457629       67.53514056     
    9496.200 14.02201163      25.86723294      2.61835279       2.97704778       113.44312431     8.39421117       0.01744686       0.15546022       67.31760375     
    9496.300 13.97564041      25.90135034      2.61805602       2.98075516       114.47299606     8.39363122       0.01793720       0.15634415       67.24899598     
    9496.400 13.93713297      25.93548387      2.61781496       2.98283523       115.50952713     8.39361673       0.01822759       0.15722807       67.32931727     
    9496.500 13.89283785      25.96961740      2.61756737       2.98331525       116.63162936     8.39359088       0.01822759       0.15811200       67.40963855     
    9496.600 13.85283753      26.00375094      2.61733756       2.98287297       117.79487036     8.39338876       0.01822759       0.15899593       67.48995984     
    9496.700 13.81031259      26.03788447      2.61726799       2.98182008       118.78460674     8.39320122       0.01822759       0.15987985       67.57028112     
    9496.800 13.76935836      26.07201800      2.61738919       2.98009762       119.45234088     8.39310207       0.01822759       0.16076378       67.77777778     
    9496.900 13.72793603      26.10615154      2.61756695       2.97794526       119.91224511     8.39298910       0.01822759       0.16164771       68.11244980     
    9497.000 13.68670442      26.14028507      2.61770281       2.97583309       120.37134308     8.39282887       0.01822759       0.16253163       68.44712182     
    9497.100 13.64578943      26.17441860      2.61783474       2.97388152       120.89516718     8.39267946       0.01822759       0.16341556       68.78179384     
    9497.200 13.60472469      26.20855214      2.61800167       2.97189084       121.44933575     8.39255414       0.01822759       0.16429949       69.11646586     
    9497.300 13.56383574      26.24268652      2.61812754       2.96981380       122.00424101     8.39242170       0.01822483       0.16517213       69.45113788     
    9497.400 13.52324993      26.27686504      2.61810838       2.96778805       122.49484379     8.39227824       0.01823617       0.16609783       69.66309683     
    9497.500 13.48278557      26.31108408      2.61794926       2.96581386       122.83717703     8.39213871       0.01821933       0.16693536       69.75234270     
    9497.600 13.44244228      26.34522105      2.61774462       2.96376354       123.06298776     8.39200375       0.01824114       0.16787278       69.84158858     
    9497.700 13.40221971      26.37928183      2.61755825       2.96167929       123.30056206     8.39186675       0.01847408       0.16886634       69.93083445     
    9497.800 13.36211750      26.41354136      2.61738442       2.95972265       123.59160629     8.39172742       0.01884075       0.16904325       70.02008032     
    9497.900 13.32213528      26.44794275      2.61720311       2.95778594       123.86666900     8.39158812       0.01913239       0.16914392       70.10932619     
    9498.000 13.28227269      26.48190915      2.61701475       2.95560844       124.10688356     8.39144882       0.01951068       0.16933762       70.19857207     
    9498.100 13.24252938      26.51565047      2.61682758       2.95356389       124.38044690     8.39130951       0.01981622       0.16945507       70.28781794     
    9498.200 13.20290499      26.55024722      2.61664672       2.95282809       124.69659485     8.39117021       0.01986809       0.16962764       70.37706381     
    9498.300 13.16339916      26.58518926      2.61646972       2.95419605       124.94809338     8.39103091       0.01981637       0.16976877       70.37148594     
    9498.400 13.12401155      26.61855056      2.61629377       2.95709003       125.04328093     8.39089160       0.01946269       0.16991716       70.27108434     
