~Version ---------------------------------------------------
VERS.   2.0 : CWLS log ASCII Standard -VERSION 2.0
WRAP.    NO : One line per depth step
DLM . SPACE : Column Data Section Delimiter
~Well ------------------------------------------------------
STRT.FT       8390.0 : START DEPTH
STOP.FT       9710.0 : STOP DEPTH
STEP.FT          0.5 : STEP
NULL.        -999.25 : NULL VALUE
COMP.  HRM Resources : COMPANY
WELL.  23-12 Hay Dam : WELL
FLD .        Hay Dam : FIELD
LOC . 23N R97W Sec12 : LOCATION
CNTY.     Sweetwater : COUNTY
STAT.             WY : STATE
CTRY.            USA : COUNTRY
SRVC.            SLB : SERVICE COMPANY
DATE.     11/14/2019 : DATE
API .     4903723253 : API NUMBER
UWI .       3723253A : UWI NUMBER
TVD .             NO : TVD flag
WSTA.            LOC : Well status
USGS.           E974 : USGS Number
LATI.DEG     41.97803: LATITUDE
LONG.DEG    -108.3282: LONGITUDE
UTM-N.     4650790.25: Northing
UTM-E.       721356.8: Easting
CORE.             -13: Core/Log Offset
~Curve Information -----------------------------------------
DEPT.FT               : Depth in Feet
GR  .API 35 310 01 01 : Gamma Ray
CALI.IN  70 280 01 01 : Caliper
PEF .BARN             : Photoelectric Effect
NPHI.V/V 42 890 03 01 : Neutron Porosity
DPHI.V/V 45 890 01 01 : Density Porosity
SP  .                 : 
ILD .                 : 
~Params ----------------------------------------------------
~Other -----------------------------------------------------
~ASCII -----------------------------------------------------
# ...
 8975.00000  117.53300    9.39100    3.01300    0.14500    0.02600    4.84500   19.26100
 8975.50000  101.25900    9.40300    2.92900    0.13700    0.03600    4.61200   18.69300
 8976.00000   88.12000    9.41500    2.96100    0.13300    0.04700    4.38600   18.14100
 8976.50000   82.97600    9.42600    2.98600    0.13800    0.05900    4.49800   17.60600
 8977.00000   81.38200    9.43800    3.01100    0.14500    0.07100    4.63000   17.08600
 8977.50000   82.82200    9.45000    2.97200    0.15300    0.07900    4.75700   16.58100
 8978.00000   85.35100    9.46100    2.90700    0.15900    0.08300    4.92400   16.09100
 8978.50000   87.82800    9.47300    2.84800    0.16300    0.08100    5.09300   15.61800
 8979.00000   86.78700    9.48400    2.85800    0.16600    0.07300    5.26100   15.22500
 8979.50000   83.84100    9.49300    2.94500    0.16100    0.06100    5.43000   15.22500
 8980.00000   80.93000    9.49900    3.07100    0.15600    0.04900    5.59900   15.32700
 8980.50000   78.00100    9.50400    3.19700    0.15200    0.03800    5.76800   15.45700
 8981.00000   75.12600    9.51000    3.32400    0.14800    0.02600    5.93700   15.58700
 8981.50000   74.40300    9.51500    3.45300    0.14300    0.01900    6.10300   15.74200
 8982.00000   73.90800    9.52100    3.38100    0.13900    0.01700    6.26700   16.03700
 8982.50000   75.35100    9.52600    3.13100    0.13800    0.02400    6.43700   16.33800
 8983.00000   76.81600    9.53100    2.88500    0.13900    0.03700    6.54600   16.70100
 8983.50000   78.21400    9.53100    2.63300    0.14000    0.05000    6.19900   16.70000
 8984.00000   78.00500    9.53100    2.57200    0.13900    0.06100    5.94900   16.81400
 8984.50000   76.15900    9.53100    2.57500    0.13800    0.07000    5.70700   16.89500
 8985.00000   73.53600    9.53100    2.58500    0.13300    0.07500    5.46400   16.97600
 8985.50000   71.84900    9.53100    2.59500    0.13100    0.07800    5.22000   17.01200
 8986.00000   72.97400    9.53100    2.60500    0.13300    0.07900    4.98400   16.94800
 8986.50000   73.85800    9.53100    2.55700    0.13600    0.07900    5.07200   16.78700
 8987.00000   73.85200    9.53000    2.47200    0.14300    0.07800    5.18900   16.62800
 8987.50000   74.10500    9.52800    2.46900    0.14400    0.07400    5.30500   16.39400
 8988.00000   75.18900    9.52600    2.59000    0.14600    0.06900    5.42000   16.59200
 8988.50000   75.62000    9.52400    2.72100    0.14700    0.06400    5.53700   16.95600
 8989.00000   74.31100    9.52200    2.85100    0.14800    0.05900    5.55700   17.32800
 8989.50000   70.42000    9.52000    3.01200    0.14700    0.04900    5.51200   17.70800
 8990.00000   67.02800    9.51800    3.18600    0.14200    0.03800    5.46600   18.09600
 8990.50000   68.41200    9.51600    3.34700    0.13900    0.02300    5.41900   18.14900
 8991.00000   73.36600    9.51500    3.27600    0.13600    0.02300    5.37300   18.07000
 8991.50000   79.86400    9.51300    3.19700    0.13800    0.03200    5.32700   18.01600
 8992.00000   86.36300    9.51100    3.12000    0.14100    0.04100    5.28100   17.91300
 8992.50000   93.07800    9.50900    3.04200    0.14600    0.05100    5.23400   17.73100
 8993.00000   95.95700    9.50700    2.96500    0.15200    0.05600    5.18900   17.49000
 8993.50000   94.72500    9.50500    2.90900    0.15700    0.05500    5.13500   17.49300
 8994.00000   92.93100    9.50300    2.97400    0.15800    0.04500    5.07900   17.28700
 8994.50000   95.31800    9.50100    3.07400    0.15700    0.03400    5.02400   17.06600
 8995.00000  100.61100    9.49900    3.05700    0.15300    0.03100    5.03000   16.54600
 8995.50000  107.63900    9.49800    3.04200    0.14800    0.02800    5.35800   16.21100
 8996.00000  115.51900    9.49600    3.02900    0.14600    0.02600    5.68200   15.87600
 8996.50000  122.92600    9.49400    3.11000    0.14900    0.02700    6.00500   15.54800
 8997.00000  128.49500    9.49200    3.21500    0.15900    0.04400    6.32700   15.36600
 8997.50000  128.76200    9.48100    3.32000    0.16800    0.06200    6.65200   15.41400
 8998.00000  119.72100    9.46200    3.33700    0.16800    0.07800    6.67200   15.76800
 8998.50000  109.85200    9.44200    3.20100    0.15800    0.07900    6.46200   16.13000
 8999.00000   99.99400    9.42200    3.06300    0.14700    0.05800    6.24700   16.50100
 8999.50000   90.14700    9.40200    2.94700    0.13600    0.04300    6.03200   16.85500
 9000.00000   80.23100    9.38200    2.92000    0.12900    0.03500    5.81700   18.18200
 9000.50000   70.20900    9.36200    3.01000    0.12100    0.02600    5.60300   19.52100
 9001.00000   68.54500    9.34200    3.03100    0.12100    0.02700    5.38800   20.96000
 9001.50000   71.48400    9.32300    3.04500    0.12300    0.02700    5.18100   21.23900
 9002.00000   77.60900    9.30300    3.06200    0.12900    0.02800    5.05900   20.53200
 9002.50000   86.15600    9.28300    3.07900    0.13400    0.03100    4.94300   19.98100
 9003.00000   94.63200    9.26300    3.09000    0.13900    0.03500    4.82600   19.44200
 9003.50000  101.49800    9.24300    3.12700    0.14600    0.03600    4.84500   18.91900
 9004.00000  106.10900    9.22300    3.15800    0.14600    0.03200    5.01200   18.66000
 9004.50000  107.15400    9.20300    3.18900    0.13800    0.02300    5.17800   18.70500
 9005.00000  105.22100    9.18300    3.21000    0.13200    0.01800    5.35100   18.83300
 9005.50000  101.00500    9.16400    3.12700    0.12600    0.01700    5.31600   19.71800
 9006.00000   98.41200    9.14400    3.04100    0.12000    0.02000    5.22800   20.58300
 9006.50000   97.62000    9.12400    2.95500    0.11500    0.02100    5.14000   21.48500
 9007.00000   96.78700    9.10400    2.98500    0.11100    0.01900    5.05200   22.19600
 9007.50000   95.33400    9.08400    3.02400    0.11600    0.01600    4.96700   22.58500
 9008.00000   93.79800    9.06600    3.03200    0.12700    0.01800    4.90200   22.98000
 9008.50000   92.36800    9.05700    3.01400    0.13900    0.01800    4.83500   23.08200
 9009.00000   92.90000    9.04700    3.06400    0.14600    0.01500    4.78700   22.88500
 9009.50000   96.53100    9.03800    3.13300    0.14600    0.00700    4.87600   22.63900
 9010.00000  100.10900    9.02800    3.19400    0.14200    0.00200    4.96500   22.39500
 9010.50000  103.75100    9.01800    3.16400    0.13900    0.00100    5.05200   22.17700
 9011.00000  105.09100    9.00900    3.13300    0.13800    0.00100    5.14100   21.99800
 9011.50000  101.10000    8.99900    3.10300    0.13300   -0.00000    5.08700   21.83500
 9012.00000   96.90300    8.99000    3.12700    0.12500   -0.00100    4.91300   22.85400
 9012.50000   92.93900    8.98000    3.20700    0.11800   -0.00000    4.71600   24.07700
 9013.00000   90.82600    8.97000    3.28600    0.11400    0.00400    4.42900   25.36700
 9013.50000   89.93900    8.95600    3.36500    0.10900    0.00800    4.15100   26.72400
 9014.00000   87.72100    8.93900    3.41100    0.10200    0.00900    3.97000   28.15400
 9014.50000   84.58800    8.92300    3.40200    0.09500    0.00500    3.97200   29.42700
 9015.00000   83.55700    8.90600    3.39400    0.09100   -0.00100    3.97100   29.78700
 9015.50000   87.97300    8.89000    3.38600    0.09100   -0.00700    3.97000   29.90400
 9016.00000   98.97000    8.87400    3.37800    0.12300   -0.00700    4.03900   29.62900
 9016.50000  109.55400    8.85700    3.35600    0.13700   -0.00200    4.13100   29.21800
 9017.00000  117.85700    8.84600    3.32300    0.13800    0.00200    4.22300   28.69600
 9017.50000  122.65900    8.84500    3.29000    0.13500    0.00300    4.31400   28.18400
 9018.00000  125.40200    8.84300    3.25800    0.13100   -0.00000    4.36600   27.68000
 9018.50000  124.05700    8.84100    3.23900    0.13100   -0.00300    4.29700   27.18600
 9019.00000  121.27200    8.83900    3.22300    0.13100   -0.00600    4.22900   26.76300
 9019.50000  118.66600    8.83800    3.21800    0.13600   -0.00800    4.16100   26.68600
