~Version ---------------------------------------------------
VERS. 2.0 : CWLS log ASCII Standard -VERSION 2.0
WRAP.  NO : One Line Per Depth Step
~Well ------------------------------------------------------
STRT .FT              8400.0 : START DEPTH
STOP .FT              9700.0 : STOP DEPTH
STEP .FT  0.1000000000003638 : STEP
NULL .               -999.25 : NULL VALUE
COMP .  PRESIDIO OIL COMPANY : COMPANY
WELL .     J.T. FEDERAL NO.5 : WELL
FLD  .   SOUTH HAY RESOURCES : FIELD
LOC  . 1266' FNL & 1684' FEL : LOCATION
CNTY .            SWEETWATER : COUNTY
STAT .               WYOMING : STATE
CTRY .                   USA : COUNTRY
SRVC .                       : SERVICE COMPANY
DATE .            30/06/1993 : DATE
API  .            4903723152 : API NUMBER
UWI  .               3723152 : UWI NUMBER
TVD  .                    NO : TVD flag
WSTA .                   LOC : Well status
USGS .                  S179 : USGS Number
LATI .DEG           41.97079 : LATITUDE
LONG .DEG           -108.322 : LONGITUDE
UTM-N.            4650002.36 : Northing
UTM-E.             721895.66 : Easting
CORE .                   N/A : Core/Log Offset
~Curve Information -----------------------------------------
DEPT    .FT                : Depth in Feet
GR      .GAPI 35 310 01 01 : Gamma Ray
SP      .MV   01 010 01 01 : Spontaneous Potential
CALI    .IN   70 280 01 01 : Caliper
ILD     .OHMM 05 120 46 01 : Deep Induction Standard Processed Resistivity
DPHI    .V/V  45 890 01 01 : Density Porosity
NPHI    .V/V  42 890 03 01 : Neutron Porosity
PE      .B/E               : PE
DT      .US/F 60 520 08 01 : Delta-T
ACOUSTIC.DEC               : ACOUSTIC
~Params ----------------------------------------------------
DATE. 30-06-1993 : Date As Month-Day-Year
RUN .        ONE : Run Number
PDAT.        UNK : Permanent Datum
EPD .FT   6607.0 : Elevation Of Perm. Datum
LMF .         KB : Log Measured From
FAPD.FT     16.0 : Feet Above Perm. Datum
DMF .         KB : Drilling Measured From
EKB .FT   6623.0 : Elevation Of Kelly Bushing
EDF .FT   6622.0 : Elevation Of Derrick Floor
EGL .FT   6607.0 : Elevation Of Ground Level
TD  .FT   9700.0 : Total Depth
DD  .FT   9780.0 : Depth Driller
DL  .FT   9724.0 : Depth Logger
BLI .FT   9720.0 : Bottom Log Interval
CSIZ.IN  9.625IN : Casing Size
CBD1.       1698 : Casing Bottom (Driller) 1
CBL1.       1697 : Casing Bottom (Logger) 1
BS  .IN  7.875IN : Bit Size
DFT .        GEL : Drilling Fluid Type
DFV .S      55.0 : Drilling Fluid Viscosity
DFD .LB/G   10.2 : Drilling Fluid Density
DFL .ML      7.6 : Drilling Fluid Loss
DFPH.        9.5 : Drilling Fluid Ph
MSS .   FLOWLINE : Mud Sample Source
RMS .OHMM    1.5 : Resistivity Of Mud Sample
MST .DEGF   74.0 : Mud Sample Temperature
RMF .OHMM    1.8 : Mud Filtrate Resistivity
MFST.DEGF   66.0 : Mud Filtrate Sample Temperature
RMC .OHMM   2.44 : Mud Cake Resistivity
MCST.DEGF   69.0 : Mud Cake Sample Temperature
RMB .OHMM    0.6 : Mud Resistivity At Bht
BHT .DEGF  197.0 : Bottom Hole Temperature
MRT .DEGF  197.0 : Maximum Recorded Temperature
LUN .      52546 : Logging Unit Number
LUL .      VERNL : Logging Unit Location
ENGI.    K EVATT : Engineer'S Name
WITN.    HEFFNER : Witness' Name
DGBY.        R2V : 
WSTA.        LOC : 
~Other -----------------------------------------------------
<DescLogPlotStart>   NEURALOG PLOT DEFINITION
PLOTDEFVERSION: 3
LASFILE: C:\nds\projects\mf-nov-13\las\3723152A.las
DEPTHSCALE: 240.000000
RESOLUTION: 200
DEPTHLABELFREQ: 100.000000
HEAVYGRIDFREQ: 100.000000
MEDIUMGRIDFREQ: 50.000000
LIGHTGRIDFREQ: 10.000000
#
#   TRACK 1
#
STARTTRACK:
LEFTX: 0.500000 inch
RIGHTX: 3.000000 inch
SCALETYPE: Linear
NUMCHARTDIVISIONS: 10
CURVE: GR    0.000000   150.000000 (0,0,255)      Solid             2     N
CURVE: SP    -100.000000 0.000000   (0,131,131)    Dot               2     N
ENDTRACK:
#
#   TRACK 2
#
STARTTRACK:
LEFTX: 0.500000 inch
RIGHTX: 3.000000 inch
SCALETYPE: Linear
NUMCHARTDIVISIONS: 10
CURVE: CALI  6.000000   16.000000  (255,0,255)    Solid             2     Y
BACKUP: -4.000000  6.000000   (255,0,255)    Solid             2
ENDTRACK:
#
#   TRACK 3
#
STARTTRACK:
LEFTX: 3.500000 inch
RIGHTX: 8.500000 inch
SCALETYPE: Log
NUMCYCLES: 4
STARTCYCLE: 2
CURVE: ILD   0.200000   2000.000000 (255,0,0)      Solid             2     N
ENDTRACK:
#
#   TRACK 4
#
STARTTRACK:
LEFTX: 3.500000 inch
RIGHTX: 8.500000 inch
SCALETYPE: Linear
NUMCHARTDIVISIONS: 10
CURVE: DPHI  0.300000   -0.100000  (255,131,0)    Solid             2     Y
BACKUP: 0.700000   0.300000   (255,131,0)    Solid             2
CURVE: NPHI  0.300000   -0.100000  (255,255,0)    Dot               2     Y
BACKUP: 0.700000   0.300000   (255,255,0)    Dot               2
ENDTRACK:
#
#   TRACK 5
#
STARTTRACK:
LEFTX: 3.500000 inch
RIGHTX: 6.000000 inch
SCALETYPE: Linear
NUMCHARTDIVISIONS: 10
CURVE: PE    0.000000   10.000000  (0,0,255)      Solid             2     N
ENDTRACK:
#
#   TRACK 6
#
STARTTRACK:
LEFTX: 8.500000 inch
RIGHTX: 13.500000 inch
SCALETYPE: Linear
NUMCHARTDIVISIONS: 10
CURVE: DT    140.000000 40.000000  (0,131,131)    Solid             2     Y
BACKUP: 40.000000  -60.000000 (0,131,131)    Solid             2
CURVE: ACOUSTIC 0.300000   -0.100000  (255,0,255)    Dot               2     Y
BACKUP: 0.700000   0.300000   (255,0,255)    Dot               2
BACKUP: -0.100000  -0.500000  (255,0,255)    Dot               2
ENDTRACK:
<DescLogPlotEnd>
~ASCII -----------------------------------------------------
# ...
 9334.40000   99.87632  -15.65936    9.53896   17.60789   -0.00102    0.14776    3.33369   71.08976    0.14421
 9334.50000   99.51966  -15.82886    9.53849   17.64398   -0.00125    0.14746    3.33418   70.97397    0.14361
 9334.60000   98.90074  -16.02325    9.53799   17.68014   -0.00150    0.14706    3.33468   70.85531    0.14257
 9334.70000   98.11494  -16.20863    9.53749   17.71638   -0.00174    0.14657    3.33517   70.73811    0.14177
 9334.80000   97.32293  -16.38064    9.53700   17.75269   -0.00198    0.14615    3.33566   70.62092    0.14096
 9334.90000   96.57130  -16.57217    9.53651   17.78908   -0.00223    0.14591    3.33615   70.50372    0.14016
 9335.00000   95.82296  -16.77089    9.53602   17.82554   -0.00246    0.14571    3.33665   70.38652    0.13935
 9335.10000   95.13817  -16.90673    9.53552   17.86208   -0.00273    0.14546    3.33715   70.26933    0.13855
 9335.20000   94.67894  -16.93942    9.53503   17.89869   -0.00293    0.14525    3.33764   70.15213    0.13774
 9335.30000   94.53329  -16.90813    9.53454   17.93537   -0.00324    0.14501    3.33812   70.03493    0.13693
 9335.40000   94.63314  -16.87574    9.53405   17.97213   -0.00340    0.14479    3.33865   69.91774    0.13613
 9335.50000   94.84800  -16.86319    9.53355   18.00897   -0.00375    0.14456    3.33917   69.76673    0.13509
 9335.60000   95.09404  -16.85430    9.53306   18.04588   -0.00381    0.14434    3.33961   69.69168    0.13490
 9335.70000   95.35503  -16.83470    9.53257   18.08287   -0.00275    0.14410    3.34005   69.58621    0.13463
 9335.80000   95.64407  -16.80659    9.53208   18.11993   -0.00168    0.14389    3.34066   69.46247    0.13436
 9335.90000   95.96324  -16.78567    9.53158   18.15707   -0.00090    0.14365    3.34126   69.47936    0.13409
 9336.00000   96.28436  -16.78133    9.53109   18.19428    0.00017    0.14344    3.34155   69.49977    0.13383
 9336.10000   96.56605  -16.77058    9.53060   18.23158    0.00142    0.14320    3.34186   69.52019    0.13356
 9336.20000   96.79117  -16.70649    9.53011   18.26894    0.00140    0.14289    3.34278   69.54060    0.13329
 9336.30000   96.98225  -16.56755    9.52962   18.30639    0.00135    0.14292    3.34366   69.56102    0.13302
 9336.40000   97.17348  -16.37339    9.52912   18.34391    0.00130    0.14297    3.34253   69.58143    0.13275
 9336.50000   97.37835  -16.15106    9.52863   18.38151    0.00125    0.14303    3.33830   69.60185    0.13248
 9336.60000   97.59276  -15.92768    9.52814   18.41918    0.00121    0.14308    3.33224   69.62226    0.13225
 9336.70000   97.81458  -15.75376    9.52765   18.45693    0.00116    0.14313    3.32628   69.64267    0.13249
 9336.80000   98.04941  -15.67120    9.52716   18.49476    0.00111    0.14319    3.32094   69.66309    0.13270
 9336.90000   98.30399  -15.64623    9.52667   18.53267    0.00106    0.14324    3.31557   69.68350    0.13291
 9337.00000   98.58091  -15.60512    9.52617   18.57066    0.00102    0.14329    3.30989   69.70392    0.13312
 9337.10000   98.86002  -15.54591    9.52568   18.60872    0.00130    0.14293    3.30421   69.72433    0.13333
 9337.20000   99.11515  -15.54643    9.52520   18.64686    0.00159    0.14256    3.29873   69.74475    0.13355
 9337.30000   99.36413  -15.65715    9.52473   18.68508    0.00187    0.14220    3.29323   69.76516    0.13376
 9337.40000   99.65587  -15.85178    9.52420   18.72338    0.00215    0.14183    3.28762   69.78558    0.13397
 9337.50000   99.96814  -16.08340    9.52369   18.76175    0.00244    0.14146    3.28200   69.80599    0.13418
 9337.60000  100.19951  -16.31096    9.52326   18.81946    0.00264    0.14110    3.27649   69.82641    0.13439
 9337.70000  100.31845  -16.44975    9.52282   18.81946    0.00415    0.14085    3.27099   69.84707    0.13460
 9337.80000  100.41005  -16.36930    9.52221   18.83148    0.00533    0.14076    3.26534   69.86762    0.13481
 9337.90000  100.50370  -16.02905    9.52164   18.83949    0.00650    0.14069    3.25968   69.88816    0.13509
 9338.00000  100.47578  -15.60733    9.52137   18.84751    0.00711    0.14062    3.25427   69.90835    0.13509
 9338.10000  100.20404  -15.40933    9.52108   18.85553    0.00666    0.14055    3.24874   69.92948    0.13509
 9338.20000   99.70574  -15.59206    9.51983   18.86355    0.00635    0.14045    3.24186   69.94884    0.13509
 9338.30000   99.07807  -16.03111    9.51725   18.87158    0.00603    0.13983    3.23262   69.97101    0.13509
 9338.40000   98.44134  -16.50992    9.51405   18.87961    0.00572    0.13883    3.22144   69.98917    0.13509
 9338.50000   97.96912  -16.95352    9.51110   18.88765    0.00541    0.13784    3.20972   70.01260    0.13509
 9338.60000   97.80192  -17.39407    9.50846   18.89568    0.00510    0.13684    3.19816   70.02959    0.13509
 9338.70000   97.87815  -17.82542    9.50575   18.90372    0.00479    0.13585    3.18658   70.05397    0.13509
 9338.80000   97.99088  -18.24205    9.50287   18.91177    0.00448    0.13476    3.17499   70.06994    0.13509
 9338.90000   98.03449  -18.71619    9.50004   18.91982    0.00417    0.13468    3.16369   70.01244    0.13509
 9339.00000   98.06511  -19.25172    9.49729   18.92787    0.00386    0.13459    3.15222   69.94807    0.13509
 9339.10000   98.12985  -19.64928    9.49452   18.93592    0.00400    0.13451    3.14008   69.89112    0.13509
 9339.20000   98.19312  -19.70271    9.49171   18.94398    0.00415    0.13442    3.12864   69.82827    0.13509
 9339.30000   98.24049  -19.47029    9.48891   18.95204    0.00426    0.13434    3.12078   69.76788    0.13452
 9339.40000   98.30519  -19.18730    9.48613   18.96011    0.00442    0.13425    3.11757   69.70749    0.13404
 9339.50000   98.37811  -18.97725    9.48334   18.96818    0.00454    0.13417    3.11690   69.64710    0.13356
 9339.60000   98.40791  -18.79228    9.48055   18.97625    0.00466    0.13408    3.11607   69.58671    0.13307
 9339.70000   98.38845  -18.57325    9.47775   18.98432    0.00449    0.13400    3.11447   69.52632    0.13259
 9339.80000   98.32786  -18.33181    9.47496   18.99644    0.00441    0.13394    3.11314   69.46593    0.13210
 9339.90000   98.13154  -18.10282    9.47217   18.99644    0.00427    0.13501    3.11210   69.40554    0.13162
 9340.00000   97.64901  -17.90234    9.46938   19.70038    0.00424    0.13577    3.11071   69.34515    0.13114
 9340.10000   96.86284  -17.70584    9.46658   20.18411    0.00550    0.13654    3.10924   69.28476    0.13065
 9340.20000   95.93126  -17.46043    9.46378   20.67971    0.00668    0.13731    3.10849   69.22437    0.13017
 9340.30000   95.01884  -17.17999    9.46101   21.18748    0.00752    0.13808    3.10749   69.16398    0.12968
 9340.40000   94.16065  -17.00676    9.45824   21.70773    0.00911    0.13885    3.10506   69.10359    0.12920
 9340.50000   93.26168  -17.08059    9.45540   22.48242    0.01100    0.13962    3.10336   69.04320    0.12871
 9340.60000   92.14122  -17.36474    9.45257   22.62032    0.01358    0.14045    3.10436   68.98281    0.12819
 9340.70000   90.61798  -17.69623    9.44987   22.87119    0.01703    0.14065    3.10398   68.92242    0.12840
 9340.80000   88.67792  -17.98140    9.44716   23.14151    0.02077    0.14087    3.09866   68.86545    0.12861
 9340.90000   86.52264  -18.25106    9.44418   23.36293    0.02449    0.14108    3.09499   68.78733    0.12883
 9341.00000   84.37272  -18.54432    9.44123   23.65211    0.02821    0.14126    3.09775   68.76163    0.12901
 9341.10000   82.27372  -18.84540    9.43917   23.88989    0.03192    0.14010    3.09149   68.76498    0.13017
 9341.20000   80.17041  -19.13347    9.43850   24.17318    0.03564    0.13912    3.05579   68.82609    0.13114
 9341.30000   78.05932  -19.42592    9.43868   24.42741    0.03936    0.13814    2.99973   68.81593    0.13212
 9341.40000   75.95304  -19.75701    9.43886   24.70852    0.04308    0.13760    2.95733   68.87014    0.13266
 9341.50000   73.82033  -20.14509    9.43877   24.97364    0.04679    0.13048    2.94387   69.39034    0.13472
 9341.60000   71.68111  -20.57931    9.43869   25.25729    0.05183    0.12557    2.94031   69.81198    0.13614
