~Version Information Block
 VERS.                2.00:     CWLS LOG ASCII STANDARD - VERSION 2.000000
 WRAP.                  NO:     One Line Per Depth Step
#
~Well Information Block
#MNEM.UNIT                     Data                         Information
#----------   ------------------------------------------   ----------------
 STRT.FT                                    12600.0000:     START DEPTH
 STOP.FT                                    13950.0000:     STOP DEPTH
 STEP.FT                                        0.1000:     STEP
 NULL.                                       -999.2500:     NULL VALUE
 COMP.                        PRESIDIO EXPLORATION INC:     COMPANY
 WELL.                          PICKETLAKE UNIT #40-13:     WELL
 FLD .                                         WILDCAT:     FIELD
 LOC .                           1320' FSL & 1320' FEL:     LOCATION
 CNTY.                                      SWEETWATER:     COUNTY
 STAT.                                         WYOMING:     STATE
 CTRY.                                             USA:     COUNTRY
 SRVC.                                                :     SERVICE COMPANY
 DATE.                                      15/05/1995:     DATE
 API .                                      4903723472:     API NUMBER
 UWI .                                         3723472:     UWI NUMBER
 TVD .                                              NO:     TVD flag
 WSTA.                                             LOC:     Well status
 USGS.                                            F042:     USGS Number
 LATI.DEG                                     42.22387:     LATITUDE
 LONG.DEG                                   -108.34765:     LONGITUDE
 UTM-N.                                     4678038.95:     Northing
 UTM-E.                                       718897.4:     Easting
 CORE.                                              +5:     Core/Log Offset
#
~Curve Information Block
#MNEM.UNIT       API CODE      Curve Description
#----------    -------------   -------------------
 DEPT.FT                   :   Depth in Feet
 DTCO.US/F     60 520 08 01:   DTCO
 SPHI.V/V      61 890 01 01:   Sonic Porosity
 GR  .GAPI     35 310 01 01:   Gamma Ray
 CALI.IN       70 280 01 01:   Caliper
 ILD .OHMM     05 120 46 01:   Deep Induction Standard Processed Resistivity
 SP  .MV       01 010 01 01:   Spontaneous Potential
 PEF .b/e                  :   Photo-Electric Factor
 RHOB.G/C3     42 350 01 01:   Bulk Density
 DPHI.V/V      45 890 01 01:   Density Porosity
 NPHI.V/V      42 890 03 01:   Neutron Porosity
#
~Parameter Information Block
#MNEM.UNIT            Value               Description
#----------    --------------------    -------------------
 DATE.                  15-05-1995:    Date As Month-Day-Year
 RUN .                         ONE:    Run Number
 PDAT.                         UNK:    Permanent Datum
 EPD .FT                 7224.0000:    Elevation Of Perm. Datum
 LMF .                          KB:    Log Measured From
 FAPD.FT                   15.0000:    Feet Above Perm. Datum
 DMF .                          KB:    Drilling Measured From
 EKB .FT                 7240.0000:    Elevation Of Kelly Bushing
 EDF .FT                 7239.0000:    Elevation Of Derrick Floor
 EGL .FT                 7224.0000:    Elevation Of Ground Level
 TD  .FT                13950.0000:    Total Depth
 DD  .FT                13957.0000:    Depth Driller
 DL  .FT                13952.0000:    Depth Logger
 BLI .FT                13925.0000:    Bottom Log Interval
 TLI .FT                10000.0000:    Top Log Interval
 CSIZ.IN                   9.625IN:    Casing Size
 CBD1.                        2520:    Casing Bottom (Driller) 1
 CBL1.                        2518:    Casing Bottom (Logger) 1
 BS  .IN                   7.875IN:    Bit Size
 DFT .                         WTD:    Drilling Fluid Type
 DFV .S                    74.0000:    Drilling Fluid Viscosity
 DFD .LB/G                 10.8000:    Drilling Fluid Density
 DFL .ML                    7.2000:    Drilling Fluid Loss
 DFPH.                      9.5000:    Drilling Fluid Ph
 MSS .                     MUDTANK:    Mud Sample Source
 RMS .OHMM                  4.3300:    Resistivity Of Mud Sample
 MST .DEGF                 65.0000:    Mud Sample Temperature
 RMF .OHMM                  3.3800:    Mud Filtrate Resistivity
 MFST.DEGF                 65.0000:    Mud Filtrate Sample Temperature
 RMC .OHMM                  4.5000:    Mud Cake Resistivity
 MCST.DEGF                 65.0000:    Mud Cake Sample Temperature
 RMB .OHMM                  1.3760:    Mud Resistivity At Bht
 BHT .DEGF                219.0000:    Bottom Hole Temperature
 MRT .DEGF                219.0000:    Maximum Recorded Temperature
 LUN .                        8415:    Logging Unit Number
 LUL .                      CASPER:    Logging Unit Location
 ENGI.               T.CHRISTENSEN:    Engineer'S Name
 WITN.                STEVE HEFNER:    Witness' Name
 DGBY.                         R2V:    
 WSTA.                         LOC:    
#
~Other Information Block
<DescLogPlotStart>   NEURALOG PLOT DEFINITION
PLOTDEFVERSION: 3
LASFILE: C:\nds\projects\mf-nov-13\las\3723472C.las
DEPTHSCALE: 240.000000
RESOLUTION: 200
DEPTHLABELFREQ: 100.000000
HEAVYGRIDFREQ: 100.000000
MEDIUMGRIDFREQ: 50.000000
LIGHTGRIDFREQ: 10.000000
#
#   TRACK 1
#
STARTTRACK: 
 LEFTX: 0.500000 inch
 RIGHTX: 3.000000 inch
 SCALETYPE: Linear
 NUMCHARTDIVISIONS: 10
CURVE: DTCO  140.000000 40.000000  (0,0,255)      Solid             2     N    
CURVE: SPHI  0.300000   -0.100000  (0,131,131)    Dot               2     N    
ENDTRACK: 
#
#   TRACK 2
#
STARTTRACK: 
 LEFTX: 3.500000 inch
 RIGHTX: 6.000000 inch
 SCALETYPE: Linear
 NUMCHARTDIVISIONS: 10
CURVE: GR    0.000000   150.000000 (255,0,255)    Solid             2     Y    
BACKUP: 150.000000 300.000000 (255,0,255)    Solid             2    
CURVE: CALI  6.000000   16.000000  (255,0,0)      Dot               2     N    
ENDTRACK: 
#
#   TRACK 3
#
STARTTRACK: 
 LEFTX: 6.000000 inch
 RIGHTX: 11.000000 inch
 SCALETYPE: Log
 NUMCYCLES: 4
 STARTCYCLE: 2
CURVE: ILD   0.200000   2000.000000 (255,131,0)    Solid             2     N   
ENDTRACK: 
#
#   TRACK 4
#
STARTTRACK: 
 LEFTX: 11.000000 inch
 RIGHTX: 13.500000 inch
 SCALETYPE: Linear
 NUMCHARTDIVISIONS: 10
CURVE: SP    -80.000000 20.000000  (255,255,0)    Solid             2     N    
ENDTRACK: 
#
#   TRACK 5
#
STARTTRACK: 
 LEFTX: 13.500000 inch
 RIGHTX: 18.500000 inch
 SCALETYPE: Linear
 NUMCHARTDIVISIONS: 10
CURVE: PEF   0.000000   10.000000  (0,0,255)      Solid             2     N    
CURVE: RHOB  2.000000   3.000000   (0,131,131)    Dot               2     Y    
BACKUP: 1.000000   2.000000   (0,131,131)    Dot               2    
ENDTRACK: 
#
#   TRACK 6
#
STARTTRACK: 
 LEFTX: 18.500000 inch
 RIGHTX: 23.500000 inch
 SCALETYPE: Linear
 NUMCHARTDIVISIONS: 10
CURVE: DPHI  0.300000   -0.100000  (255,0,255)    Solid             2     N    
CURVE: NPHI  0.300000   -0.100000  (255,0,0)      Dot               2     Y    
BACKUP: 0.700000   0.300000   (255,0,0)      Dot               2    
ENDTRACK: 
<DescLogPlotEnd>
~A DEPTH     DTCO             SPHI             GR               CALI             ILD              SP               PEF              RHOB             DPHI             NPHI            
# ...
   13317.200 68.91479679      0.13210040       69.18123776      9.24837775       19.96320175      -14.27806347     3.35403076       2.62606801       0.01069869       0.21299799      
   13317.300 68.40959151      0.13152610       69.22614807      9.24665693       19.95157004      -14.21900917     3.28758357       2.61797407       0.01524572       0.21909457      
   13317.400 67.95939504      0.12689771       70.03913047      9.24493611       19.93994511      -14.15783894     3.23314976       2.60993423       0.01979276       0.22519115      
   13317.500 67.46168121      0.12312781       71.72898743      9.24321529       19.92832696      -14.09682224     3.20977517       2.60251996       0.02433979       0.23128773      
   13317.600 66.99234438      0.11935790       73.84422364      9.24149446       19.91671557      -14.03966508     3.21261653       2.59410270       0.02888682       0.23738431      
   13317.700 66.51700552      0.11558800       76.04738631      9.23977364       19.90511095      -13.98243363     3.22112308       2.58686342       0.03343385       0.24348089      
   13317.800 66.04166667      0.11181810       78.41411015      9.23805282       19.89351309      -13.91750585     3.22054315       2.57850806       0.03798089       0.24788732      
   13317.900 65.56632781      0.10804819       80.98294400      9.23633199       19.88192199      -13.84901416     3.21242945       2.56869956       0.04252792       0.24828974      
   13318.000 65.09098896      0.10427829       83.52382875      9.23461117       19.87033764      -13.79189097     3.21067327       2.56070441       0.04707495       0.23826291      
   13318.100 64.61565010      0.10050839       85.90153085      9.23289035       19.85876004      -13.75112607     3.23023358       2.55772399       0.05162198       0.23047284      
   13318.200 64.14031124      0.09673848       88.24715237      9.23116953       19.84718919      -13.71471496     3.27230540       2.55836224       0.05472837       0.22268276      
   13318.300 63.66497239      0.09296858       90.66828122      9.22944870       19.83562508      -13.67220632     3.32300862       2.55898919       0.05472837       0.21489269      
   13318.400 63.18963353      0.08919868       93.11106070      9.22772788       19.82406771      -13.62737474     3.36974129       2.55921279       0.05318770       0.20710262      
   13318.500 62.71429468      0.08542877       95.52978764      9.22600706       19.81251707      -13.58697413     3.41140135       2.56203521       0.05202644       0.19931254      
   13318.600 62.23895582      0.08165887       97.93369839      9.22428624       19.80097316      -13.54891582     3.45141795       2.56883944       0.05086519       0.19152247      
   13318.700 61.93775100      0.07788897       100.32038622     9.22256541       19.78943597      -13.50857589     3.49276363       2.57724803       0.04970394       0.18373239      
   13318.800 61.52208835      0.07411906       102.72434417     9.22084459       19.77790551      -13.46702100     3.53896467       2.58405144       0.04854268       0.17594232      
   13318.900 61.21787149      0.07034916       105.20276980     9.21912377       19.76638177      -13.42689201     3.58714347       2.58899406       0.04738143       0.16815225      
   13319.000 60.91365462      0.06807229       107.65085675     9.21740295       19.75486474      -13.38704845     3.62723040       2.59501509       0.04668008       0.16036217      
   13319.100 60.60943775      0.06793269       109.80694157     9.21568212       19.74335443      -13.34606057     3.67129509       2.60207497       0.03712877       0.15537841      
   13319.200 60.43172691      0.06810614       111.48459066     9.21396130       19.73185081      -13.30567581     3.71251150       2.60843373       0.03028706       0.14590636      
   13319.300 60.73465991      0.06994799       112.83834425     9.21224048       19.72035391      -13.26658756     3.83078531       2.61479250       0.02344534       0.14044959      
   13319.400 60.94861958      0.07153256       114.12276841     9.21051965       19.70885561      -13.22586104     3.96282797       2.62115127       0.01660362       0.13752774      
   13319.500 61.16257925      0.07281584       115.25608967     9.20879883       19.69711030      -13.18318695     4.05743306       2.62751004       0.00976190       0.13363532      
   13319.600 61.37653892      0.07433329       116.28200265     9.20707801       19.68573580      -13.14366635     4.16073680       2.63704819       0.00603622       0.13055644      
   13319.700 61.59049859      0.07567392       117.51463214     9.20535719       19.67392881      -13.10772591     4.27257954       2.63704819       0.01810382       0.12842788      
   13319.800 61.80445826      0.07714562       118.71412305     9.20363636       19.66262650      -13.06538035     4.37339223       2.57021139       0.02639517       0.12863263      
   13319.900 62.01841792      0.07851202       119.01822674     9.20191554       19.65089649      -13.01366471     4.47901435       2.52565353       0.03468652       0.12850941      
   13320.000 62.33935743      0.07929499       118.22057137     9.20019472       19.63928396      -12.97194429     4.58657567       2.48109566       0.04708249       0.12854659      
   13320.100 62.33935743      0.07916235       117.15162482     9.19847390       19.62829492      -12.96394108     4.68986586       2.43653779       0.06859759       0.12882338      
   13320.200 62.33935743      0.07938211       116.37486138     9.19675307       19.61545184      -12.98729828     4.79543218       2.39197993       0.11120590       0.12927380      
   13320.300 62.36445783      0.07900979       115.42121031     9.19503225       19.60628658      -13.01722166     4.90189123       2.34742206       0.15381422       0.13011608      
   13320.400 62.38119143      0.07954897       113.62480275     9.19331143       19.59112009      -13.03801860     5.00631683       2.30286420       0.19642254       0.13069823      
   13320.500 62.39792503      0.07879595       111.01185172     9.19159060       19.58469494      -13.05481887     5.11127284       2.23845382       0.23903085       0.13200582      
   13320.600 62.41465863      0.07973490       108.10656232     9.18986978       19.56665192      -13.07559109     5.21867166       2.20514056       0.30020121       0.13179228      
   13320.700 62.43975904      0.08278112       105.29184902     9.18814896       19.56009879      -13.09842626     5.32043158       2.14917434       0.30249953       0.13400402      
   13320.800 62.48995984      0.08509036       102.52092823     9.18642814       19.54870195      -13.11913372     5.42563626       2.08118917       0.29855216       0.15267606      
   13320.900 62.64056225      0.08855422       99.71401014      9.18470731       19.54202810      -13.13872623     5.53084094       2.00425997       0.30197626       0.18519115      
   13321.000 62.74096386      0.08855422       96.84138164      9.18298649       19.68934681      -13.15944813     5.67771084       1.96512481       0.29916523       0.21770624      
   13321.100 65.15060241      0.10451807       93.98008282      9.18126567       19.79419203      -13.18074287     5.85940428       1.91826155       0.30131481       0.25022133      
   13321.200 67.56024096      0.11516064       91.18613179      9.17954485       19.89959555      -13.20148483     6.16024096       1.85845669       0.29977856       0.29496982      
   13321.300 67.56024096      0.12580321       88.40069385      9.17782402       20.00556033      -13.22195881     6.46107764       1.81059546       0.30073006       0.30139235      
   13321.400 70.23343373      0.13644578       85.52093075      9.17610320       20.11208938      -13.24268005     6.76191432       1.75164181       0.30018374       0.31168880      
   13321.500 72.01556225      0.14708835       82.61271163      9.17438238       20.21918569      -13.26352667     7.06275100       1.70334742       0.30038382       0.32555332      
