~Version ---------------------------------------------------
VERS. 2.0 : CWLS log ASCII Standard -VERSION 2.0
WRAP.  NO : One Line Per Depth Step
~Well ------------------------------------------------------
STRT .FT              12000.0 : START DEPTH
STOP .FT              13400.0 : STOP DEPTH
STEP .FT   0.1000000000003638 : STEP
NULL .                -999.25 : NULL VALUE
COMP . ENRON OIL &GAS COMPANY : COMPANY
WELL .       CEPO-LEWIS 21-38 : WELL
FLD  .             CEPO-LEWIS : FIELD
LOC  .   1205' FWL &1300' FSL : LOCATION
CNTY .             SWEETWATER : COUNTY
STAT .                WYOMING : STATE
CTRY .                    USA : COUNTRY
SRVC .                        : SERVICE COMPANY
DATE .             25/05/1998 : DATE
API  .             4903724185 : API NUMBER
UWI  .                3724185 : UWI NUMBER
TVD  .                     NO : TVD flag
WSTA .                    LOC : Well status
USGS .                   CEPO : USGS Number
LATI .DEG            41.18194 : LATITUDE
LONG .DEG          -108.14139 : LONGITUDE
UTM-N.             4562894.53 : Northing
UTM-E.              739764.57 : Easting
CORE .FT                 -3.9 : Core/Log Offset
~Curve Information -----------------------------------------
DEPT .FT                : Depth in Feet
GR   .GAPI 35 310 01 01 : Gamma Ray
SP   .MV   01 010 01 01 : Spontaneous Potential
CALI .IN   70 280 01 01 : Caliper
AHT90.OHMM              : 
ILD  .OHMM 05 120 46 01 : Deep Induction Standard Processed Resistivity
HCAL .IN                : 
DPHI .V/V  45 890 01 01 : Density Porosity
NPOR .V/V               : Neutron Porosity Output From An Application Program
RHOB .G/C3 42 350 01 01 : Bulk Density
PEF  .b/e               : Photo-Electric Factor
DT   .US/F 60 520 08 01 : Delta-T
SPHI .V/V  61 890 01 01 : Sonic Porosity
RESD .OHMM              : Deep Resistivity - Merged AHT90 & ILD
~Params ----------------------------------------------------
DATE.  25-05-1998 : Date As Month-Day-Year
RUN .         ONE : Run Number
PDAT.         UNK : Permanent Datum
EPD .FT    6416.0 : Elevation Of Perm. Datum
LMF .          KB : Log Measured From
FAPD.FT      21.0 : Feet Above Perm. Datum
DMF .          KB : Drilling Measured From
EKB .FT    6437.0 : Elevation Of Kelly Bushing
EDF .FT    6436.0 : Elevation Of Derrick Floor
EGL .FT    6416.0 : Elevation Of Ground Level
TD  .FT   13400.0 : Total Depth
DD  .FT   12587.0 : Depth Driller
DL  .FT   12616.0 : Depth Logger
BLI .FT   12602.0 : Bottom Log Interval
TLI .FT    2346.0 : Top Log Interval
DFT .    GEL-CHEM : Drilling Fluid Type
LUN .        8269 : Logging Unit Number
LUL . ROCK SPRING : Logging Unit Location
DGBY.         R2V : 
WSTA.         LOC : 
~Other -----------------------------------------------------
<DescLogPlotStart>   NEURALOG PLOT DEFINITION
PLOTDEFVERSION: 3
LASFILE: C:\nds\projects\mf-nov-13\las\3724185G.las
DEPTHSCALE: 240.000000
RESOLUTION: 200
DEPTHLABELFREQ: 100.000000
HEAVYGRIDFREQ: 100.000000
MEDIUMGRIDFREQ: 50.000000
LIGHTGRIDFREQ: 10.000000
#
#   TRACK 1
#
STARTTRACK:
LEFTX: 0.500000 inch
RIGHTX: 3.000000 inch
SCALETYPE: Linear
NUMCHARTDIVISIONS: 10
CURVE: GR    0.000000   150.000000 (0,0,255)      Solid             2     N
CURVE: SP    -100.000000 0.000000   (0,131,131)    Dot               2     Y
BACKUP: 0.000000   100.000000 (0,131,131)    Dot               2
BACKUP: 100.000000 200.000000 (0,131,131)    Dot               2
BACKUP: 200.000000 300.000000 (0,131,131)    Dot               2
BACKUP: 300.000000 400.000000 (0,131,131)    Dot               2
CURVE: CALI  4.000000   14.000000  (255,0,255)    Short_Dash        2     N
CURVE: HCAL  4.000000   14.000000  (255,0,0)      Medium_Dash       2     Y
BACKUP: -6.000000  4.000000   (255,0,0)      Medium_Dash       2
ENDTRACK:
#
#   TRACK 2
#
STARTTRACK:
LEFTX: 3.500000 inch
RIGHTX: 8.500000 inch
SCALETYPE: Log
NUMCYCLES: 4
STARTCYCLE: 2
CURVE: AHT90 0.200000   2000.000000 (255,131,0)    Solid             2     N
CURVE: ILD   0.200000   2000.000000 (255,255,0)    Dot               2     N
ENDTRACK:
#
#   TRACK 3
#
STARTTRACK:
LEFTX: 3.500000 inch
RIGHTX: 8.500000 inch
SCALETYPE: Linear
NUMCHARTDIVISIONS: 10
CURVE: DPHI  0.300000   -0.100000  (0,0,255)      Solid             2     Y
BACKUP: 0.700000   0.300000   (0,0,255)      Solid             2
CURVE: NPOR  0.300000   -0.100000  (0,131,131)    Dot               2     Y
BACKUP: 0.700000   0.300000   (0,131,131)    Dot               2
ENDTRACK:
#
#   TRACK 4
#
STARTTRACK:
LEFTX: 3.500000 inch
RIGHTX: 8.500000 inch
SCALETYPE: Linear
NUMCHARTDIVISIONS: 10
CURVE: RHOB  2.000000   3.000000   (255,0,255)    Solid             2     Y
BACKUP: 1.000000   2.000000   (255,0,255)    Solid             2
BACKUP: 3.000000   4.000000   (255,0,255)    Solid             2
CURVE: PEF   0.000000   20.000000  (255,0,0)      Dot               2     N
ENDTRACK:
#
#   TRACK 5
#
STARTTRACK:
LEFTX: 3.500000 inch
RIGHTX: 8.500000 inch
SCALETYPE: Linear
NUMCHARTDIVISIONS: 10
CURVE: DT    140.000000 40.000000  (255,131,0)    Solid             2     Y
BACKUP: 240.000000 140.000000 (255,131,0)    Solid             2
ENDTRACK:
<DescLogPlotEnd>
~ASCII -----------------------------------------------------
# ...
 12093.60000  -31.72601  -60.32332    9.40333   15.56692    -999.25    -999.25    0.69899    0.48054    1.46971    2.45944  136.84405    0.29899   15.56692
 12093.70000  -29.56695  -59.57805    9.25813   14.75372    -999.25    -999.25    0.68413    0.46869    1.48304    2.41942  135.98905    0.29899   14.75372
 12093.80000  -27.44789  -58.83511    9.11840   13.98299    -999.25    -999.25    0.65903    0.45870    1.49296    2.37679  134.97581    0.29899   13.98299
 12093.90000  -25.13602  -58.09411    8.99024   13.17532    -999.25    -999.25    0.63392    0.44679    1.59665    2.32723  133.98287    0.29899   13.17532
 12094.00000  -22.75329  -57.35037    8.86053   13.17532    -999.25    -999.25    0.60151    0.43688    1.67928    2.28329  132.98239    0.29899   13.17532
 12094.10000  -20.94472  -56.60817    8.70811   13.05368    -999.25    -999.25    0.56573    0.42490    1.76190    2.26341  131.97060    0.29899   13.05368
 12094.20000  -20.27253  -55.86722    8.55333   13.72478    -999.25    -999.25    0.51525    0.41252    1.84453    2.26067  130.99682    0.29899   13.72478
 12094.30000  -20.71274  -55.12179    8.46823   14.50132    -999.25    -999.25    0.45448    0.41927    1.89799    2.25152  129.95581    0.29899   14.50132
 12094.40000  -21.99520  -54.37942    8.49949   15.32181    -999.25    -999.25    0.45299    0.43036    1.90805    2.24556  129.01438    0.29899   15.32181
 12094.50000  -24.12588  -53.63315    8.60816   16.20649    -999.25    -999.25    0.45113    0.44020    1.91391    2.28734  128.00704    0.29899   16.20649
 12094.60000  -27.16031  -52.88514    8.72035   17.05097    -999.25    -999.25    0.44926    0.45032    1.92612    2.39321  126.97183    0.29899   17.05097
 12094.70000  -30.61531  -52.15194    8.80982   18.08900    -999.25    -999.25    0.44723    0.46044    1.92597    2.52617  126.77666    0.29899   18.08900
 12094.80000  -33.99644  -51.41844    8.89712   19.04788    -999.25    -999.25    0.45617    0.47057    1.89994    2.64809  126.57344    0.29899   19.04788
 12094.90000  -37.34275  -50.65560    8.99598   20.20603    -999.25    -999.25    0.46596    0.48069    1.87519    2.75686  126.36821    0.29899   20.20603
 12095.00000  -40.73378  -49.89571    9.09838   22.53389    -999.25    -999.25    0.47575    0.49082    1.84691    2.86316  126.36821    0.29899   22.53389
 12095.10000  -44.10952  -49.23447    9.19417   25.33544    -999.25    -999.25    0.48554    0.50094    1.81669    2.97268  128.04477    0.29899   25.33544
 12095.20000  -47.48936  -48.72272    9.27427   28.27084    -999.25    -999.25    0.49476    0.51047    1.76335    3.09474  129.68813    0.29899   28.27084
 12095.30000  -50.88017  -48.30623    9.32512   31.81248    -999.25    -999.25    0.52259    0.51249    1.70824    3.22691  131.78129    0.29899   31.81248
 12095.40000  -54.20677  -47.89893    9.34247   35.47315    -999.25    -999.25    0.54888    0.51208    1.65295    3.33405  133.83380    0.29899   35.47315
 12095.50000  -57.46870  -47.46427    9.34330   39.94590    -999.25    -999.25    0.57518    0.51208    1.59942    3.38134  135.88632    0.29899   39.94590
 12095.60000  -60.59704  -47.01246    9.34763   44.53878    -999.25    -999.25    0.60147    0.51208    1.54288    3.38093  137.93883    0.29899   44.53878
 12095.70000  -63.44684  -46.57289    9.35214   50.13501    -999.25    -999.25    0.62777    0.50983    1.47073    3.37362  139.84909    0.29899   50.13501
 12095.80000  -66.38640  -46.16862    9.33473   55.45400    -999.25    -999.25    0.65406    0.50791    1.44281    3.37915  142.53435    0.29899   55.45400
 12095.90000  -70.08418  -45.76505    9.28436   54.39176    -999.25    -999.25    0.68036    0.50599    1.40393    3.39031  145.04556    0.29899   54.39176
 12096.00000  -74.11298  -45.26552    9.21488   53.15222    -999.25    -999.25    0.69898    0.50407    1.36348    3.39420  147.61181    0.29899   53.15222
 12096.10000  -76.97511  -44.61621    9.14614   52.06799    -999.25    -999.25    0.69944    0.50215    1.32329    3.37475  149.99941    0.29899   52.06799
 12096.20000  -78.01481  -43.88303    9.08431   51.00587    -999.25    -999.25    0.69890    0.50024    1.27286    3.31522  152.67216    0.29899   51.00587
 12096.30000  -78.40905  -43.16723    9.02381   50.09813    -999.25    -999.25    0.69940    0.49832    1.27057    3.21850  155.01823    0.29899   50.09813
 12096.40000  -79.06859  -42.48774    8.95915   50.09813    -999.25    -999.25    0.69890    0.49718    1.26750    3.11045  157.36471    0.29899   50.09813
 12096.50000  -79.78308  -41.80295    8.89086   58.01194    -999.25    -999.25    0.69928    0.49718    1.26442    3.01080  163.81663    0.29899   58.01194
 12096.60000  -80.14242  -41.09988    8.82750   65.98709    -999.25    -999.25    0.69895    0.50040    1.26080    2.91558  168.82774    0.29899   65.98709
 12096.70000  -80.23344  -40.39980    8.78243   75.05862    -999.25    -999.25    0.69914    0.50567    1.25933    2.81406  170.75669    0.29899   75.05862
 12096.80000  -80.29884  -39.70918    8.76097   83.43963    -999.25    -999.25    0.69898    0.50927    1.25753    2.70781  172.50656    0.29899   83.43963
 12096.90000  -80.04485  -39.01648    8.75304   83.43963    -999.25    -999.25    0.69900    0.51287    1.25574    2.60627  174.28043    0.29899   83.43963
 12097.00000  -79.15753  -38.31913    8.74550   83.43963    -999.25    -999.25    0.69895    0.51646    1.25394    2.51276  175.55200    0.29899   83.43963
 12097.10000  -77.89553  -37.62285    8.73691   69.59437    -999.25    -999.25    0.69891    0.52135    1.25215    2.42116  175.73332    0.29899   69.59437
 12097.20000  -76.49382  -36.92779    8.73352   59.81366    -999.25    -999.25    0.69889    0.51889    1.25036    2.32545  175.48976    0.29899   59.81366
 12097.30000  -74.96812  -36.23258    8.73713   51.40752    -999.25    -999.25    0.69884    0.51505    1.24856    2.22761  173.84929    0.29899   51.40752
 12097.40000  -73.47148  -35.53872    8.74460   44.18276    -999.25    -999.25    0.69883    0.51121    1.24673    2.13290  171.90447    0.29899   44.18276
 12097.50000  -72.29092  -34.84397    8.75335   37.97337    -999.25    -999.25    0.69890    0.50738    1.24573    2.03922  170.69935    0.29899   37.97337
 12097.60000  -70.91311  -34.14518    8.76159   32.63664    -999.25    -999.25    0.69874    0.50354    1.24573    1.94050  168.84909    0.29899   32.63664
 12097.70000  -68.17106  -33.44916    8.76793   28.04992    -999.25    -999.25    0.69873    0.49970    1.24573    1.84206  167.25721    0.29899   28.04992
 12097.80000  -65.40829  -32.76121    8.77483   24.10782    -999.25    -999.25    0.69871    0.49586    1.24573    1.76096  166.10664    0.29899   24.10782
 12097.90000  -63.49487  -32.06765    8.78556   20.71973    -999.25    -999.25    0.69870    0.49154    1.25061    1.70440  159.46197    0.29899   20.71973
 12098.00000  -60.85089  -31.35764    8.79476   17.80781    -999.25    -999.25    0.69868    0.47745    1.25477    1.65958  154.25956    0.29899   17.80781
 12098.10000  -56.38754  -30.65946    8.79068   15.30512    -999.25    -999.25    0.69867    0.46133    1.31488    1.61410  149.05714    0.29899   15.30512
 12098.20000  -51.51818  -30.02157    8.77007   13.80073    -999.25    -999.25    0.69865    0.44521    1.36962    1.57519  143.85473    0.29899   13.80073
 12098.30000  -47.38422  -29.45922    8.74258   13.97203    -999.25    -999.25    0.69864    0.42909    1.42437    1.55597  140.35211    0.29899   13.97203
 12098.40000  -43.37575  -28.95541    8.71701   14.10354    -999.25    -999.25    0.69862    0.41297    1.47911    1.55268  140.08249    0.29899   14.10354
 12098.50000  -39.03036  -28.49532    8.69305   14.23628    -999.25    -999.25    0.69860    0.39684    1.52312    1.55278  139.87928    0.29899   14.23628
 12098.60000  -34.71284  -28.06271    8.67084   14.37027    -999.25    -999.25    0.69859    0.38197    1.55173    1.55774  139.74849    0.29899   14.37027
 12098.70000  -30.60757  -27.62675    8.65676   14.50553    -999.25    -999.25    0.69159    0.37556    1.57564    1.57679  136.52679    0.29899   14.50553
