~Version ---------------------------------------------------
VERS. 2.0 : CWLS log ASCII Standard -VERSION 2.0
WRAP.  NO : One Line Per Depth Step
~Well ------------------------------------------------------
STRT .FT              8400.0 : START DEPTH
STOP .FT              9700.0 : STOP DEPTH
STEP .FT  0.1000000000003638 : STEP
NULL .               -999.25 : NULL VALUE
COMP .  PRESIDIO OIL COMPANY : COMPANY
WELL .     J.T. FEDERAL NO.5 : WELL
FLD  .   SOUTH HAY RESOURCES : FIELD
LOC  . 1266' FNL & 1684' FEL : LOCATION
CNTY .            SWEETWATER : COUNTY
STAT .               WYOMING : STATE
CTRY .                   USA : COUNTRY
SRVC .                       : SERVICE COMPANY
DATE .            30/06/1993 : DATE
API  .            4903723152 : API NUMBER
UWI  .               3723152 : UWI NUMBER
TVD  .                    NO : TVD flag
WSTA .                   LOC : Well status
USGS .                  S179 : USGS Number
LATI .DEG           41.97079 : LATITUDE
LONG .DEG           -108.322 : LONGITUDE
UTM-N.            4650002.36 : Northing
UTM-E.             721895.66 : Easting
CORE .                   N/A : Core/Log Offset
~Curve Information -----------------------------------------
DEPT    .FT                : Depth in Feet
GR      .GAPI 35 310 01 01 : Gamma Ray
SP      .MV   01 010 01 01 : Spontaneous Potential
CALI    .IN   70 280 01 01 : Caliper
ILD     .OHMM 05 120 46 01 : Deep Induction Standard Processed Resistivity
DPHI    .V/V  45 890 01 01 : Density Porosity
NPHI    .V/V  42 890 03 01 : Neutron Porosity
PE      .B/E               : PE
DT      .US/F 60 520 08 01 : Delta-T
ACOUSTIC.DEC               : ACOUSTIC
~Params ----------------------------------------------------
DATE. 30-06-1993 : Date As Month-Day-Year
RUN .        ONE : Run Number
PDAT.        UNK : Permanent Datum
EPD .FT   6607.0 : Elevation Of Perm. Datum
LMF .         KB : Log Measured From
FAPD.FT     16.0 : Feet Above Perm. Datum
DMF .         KB : Drilling Measured From
EKB .FT   6623.0 : Elevation Of Kelly Bushing
EDF .FT   6622.0 : Elevation Of Derrick Floor
EGL .FT   6607.0 : Elevation Of Ground Level
TD  .FT   9700.0 : Total Depth
DD  .FT   9780.0 : Depth Driller
DL  .FT   9724.0 : Depth Logger
BLI .FT   9720.0 : Bottom Log Interval
CSIZ.IN  9.625IN : Casing Size
CBD1.       1698 : Casing Bottom (Driller) 1
CBL1.       1697 : Casing Bottom (Logger) 1
BS  .IN  7.875IN : Bit Size
DFT .        GEL : Drilling Fluid Type
DFV .S      55.0 : Drilling Fluid Viscosity
DFD .LB/G   10.2 : Drilling Fluid Density
DFL .ML      7.6 : Drilling Fluid Loss
DFPH.        9.5 : Drilling Fluid Ph
MSS .   FLOWLINE : Mud Sample Source
RMS .OHMM    1.5 : Resistivity Of Mud Sample
MST .DEGF   74.0 : Mud Sample Temperature
RMF .OHMM    1.8 : Mud Filtrate Resistivity
MFST.DEGF   66.0 : Mud Filtrate Sample Temperature
RMC .OHMM   2.44 : Mud Cake Resistivity
MCST.DEGF   69.0 : Mud Cake Sample Temperature
RMB .OHMM    0.6 : Mud Resistivity At Bht
BHT .DEGF  197.0 : Bottom Hole Temperature
MRT .DEGF  197.0 : Maximum Recorded Temperature
LUN .      52546 : Logging Unit Number
LUL .      VERNL : Logging Unit Location
ENGI.    K EVATT : Engineer'S Name
WITN.    HEFFNER : Witness' Name
DGBY.        R2V : 
WSTA.        LOC : 
~Other -----------------------------------------------------
<DescLogPlotStart>   NEURALOG PLOT DEFINITION
PLOTDEFVERSION: 3
LASFILE: C:\nds\projects\mf-nov-13\las\3723152A.las
DEPTHSCALE: 240.000000
RESOLUTION: 200
DEPTHLABELFREQ: 100.000000
HEAVYGRIDFREQ: 100.000000
MEDIUMGRIDFREQ: 50.000000
LIGHTGRIDFREQ: 10.000000
#
#   TRACK 1
#
STARTTRACK:
LEFTX: 0.500000 inch
RIGHTX: 3.000000 inch
SCALETYPE: Linear
NUMCHARTDIVISIONS: 10
CURVE: GR    0.000000   150.000000 (0,0,255)      Solid             2     N
CURVE: SP    -100.000000 0.000000   (0,131,131)    Dot               2     N
ENDTRACK:
#
#   TRACK 2
#
STARTTRACK:
LEFTX: 0.500000 inch
RIGHTX: 3.000000 inch
SCALETYPE: Linear
NUMCHARTDIVISIONS: 10
CURVE: CALI  6.000000   16.000000  (255,0,255)    Solid             2     Y
BACKUP: -4.000000  6.000000   (255,0,255)    Solid             2
ENDTRACK:
#
#   TRACK 3
#
STARTTRACK:
LEFTX: 3.500000 inch
RIGHTX: 8.500000 inch
SCALETYPE: Log
NUMCYCLES: 4
STARTCYCLE: 2
CURVE: ILD   0.200000   2000.000000 (255,0,0)      Solid             2     N
ENDTRACK:
#
#   TRACK 4
#
STARTTRACK:
LEFTX: 3.500000 inch
RIGHTX: 8.500000 inch
SCALETYPE: Linear
NUMCHARTDIVISIONS: 10
CURVE: DPHI  0.300000   -0.100000  (255,131,0)    Solid             2     Y
BACKUP: 0.700000   0.300000   (255,131,0)    Solid             2
CURVE: NPHI  0.300000   -0.100000  (255,255,0)    Dot               2     Y
BACKUP: 0.700000   0.300000   (255,255,0)    Dot               2
ENDTRACK:
#
#   TRACK 5
#
STARTTRACK:
LEFTX: 3.500000 inch
RIGHTX: 6.000000 inch
SCALETYPE: Linear
NUMCHARTDIVISIONS: 10
CURVE: PE    0.000000   10.000000  (0,0,255)      Solid             2     N
ENDTRACK:
#
#   TRACK 6
#
STARTTRACK:
LEFTX: 8.500000 inch
RIGHTX: 13.500000 inch
SCALETYPE: Linear
NUMCHARTDIVISIONS: 10
CURVE: DT    140.000000 40.000000  (0,131,131)    Solid             2     Y
BACKUP: 40.000000  -60.000000 (0,131,131)    Solid             2
CURVE: ACOUSTIC 0.300000   -0.100000  (255,0,255)    Dot               2     Y
BACKUP: 0.700000   0.300000   (255,0,255)    Dot               2
BACKUP: -0.100000  -0.500000  (255,0,255)    Dot               2
ENDTRACK:
<DescLogPlotEnd>
~ASCII -----------------------------------------------------
# ...
 9414.70000  101.19436  -11.23428    9.52129   14.38938   -0.00392    0.15841    3.40527   74.89336    0.16964
 9414.80000  101.37020  -11.19838    9.52014   14.38265   -0.00350    0.15845    3.39637   74.87120    0.16933
 9414.90000  101.56019  -11.15573    9.51805   14.37592   -0.00307    0.15848    3.38778   74.84903    0.16902
 9415.00000  101.70606  -11.10237    9.51537   14.36919   -0.00264    0.15853    3.38473   74.83773    0.16871
 9415.10000  101.82796  -11.06044    9.51269   14.36247   -0.00222    0.15855    3.38661   74.70559    0.16840
 9415.20000  101.97226  -11.06351    9.51018   14.35575   -0.00179    0.15861    3.38955   74.61692    0.16795
 9415.30000  102.15612  -11.12805    9.50767   14.34903   -0.00142    0.15862    3.39179   74.52825    0.16795
 9415.40000  102.33451  -11.22997    9.50508   14.34232   -0.00126    0.15869    3.39370   74.43958    0.16795
 9415.50000  102.44917  -11.31155    9.50248   14.33561   -0.00112    0.15869    3.39554   74.35091    0.16795
 9415.60000  102.56595  -11.34656    9.49993   14.32890   -0.00102    0.15875    3.39752   74.22921    0.16795
 9415.70000  102.88091  -11.39902    9.49738   14.32220   -0.00047    0.15931    3.40022   74.18594    0.16795
 9415.80000  103.47583  -11.56501    9.49481   14.31549   -0.00004    0.15980    3.40297   74.11697    0.16795
 9415.90000  104.20286  -11.85558    9.49223   14.30881    0.00039    0.16023    3.40305   74.02637    0.16795
 9416.00000  104.86711  -12.19909    9.48967   14.30239    0.00102    0.16072    3.39880   74.07961    0.16795
 9416.10000  105.43653  -12.54719    9.48711   14.29567    0.00095    0.16116    3.39175   74.15720    0.16795
 9416.20000  106.00851  -12.89047    9.48454   14.28893    0.00083    0.16163    3.38424   74.23479    0.16795
 9416.30000  106.63636  -13.18100    9.48198   14.28287    0.00071    0.16209    3.37682   74.31237    0.16795
 9416.40000  107.29019  -13.35156    9.47941   14.27568    0.00059    0.16255    3.36975   74.38996    0.16795
 9416.50000  107.93401  -13.42336    9.47685   14.26895    0.00046    0.16301    3.36507   74.46755    0.16795
 9416.60000  108.55089  -13.49471    9.47429   14.26384    0.00034    0.16347    3.36441   74.54513    0.16795
 9416.70000  109.06025  -13.60552    9.47172   14.25533    0.00020    0.16394    3.36640   74.62272    0.16795
 9416.80000  109.30001  -13.70608    9.46916   14.24866   -0.00024    0.16443    3.36828   74.70030    0.16795
 9416.90000  109.18341  -13.77453    9.46659   14.24199   -0.00075    0.16474    3.36928   74.77789    0.16795
 9417.00000  108.80096  -13.86327    9.46403   14.23533   -0.00126    0.16504    3.37036   74.85548    0.16795
 9417.10000  108.28534  -13.99358    9.46147   14.22866   -0.00177    0.16539    3.37191   74.93915    0.16795
 9417.20000  107.69053  -14.08901    9.45890   14.22201   -0.00224    0.16567    3.37332   74.84381    0.16795
 9417.30000  107.07831  -14.06149    9.45634   14.21203   -0.00310    0.16604    3.37446   74.74037    0.16698
 9417.40000  106.53675  -13.90794    9.45378   14.21203   -0.00390    0.16630    3.37582   74.63692    0.16594
 9417.50000  105.99039  -13.69128    9.45122   14.37256   -0.00469    0.16670    3.37738   74.53347    0.16491
 9417.60000  105.27906  -13.47742    9.44865   14.48058   -0.00548    0.16684    3.37857   74.43002    0.16387
 9417.70000  104.53941  -13.32781    9.44608   14.58942   -0.00627    0.16640    3.37954   74.32657    0.16284
 9417.80000  104.20022  -13.29213    9.44353   14.69908   -0.00707    0.16585    3.38126   74.22921    0.16181
 9417.90000  104.41834  -13.36089    9.44097   14.80956   -0.00752    0.16555    3.38335   73.93190    0.16077
 9418.00000  104.82860  -13.45990    9.43839   14.92087   -0.00677    0.16520    3.38324   73.65112    0.15974
 9418.10000  105.06877  -13.53206    9.43581   15.03302   -0.00624    0.16381    3.37861   73.37033    0.15870
 9418.20000  105.20390  -13.58555    9.43328   15.14601   -0.00572    0.16268    3.37022   73.08954    0.15781
 9418.30000  105.44943  -13.65053    9.43075   15.30095   -0.00518    0.16168    3.36102   72.81652    0.15733
 9418.40000  105.77212  -13.72598    9.42813   15.33033   -0.00469    0.16066    3.35277   72.51795    0.15693
 9418.50000  105.98601  -13.79521    9.42550   15.57485   -0.00414    0.15963    3.34479   72.30894    0.15651
 9418.60000  105.98803  -13.85642    9.42305   15.78686   -0.00363    0.15861    3.33603   72.39515    0.15610
 9418.70000  105.71422  -13.92159    9.42070   15.94983   -0.00310    0.15759    3.32711   72.51007    0.15568
 9418.80000  105.10151  -13.99584    9.41796   16.15944   -0.00256    0.15656    3.31916   72.58203    0.15528
 9418.90000  104.22311  -14.06749    9.41458   16.33504   -0.00206    0.15549    3.31145   72.67350    0.15485
 9419.00000  103.23913  -14.12520    9.41090   16.54045   -0.00150    0.15305    3.30210   72.75258    0.15447
 9419.10000  102.22014  -14.18624    9.40738   16.72871   -0.00105    0.15061    3.29127   72.83548    0.15401
 9419.20000  101.22225  -14.27127    9.40405   16.93150   -0.00112    0.14825    3.28116   72.92429    0.15366
 9419.30000  100.37101  -14.35137    9.40068   17.13023   -0.00132    0.14599    3.27166   72.99681    0.15316
 9419.40000   99.57385  -14.38923    9.39722   17.33368   -0.00135    0.14373    3.25933   73.09576    0.15287
 9419.50000   98.34758  -14.43974    9.39377   17.53967   -0.00158    0.14148    3.24211   73.15932    0.15231
 9419.60000   96.35946  -14.61722    9.39038   17.74677   -0.00159    0.13922    3.22248   73.23171    0.15206
 9419.70000   93.95530  -14.94428    9.38697   17.95798   -0.00183    0.13697    3.20385   73.10540    0.15166
 9419.80000   91.74426  -15.33219    9.38354   18.17054   -0.00183    0.13557    3.18661   72.55189    0.14904
 9419.90000   89.86168  -15.71662    9.38012   18.38589   -0.00006    0.13043    3.16941   72.15947    0.14716
 9420.00000   87.73976  -16.09601    9.37670   18.60378    0.00122    0.12671    3.15166   71.76705    0.14528
 9420.10000   85.63499  -16.43307    9.37329   18.82426    0.00250    0.12299    3.13336   71.37462    0.14340
 9420.20000   83.63082  -16.65490    9.36987   19.04735    0.00378    0.11927    3.11512   70.98220    0.14152
 9420.30000   81.58095  -16.77237    9.36644   19.27309    0.00506    0.11555    3.09808   70.58978    0.13964
 9420.40000   79.52453  -16.88306    9.36302   19.50150    0.00671    0.11077    3.08151   70.19736    0.13776
 9420.50000   77.45412  -17.03747    9.35961   19.73261    0.00846    0.10964    3.06247   69.80494    0.13589
 9420.60000   75.37808  -17.19869    9.35619   19.96647    0.01091    0.10807    3.04106   69.41251    0.13401
 9420.70000   73.40259  -17.33748    9.35276   20.20309    0.01337    0.10649    3.02347   69.02009    0.13213
 9420.80000   71.34282  -17.47463    9.34934   20.44253    0.01582    0.10491    3.01530   68.62767    0.13063
 9420.90000   69.07323  -17.62425    9.34593   20.68480    0.01828    0.10333    3.01420   68.34686    0.12797
 9421.00000   67.01929  -17.77079    9.34252   20.92994    0.02073    0.10175    3.01347   67.96822    0.12576
 9421.10000   65.35544  -17.91027    9.33908   21.17798    0.02319    0.10017    3.01051   67.67343    0.12355
 9421.20000   63.67844  -18.05850    9.33565   21.42897    0.02541    0.09859    3.00750   67.37863    0.12134
 9421.30000   62.13159  -18.21293    9.33225   21.68293    0.02715    0.09701    3.00567   67.08384    0.11913
 9421.40000   61.30237  -18.34152    9.32886   21.94132    0.02874    0.09573    3.00384   66.72414    0.11648
 9421.50000   60.78722  -18.42482    9.32539   22.19997    0.03033    0.09593    3.00132   66.70690    0.11629
 9421.60000   60.33256  -18.48062    9.32190   22.46558    0.03192    0.09609    2.99894   66.68479    0.11650
 9421.70000   59.86966  -18.53763    9.31873   22.72848    0.03351    0.09626    2.99697   66.66268    0.11628
 9421.80000   59.56563  -18.60196    9.31616   23.00256    0.03510    0.09642    2.99465   66.64057    0.11651
 9421.90000   59.46103  -18.66630    9.31417   23.26959    0.03669    0.09658    2.99201   66.62272    0.11628
