~Version ---------------------------------------------------
VERS.   2.0 : CWLS log ASCII Standard -VERSION 2.0
WRAP.    NO : One line per depth step
DLM . SPACE : Column Data Section Delimiter
~Well ------------------------------------------------------
STRT.FT       8390.0 : START DEPTH
STOP.FT       9710.0 : STOP DEPTH
STEP.FT          0.5 : STEP
NULL.        -999.25 : NULL VALUE
COMP.  HRM Resources : COMPANY
WELL.  23-12 Hay Dam : WELL
FLD .        Hay Dam : FIELD
LOC . 23N R97W Sec12 : LOCATION
CNTY.     Sweetwater : COUNTY
STAT.             WY : STATE
CTRY.            USA : COUNTRY
SRVC.            SLB : SERVICE COMPANY
DATE.     11/14/2019 : DATE
API .     4903723253 : API NUMBER
UWI .       3723253A : UWI NUMBER
TVD .             NO : TVD flag
WSTA.            LOC : Well status
USGS.           E974 : USGS Number
LATI.DEG     41.97803: LATITUDE
LONG.DEG    -108.3282: LONGITUDE
UTM-N.     4650790.25: Northing
UTM-E.       721356.8: Easting
CORE.             -13: Core/Log Offset
~Curve Information -----------------------------------------
DEPT.FT               : Depth in Feet
GR  .API 35 310 01 01 : Gamma Ray
CALI.IN  70 280 01 01 : Caliper
PEF .BARN             : Photoelectric Effect
NPHI.V/V 42 890 03 01 : Neutron Porosity
DPHI.V/V 45 890 01 01 : Density Porosity
SP  .                 : 
ILD .                 : 
~Params ----------------------------------------------------
~Other -----------------------------------------------------
~ASCII -----------------------------------------------------
# ...
 9650.00000  150.63900    8.67700    3.12200    0.20300   -0.01000    3.03200   10.94800
 9650.50000  148.62500    8.68400    3.09200    0.20400   -0.01100    3.01200   10.40000
 9651.00000  146.80900    8.69100    3.18200    0.19800   -0.01100    2.99300    9.87700
 9651.50000  150.13400    8.69800    3.34600    0.19200   -0.00600    2.97200    9.38000
 9652.00000  157.55700    8.70500    3.51100    0.19200    0.00800    2.92000    8.91000
 9652.50000  164.30200    8.72400    3.67600    0.21700    0.02100    2.79000    8.46300
 9653.00000  164.41900    8.74600    3.68700    0.23000    0.03500    2.66200    8.11800
 9653.50000  163.90000    8.76800    3.64700    0.24200    0.04100    2.60900    8.11800
 9654.00000  162.31300    8.79000    3.58500    0.24400    0.04600    2.90900    8.11800
 9654.50000  160.75400    8.80600    3.52200    0.24200    0.04600    3.20200    7.85700
 9655.00000  159.47500    8.79700    3.46000    0.23500    0.04400    3.49500    7.46100
 9655.50000  159.21300    8.79000    3.40400    0.23400    0.04100    3.76500    7.26600
 9656.00000  159.99200    8.75300    3.36400    0.23700    0.04100    3.75900    7.16900
 9656.50000  164.31900    8.70600    3.32500    0.24300    0.04000    3.74400    7.13500
 9657.00000  169.82800    8.66200    3.29200    0.25200    0.03900    3.73200    7.10200
 9657.50000  175.31800    8.64800    3.29300    0.25900    0.03800    3.71900    7.06700
 9658.00000  178.38500    8.63200    3.28000    0.26200    0.03600    3.70600    7.27100
 9658.50000  173.01900    8.61700    3.26400    0.24500    0.03200    3.69400    7.55500
 9659.00000  164.94300    8.60500    3.24800    0.22500    0.02600    3.68100    7.85000
 9659.50000  157.03100    8.60600    3.23200    0.20800    0.02000    3.66900    8.15700
 9660.00000  151.85500    8.60600    3.21600    0.20200    0.01600    3.65600    8.47600
 9660.50000  146.51600    8.60600    3.21200    0.19800    0.01500    3.64300    8.80700
 9661.00000  141.45500    8.60600    3.18400    0.19500    0.01600    3.63100    9.15200
 9661.50000  139.56300    8.60600    3.15300    0.19200    0.01700    3.61800    9.43700
 9662.00000  141.25800    8.60600    3.20100    0.19200    0.01500    3.60500    9.52600
 9662.50000  143.37400    8.60600    3.25800    0.19400    0.01200    3.59300    9.58900
 9663.00000  144.19600    8.60600    3.29200    0.19900    0.00900    3.58000    9.58900
 9663.50000  142.07800    8.60600    3.30300    0.20400    0.00800    3.57100    9.43800
 9664.00000  139.12900    8.60600    3.31900    0.20500    0.00900    3.62900    9.27600
 9664.50000  136.91500    8.60600    3.33600    0.20500    0.01100    3.68600    9.11700
 9665.00000  139.12100    8.60600    3.35400    0.20500    0.01200    3.74300    8.98600
 9665.50000  142.99900    8.60600    3.30800    0.20700    0.01400    3.76800    8.98600
 9666.00000  146.13600    8.60600    3.24400    0.20800    0.01600    3.84600    8.98800
 9666.50000  146.91600    8.60600    3.23200    0.20800    0.01700    3.94800    9.13200
 9667.00000  145.88800    8.60600    3.24800    0.20600    0.01700    4.05000    9.25400
 9667.50000  144.89100    8.60200    3.26800    0.20400    0.01700    4.15200    9.37700
 9668.00000  143.90000    8.59900    3.24400    0.20100    0.01600    4.25500    9.50100
 9668.50000  142.73600    8.59600    3.20200    0.19600    0.01200    4.36400    9.62800
 9669.00000  140.65600    8.59300    3.17200    0.19200    0.00600    4.16600    9.76800
 9669.50000  138.56200    8.59000    3.21700    0.18700   -0.00300    3.91100    9.85500
 9670.00000  136.68900    8.58700    3.27500    0.18800   -0.01200    3.76000    9.95200
 9670.50000  138.97100    8.58500    3.27900    0.19100   -0.01700    3.74000   10.05000
 9671.00000  143.94100    8.58300    3.25100    0.19300   -0.01300    3.71900   10.14800
 9671.50000  148.83900    8.58100    3.23600    0.19500   -0.00700    3.69800   10.23000
 9672.00000  152.39100    8.57900    3.25900    0.19800   -0.00100    3.67700   10.23900
 9672.50000  151.02100    8.57800    3.28100    0.20200    0.00400    3.65600   10.28800
 9673.00000  148.90200    8.57600    3.30400    0.20700    0.00800    3.63600   10.32300
 9673.50000  150.76200    8.57400    3.32900    0.21100    0.00900    3.61500   10.33000
 9674.00000  153.15300    8.57200    3.30900    0.20900    0.00800    3.59300    9.72700
 9674.50000  155.35800    8.57100    3.28500    0.20700    0.00600    3.56900    9.19000
 9675.00000  157.14900    8.56900    3.25900    0.20800    0.00500    3.72000    8.68300
 9675.50000  158.88000    8.56700    3.23400    0.21100    0.01300    3.91100    8.20400
 9676.00000  164.39100    8.56600    3.20900    0.22300    0.02400    4.10500    7.83600
 9676.50000  171.70800    8.57200    3.18300    0.23500    0.03600    4.11800    7.65400
 9677.00000  178.21000    8.57800    3.15600    0.24800    0.04200    4.03500    7.47600
 9677.50000  175.44600    8.58400    3.18600    0.26000    0.04300    3.94900    7.40100
 9678.00000  172.40200    8.57900    3.28400    0.26400    0.04200    3.86300    7.40100
 9678.50000  169.37800    8.57100    3.38100    0.24200    0.04400    3.77900    7.47000
 9679.00000  166.35500    8.56600    3.44300    0.22200    0.04500    3.81000    7.63700
 9679.50000  163.33000    8.59300    3.48400    0.22700    0.04500    3.85600    7.84800
 9680.00000  160.22700    8.61900    3.52300    0.23300    0.04600    3.90200    8.06400
 9680.50000  160.40300    8.65200    3.55600    0.23400    0.04500    3.94700    8.27000
 9681.00000  162.96700    8.68600    3.50100    0.22000    0.04300    3.99300    8.27000
 9681.50000  165.66600    8.72100    3.41000    0.22400    0.04100    4.03800    8.23800
 9682.00000  167.03700    8.75600    3.31900    0.21800    0.04300    4.08400    8.21800
 9682.50000  170.72500    8.78800    3.26900    0.22100    0.04400    4.13000    8.19400
 9683.00000  177.10000    8.79400    3.26100    0.23100    0.04800    4.17100    7.78800
 9683.50000  181.02400    8.80100    3.24900    0.24200    0.05200    4.13200    7.37800
 9684.00000  180.09700    8.80500    3.19500    0.25200    0.05600    4.09100    6.99000
 9684.50000  174.32000    8.75700    3.08700    0.25500    0.05300    4.05000    6.62400
 9685.00000  168.53300    8.70700    2.98300    0.25500    0.04700    4.00900    6.53300
 9685.50000  162.63000    8.65700    2.98300    0.25400    0.04200    3.96800    6.42200
 9686.00000  160.67600    8.60700    3.04800    0.25500    0.04000    3.92700    6.31400
 9686.50000  160.82400    8.58500    3.09700    0.25600    0.04200    3.88600    6.20700
 9687.00000  161.47300    8.58300    3.14600    0.25800    0.04400    3.84500    6.11200
 9687.50000  163.20200    8.58100    3.19200    0.26000    0.04800    3.80400    6.03100
 9688.00000  169.08800    8.57900    3.18600    0.26100    0.05100    3.76900    5.95000
 9688.50000  174.85800    8.57700    3.15900    0.26300    0.05500    3.75700    5.82500
 9689.00000  175.99600    8.57600    3.13300    0.26400    0.05700    3.67800    5.68400
 9689.50000  172.70400    8.57400    3.13200    0.26600    0.05700    3.59800    5.54700
 9690.00000  167.58300    8.57200    3.14400    0.26800    0.05700    3.59500    5.41300
 9690.50000  161.51600    8.57000    3.15600    0.26500    0.05500    3.63600    5.25700
 9691.00000  157.64700    8.56900    3.16800    0.26200    0.05200    3.67700    5.27300
 9691.50000  159.55500    8.56700    3.18000    0.25800    0.04800    3.71900    5.29300
 9692.00000  161.14800    8.56500    3.19300    0.25500    0.04900    3.76100    5.30500
 9692.50000  160.69000    8.56300    3.15500    0.25300    0.05200    3.80300    5.40100
 9693.00000  160.37400    8.56100    3.10500    0.25300    0.05400    3.84400    5.50300
 9693.50000  160.94100    8.56000    3.05600    0.25300    0.05500    3.88600    5.67700
 9694.00000  161.52500    8.55800    3.01100    0.25300    0.05500    3.92800    5.93500
 9694.50000  160.73900    8.55600    3.01200    0.25300    0.05200    3.97100    6.20400
