~Version ---------------------------------------------------
VERS. 2.0 : CWLS log ASCII Standard -VERSION 2.0
WRAP.  NO : One Line Per Depth Step
~Well ------------------------------------------------------
STRT .FT              12000.0 : START DEPTH
STOP .FT              13400.0 : STOP DEPTH
STEP .FT   0.1000000000003638 : STEP
NULL .                -999.25 : NULL VALUE
COMP . ENRON OIL &GAS COMPANY : COMPANY
WELL .       CEPO-LEWIS 21-38 : WELL
FLD  .             CEPO-LEWIS : FIELD
LOC  .   1205' FWL &1300' FSL : LOCATION
CNTY .             SWEETWATER : COUNTY
STAT .                WYOMING : STATE
CTRY .                    USA : COUNTRY
SRVC .                        : SERVICE COMPANY
DATE .             25/05/1998 : DATE
API  .             4903724185 : API NUMBER
UWI  .                3724185 : UWI NUMBER
TVD  .                     NO : TVD flag
WSTA .                    LOC : Well status
USGS .                   CEPO : USGS Number
LATI .DEG            41.18194 : LATITUDE
LONG .DEG          -108.14139 : LONGITUDE
UTM-N.             4562894.53 : Northing
UTM-E.              739764.57 : Easting
CORE .FT                 -3.9 : Core/Log Offset
~Curve Information -----------------------------------------
DEPT .FT                : Depth in Feet
GR   .GAPI 35 310 01 01 : Gamma Ray
SP   .MV   01 010 01 01 : Spontaneous Potential
CALI .IN   70 280 01 01 : Caliper
AHT90.OHMM              : 
ILD  .OHMM 05 120 46 01 : Deep Induction Standard Processed Resistivity
HCAL .IN                : 
DPHI .V/V  45 890 01 01 : Density Porosity
NPOR .V/V               : Neutron Porosity Output From An Application Program
RHOB .G/C3 42 350 01 01 : Bulk Density
PEF  .b/e               : Photo-Electric Factor
DT   .US/F 60 520 08 01 : Delta-T
SPHI .V/V  61 890 01 01 : Sonic Porosity
RESD .OHMM              : Deep Resistivity - Merged AHT90 & ILD
~Params ----------------------------------------------------
DATE.  25-05-1998 : Date As Month-Day-Year
RUN .         ONE : Run Number
PDAT.         UNK : Permanent Datum
EPD .FT    6416.0 : Elevation Of Perm. Datum
LMF .          KB : Log Measured From
FAPD.FT      21.0 : Feet Above Perm. Datum
DMF .          KB : Drilling Measured From
EKB .FT    6437.0 : Elevation Of Kelly Bushing
EDF .FT    6436.0 : Elevation Of Derrick Floor
EGL .FT    6416.0 : Elevation Of Ground Level
TD  .FT   13400.0 : Total Depth
DD  .FT   12587.0 : Depth Driller
DL  .FT   12616.0 : Depth Logger
BLI .FT   12602.0 : Bottom Log Interval
TLI .FT    2346.0 : Top Log Interval
DFT .    GEL-CHEM : Drilling Fluid Type
LUN .        8269 : Logging Unit Number
LUL . ROCK SPRING : Logging Unit Location
DGBY.         R2V : 
WSTA.         LOC : 
~Other -----------------------------------------------------
<DescLogPlotStart>   NEURALOG PLOT DEFINITION
PLOTDEFVERSION: 3
LASFILE: C:\nds\projects\mf-nov-13\las\3724185G.las
DEPTHSCALE: 240.000000
RESOLUTION: 200
DEPTHLABELFREQ: 100.000000
HEAVYGRIDFREQ: 100.000000
MEDIUMGRIDFREQ: 50.000000
LIGHTGRIDFREQ: 10.000000
#
#   TRACK 1
#
STARTTRACK:
LEFTX: 0.500000 inch
RIGHTX: 3.000000 inch
SCALETYPE: Linear
NUMCHARTDIVISIONS: 10
CURVE: GR    0.000000   150.000000 (0,0,255)      Solid             2     N
CURVE: SP    -100.000000 0.000000   (0,131,131)    Dot               2     Y
BACKUP: 0.000000   100.000000 (0,131,131)    Dot               2
BACKUP: 100.000000 200.000000 (0,131,131)    Dot               2
BACKUP: 200.000000 300.000000 (0,131,131)    Dot               2
BACKUP: 300.000000 400.000000 (0,131,131)    Dot               2
CURVE: CALI  4.000000   14.000000  (255,0,255)    Short_Dash        2     N
CURVE: HCAL  4.000000   14.000000  (255,0,0)      Medium_Dash       2     Y
BACKUP: -6.000000  4.000000   (255,0,0)      Medium_Dash       2
ENDTRACK:
#
#   TRACK 2
#
STARTTRACK:
LEFTX: 3.500000 inch
RIGHTX: 8.500000 inch
SCALETYPE: Log
NUMCYCLES: 4
STARTCYCLE: 2
CURVE: AHT90 0.200000   2000.000000 (255,131,0)    Solid             2     N
CURVE: ILD   0.200000   2000.000000 (255,255,0)    Dot               2     N
ENDTRACK:
#
#   TRACK 3
#
STARTTRACK:
LEFTX: 3.500000 inch
RIGHTX: 8.500000 inch
SCALETYPE: Linear
NUMCHARTDIVISIONS: 10
CURVE: DPHI  0.300000   -0.100000  (0,0,255)      Solid             2     Y
BACKUP: 0.700000   0.300000   (0,0,255)      Solid             2
CURVE: NPOR  0.300000   -0.100000  (0,131,131)    Dot               2     Y
BACKUP: 0.700000   0.300000   (0,131,131)    Dot               2
ENDTRACK:
#
#   TRACK 4
#
STARTTRACK:
LEFTX: 3.500000 inch
RIGHTX: 8.500000 inch
SCALETYPE: Linear
NUMCHARTDIVISIONS: 10
CURVE: RHOB  2.000000   3.000000   (255,0,255)    Solid             2     Y
BACKUP: 1.000000   2.000000   (255,0,255)    Solid             2
BACKUP: 3.000000   4.000000   (255,0,255)    Solid             2
CURVE: PEF   0.000000   20.000000  (255,0,0)      Dot               2     N
ENDTRACK:
#
#   TRACK 5
#
STARTTRACK:
LEFTX: 3.500000 inch
RIGHTX: 8.500000 inch
SCALETYPE: Linear
NUMCHARTDIVISIONS: 10
CURVE: DT    140.000000 40.000000  (255,131,0)    Solid             2     Y
BACKUP: 240.000000 140.000000 (255,131,0)    Solid             2
ENDTRACK:
<DescLogPlotEnd>
~ASCII -----------------------------------------------------
# ...
 12551.20000    0.91323  -10.60423    8.73072    4.48669    -999.25    -999.25    0.01932    0.22810    2.64574    3.16324   78.52515    0.19900    4.48669
 12551.30000    0.84939  -10.72312    8.73228    4.52976    -999.25    -999.25    0.02024    0.22774    2.64497    3.17366   78.36396    0.19779    4.52976
 12551.40000    0.77717  -10.84212    8.73383    4.57324    -999.25    -999.25    0.02135    0.22732    2.64419    3.18463   78.20277    0.19659    4.57324
 12551.50000    0.60428  -10.96362    8.73539    4.61714    -999.25    -999.25    0.02260    0.22691    2.64291    3.19621   78.04158    0.19539    4.61714
 12551.60000    0.30058  -11.08460    8.73695    4.66233    -999.25    -999.25    0.02384    0.22649    2.64073    3.20755   77.87726    0.19419    4.66233
 12551.70000   -0.10756  -11.20078    8.73850    4.66352    -999.25    -999.25    0.02509    0.22569    2.63763    3.21801   77.74178    0.19300    4.66352
 12551.80000   -0.62993  -11.31796    8.74005    4.63640    -999.25    -999.25    0.02633    0.22454    2.63414    3.22846   77.60362    0.19176    4.63640
 12551.90000   -1.29841  -11.44441    8.74162    4.61135    -999.25    -999.25    0.02758    0.22338    2.63128    3.24055   77.46546    0.19059    4.61135
 12552.00000   -2.07393  -11.56666    8.74317    4.58522    -999.25    -999.25    0.02870    0.22223    2.62991    3.25295   77.32730    0.18935    4.58522
 12552.10000   -2.85917  -11.65133    8.74472    4.55993    -999.25    -999.25    0.02847    0.22108    2.62998    3.26054   77.18913    0.18833    4.55993
 12552.20000   -3.60591  -11.68289    8.74627    4.53467    -999.25    -999.25    0.02827    0.21992    2.63064    3.25991   77.07243    0.18807    4.53467
 12552.30000   -4.34169  -11.68402    8.74785    4.50897    -999.25    -999.25    0.02806    0.21878    2.63130    3.25379   77.07243    0.18787    4.50897
 12552.40000   -5.09924  -11.68675    8.74941    4.48463    -999.25    -999.25    0.02790    0.21762    2.63206    3.24751   77.07243    0.18766    4.48463
 12552.50000   -5.87186  -11.69860    8.75092    4.45857    -999.25    -999.25    0.02708    0.21648    2.63324    3.24296   77.07243    0.18750    4.45857
 12552.60000   -6.62827  -11.70942    8.75248    4.43509    -999.25    -999.25    0.02640    0.21531    2.63467    3.23841   77.07243    0.18752    4.43509
 12552.70000   -7.32694  -11.71564    8.75413    4.40881    -999.25    -999.25    0.02573    0.21418    2.63596    3.23282   77.07243    0.18749    4.40881
 12552.80000   -7.93925  -11.72253    8.75562    4.38599    -999.25    -999.25    0.02505    0.21300    2.63718    3.22727   77.20724    0.18752    4.38599
 12552.90000   -8.49366  -11.73192    8.75650    4.36847    -999.25    -999.25    0.02438    0.21188    2.63863    3.22258   77.31087    0.18834    4.36847
 12553.00000   -9.05067  -11.74088    8.75669    4.33628    -999.25    -999.25    0.02371    0.21115    2.64007    3.21780   77.41449    0.18902    4.33628
 12553.10000   -9.59826  -11.74856    8.75659    4.30970    -999.25    -999.25    0.02303    0.21025    2.64075    3.21197   77.47485    0.18964    4.30970
 12553.20000  -10.03124  -11.75648    8.75655    4.28653    -999.25    -999.25    0.02266    0.20956    2.64033    3.20643   77.62173    0.19031    4.28653
 12553.30000  -10.25992  -11.76499    8.75657    4.26141    -999.25    -999.25    0.02265    0.20893    2.63929    3.20402   77.72535    0.19096    4.26141
 12553.40000  -10.26049  -11.77337    8.75655    4.23706    -999.25    -999.25    0.02299    0.20796    2.63831    3.20586   77.87726    0.19161    4.23706
 12553.50000   -9.98234  -11.78155    8.75655    4.21284    -999.25    -999.25    0.02364    0.20755    2.63756    3.20999   77.97133    0.19225    4.21284
 12553.60000   -9.32824  -11.78978    8.75661    4.18876    -999.25    -999.25    0.02433    0.20755    2.63677    3.21384   78.14748    0.19316    4.18876
 12553.70000   -8.31004  -11.79802    8.75654    4.16482    -999.25    -999.25    0.02497    0.20755    2.63584    3.21693   78.32364    0.19405    4.16482
 12553.80000   -7.12571  -11.80628    8.75640    4.14101    -999.25    -999.25    0.02566    0.20755    2.63494    3.22014   78.49980    0.19555    4.14101
 12553.90000   -5.97893  -11.81481    8.75653    4.11734    -999.25    -999.25    0.02629    0.20755    2.63416    3.22375   78.67596    0.19705    4.11734
 12554.00000   -4.88793  -11.82328    8.75676    4.09381    -999.25    -999.25    0.02700    0.20820    2.63334    3.22728   78.85211    0.19856    4.09381
 12554.10000   -3.76463  -11.83125    8.75644    4.07041    -999.25    -999.25    0.02762    0.20915    2.63236    3.23060   79.02827    0.20006    4.07041
 12554.20000   -2.60947  -11.83939    8.75593    4.04715    -999.25    -999.25    0.02834    0.21009    2.63150    3.23396   79.20443    0.20156    4.04715
 12554.30000   -1.49641  -11.84850    8.75731    4.01931    -999.25    -999.25    0.02908    0.21104    2.63120    3.23745   79.38058    0.20306    4.01931
 12554.40000   -0.40672  -11.85744    8.76218    4.01931    -999.25    -999.25    0.02889    0.21199    2.63156    3.24090   79.58753    0.20483    4.01931
 12554.50000    0.75349  -11.86370    8.76966    4.01931    -999.25    -999.25    0.02853    0.21294    2.63222    3.24429   79.62639    0.20523    4.01931
 12554.60000    1.94929  -11.86662    8.77760    4.02450    -999.25    -999.25    0.02826    0.21400    2.63279    3.24772   79.67350    0.20571    4.02450
 12554.70000    2.99176  -11.86694    8.78502    4.03057    -999.25    -999.25    0.02788    0.21522    2.63324    3.25119   79.72060    0.20620    4.03057
 12554.80000    3.78878  -11.86500    8.79231    4.03666    -999.25    -999.25    0.02752    0.21660    2.63372    3.25460   79.76770    0.20666    4.03666
 12554.90000    4.46989  -11.86311    8.79976    4.04275    -999.25    -999.25    0.02710    0.21799    2.63427    3.25796   79.81480    0.20720    4.04275
 12555.00000    5.16157  -11.86856    8.80728    4.04885    -999.25    -999.25    0.02669    0.21937    2.63483    3.26142   79.86190    0.20764    4.04885
 12555.10000    5.78481  -11.88668    8.81491    4.05497    -999.25    -999.25    0.02627    0.22075    2.63532    3.26493   79.90900    0.20802    4.05497
 12555.20000    6.20997  -11.91209    8.82246    4.06109    -999.25    -999.25    0.02586    0.22213    2.63576    3.26826   79.95610    0.20834    4.06109
 12555.30000    6.48598  -11.93498    8.82960    4.06722    -999.25    -999.25    0.02544    0.22352    2.63629    3.27149   80.00320    0.20870    4.06722
 12555.40000    6.76775  -11.95590    8.83689    4.07336    -999.25    -999.25    0.02503    0.22490    2.63694    3.27510   80.05030    0.20904    4.07336
 12555.50000    7.10375  -11.98148    8.84511    4.07951    -999.25    -999.25    0.02461    0.22608    2.63743    3.27903   80.09054    0.20938    4.07951
 12555.60000    7.43158  -12.00749    8.85283    4.08566    -999.25    -999.25    0.02420    0.22649    2.63769    3.28229   80.06087    0.20968    4.08566
 12555.70000    7.72719  -12.02438    8.85665    4.09183    -999.25    -999.25    0.02387    0.22649    2.63829    3.28375   80.03496    0.20966    4.09183
 12555.80000    8.03536  -12.04153    8.85517    4.09801    -999.25    -999.25    0.02387    0.22649    2.63959    3.28315   80.00905    0.20968    4.09801
 12555.90000    8.36919  -12.08788    8.85088    4.10420    -999.25    -999.25    0.02441    0.22649    2.64059    3.28101   79.98994    0.20965    4.10420
 12556.00000    8.66847  -12.18127    8.84699    4.11039    -999.25    -999.25    0.02486    0.22439    2.63985    3.27817   79.89652    0.20904    4.11039
 12556.10000    8.86780  -12.30484    8.84407    4.11660    -999.25    -999.25    0.02530    0.22273    2.63753    3.27532   79.82251    0.20850    4.11660
 12556.20000    8.96010  -12.42119    8.84096    4.12281    -999.25    -999.25    0.02574    0.22107    2.63536    3.27252   79.74849    0.20801    4.12281
 12556.30000    8.98903  -12.51112    8.83737    4.12903    -999.25    -999.25    0.02618    0.21941    2.63451    3.26931   79.67448    0.20748    4.12903
