~Version ---------------------------------------------------
VERS.   2.0 : CWLS log ASCII Standard -VERSION 2.0
WRAP.    NO : One line per depth step
DLM . SPACE : Column Data Section Delimiter
~Well ------------------------------------------------------
STRT.FT       8390.0 : START DEPTH
STOP.FT       9710.0 : STOP DEPTH
STEP.FT          0.5 : STEP
NULL.        -999.25 : NULL VALUE
COMP.  HRM Resources : COMPANY
WELL.  23-12 Hay Dam : WELL
FLD .        Hay Dam : FIELD
LOC . 23N R97W Sec12 : LOCATION
CNTY.     Sweetwater : COUNTY
STAT.             WY : STATE
CTRY.            USA : COUNTRY
SRVC.            SLB : SERVICE COMPANY
DATE.     11/14/2019 : DATE
API .     4903723253 : API NUMBER
UWI .       3723253A : UWI NUMBER
TVD .             NO : TVD flag
WSTA.            LOC : Well status
USGS.           E974 : USGS Number
LATI.DEG     41.97803: LATITUDE
LONG.DEG    -108.3282: LONGITUDE
UTM-N.     4650790.25: Northing
UTM-E.       721356.8: Easting
CORE.             -13: Core/Log Offset
~Curve Information -----------------------------------------
DEPT.FT               : Depth in Feet
GR  .API 35 310 01 01 : Gamma Ray
CALI.IN  70 280 01 01 : Caliper
PEF .BARN             : Photoelectric Effect
NPHI.V/V 42 890 03 01 : Neutron Porosity
DPHI.V/V 45 890 01 01 : Density Porosity
SP  .                 : 
ILD .                 : 
~Params ----------------------------------------------------
~Other -----------------------------------------------------
~ASCII -----------------------------------------------------
# ...
 9470.00000   81.44100    8.91500    3.01800    0.06700    0.01500    3.24900   16.64200
 9470.50000   98.70600    8.94100    3.09400    0.10600    0.01400    3.34700   15.67300
 9471.00000  115.85800    8.96700    3.17200    0.14200    0.02000    3.44500   14.76100
 9471.50000  127.42900    8.99300    3.27500    0.16200    0.02500    3.54700   13.95100
 9472.00000  126.69000    9.02000    3.33000    0.16600    0.02600    3.56900   13.19100
 9472.50000  124.64800    9.04700    3.24900    0.16700    0.02500    3.56900   12.47200
 9473.00000  123.98200    9.05700    3.15600    0.16900    0.02400    3.56900   11.96800
 9473.50000  123.31800    9.06700    3.06100    0.16600    0.02100    3.54500   11.86100
 9474.00000  122.15300    9.07700    2.96500    0.16300    0.01500    3.43900   11.99400
 9474.50000  120.19600    9.08700    2.96300    0.16000    0.01000    3.33800   12.18800
 9475.00000  118.23800    9.09700    2.97800    0.15900    0.00900    3.23700   12.38400
 9475.50000  118.12600    9.10700    2.99000    0.16000    0.00900    3.13500   12.58400
 9476.00000  121.36200    9.11600    2.97800    0.16100    0.00900    3.03400   12.78700
 9476.50000  125.19300    9.12600    2.99200    0.16100    0.00800    2.95700   13.01000
 9477.00000  126.58700    9.13600    3.04400    0.16000    0.00700    3.22900   13.05000
 9477.50000  125.09000    9.14700    3.07200    0.16200    0.00700    3.59500   13.09300
 9478.00000  122.55100    9.14200    3.07200    0.16400    0.00800    3.96300   13.13600
 9478.50000  120.89600    9.13200    3.07200    0.16500    0.00900    4.32900   13.18000
 9479.00000  122.27100    9.12200    3.07100    0.16500    0.01200    4.37600   13.22400
 9479.50000  124.56100    9.11200    3.04800    0.16500    0.01500    4.37600   13.25300
 9480.00000  126.30700    9.10300    2.99600    0.16500    0.01700    4.37500   13.11300
 9480.50000  126.36300    9.09300    2.94200    0.16700    0.01600    4.37500   13.00800
 9481.00000  126.08700    9.09200    2.94700    0.17100    0.01100    4.37500   12.90500
 9481.50000  125.81400    9.09700    2.96900    0.17300    0.00800    4.37500   12.80200
 9482.00000  125.46700    9.10300    2.99100    0.17100    0.00700    4.37500   12.70000
 9482.50000  123.33600    9.10800    3.01100    0.16900    0.00900    4.37500   12.59900
 9483.00000  120.99600    9.10100    3.01100    0.16700    0.01200    4.37500   12.49800
 9483.50000  118.63600    9.09200    3.01200    0.16600    0.01500    4.37500   12.39900
 9484.00000  117.72500    9.09200    2.97400    0.16600    0.01800    4.37500   12.30800
 9484.50000  118.16000    9.09900    2.92800    0.16600    0.01900    4.29200   12.32700
 9485.00000  119.25000    9.10500    2.88200    0.16800    0.01700    4.12700   12.34500
 9485.50000  120.60400    9.11100    2.85700    0.17100    0.01300    3.96100   12.36300
 9486.00000  121.92000    9.11800    2.91500    0.17000    0.00700    3.79000   12.38100
 9486.50000  122.88100    9.12400    2.97100    0.16900    0.00100    3.91600   12.39900
 9487.00000  122.02100    9.12800    3.02400    0.16800   -0.00100    4.09100   12.42100
 9487.50000  121.36400    9.12300    3.07700    0.16900   -0.00200    4.26400   12.38100
 9488.00000  121.95500    9.11800    3.12900    0.17100   -0.00100    4.36300   12.32500
 9488.50000  122.53100    9.11300    3.18100    0.17100    0.00300    4.32400   12.26900
 9489.00000  121.85300    9.10800    3.23600    0.17100    0.00700    4.28800   12.19500
 9489.50000  121.27700    9.10300    3.25300    0.17100    0.01100    4.25100   12.27400
 9490.00000  122.65100    9.09800    3.25300    0.17000    0.01200    4.21400   12.39200
 9490.50000  124.20500    9.09300    3.25200    0.17000    0.00900    4.17800   12.53800
 9491.00000  125.67600    9.08900    3.28100    0.16900    0.00800    4.14100   12.52100
 9491.50000  124.48900    9.08800    3.32000    0.16800    0.00700    4.10400   12.50100
 9492.00000  123.14000    9.08900    3.31800    0.16600    0.00800    4.06800   12.48000
 9492.50000  121.85300    9.08900    3.23700    0.16400    0.00800    4.03100   12.45900
 9493.00000  122.97100    9.08900    3.14900    0.16300    0.01000    3.99400   12.43900
 9493.50000  129.03900    9.08900    3.06000    0.16400    0.01400    3.95200   12.42200
 9494.00000  135.62200    9.08900    2.98900    0.16400    0.01700    3.90200   12.47700
 9494.50000  134.89100    9.08900    2.99100    0.16300    0.01800    3.85300   12.53000
 9495.00000  130.86300    9.08900    3.00800    0.16300    0.01500    3.80300   12.63700
 9495.50000  127.96700    9.08900    3.08200    0.16400    0.01400    3.77000   12.75000
 9496.00000  130.10100    9.08900    3.11000    0.16400    0.01700    3.77000   12.86400
 9496.50000  134.23600    9.08900    3.05000    0.16500    0.01900    3.77000   12.97800
 9497.00000  136.22000    9.08900    2.96900    0.16600    0.01700    3.77000   13.09400
 9497.50000  133.39500    9.08900    2.90900    0.16700    0.00900    3.77100   13.13100
 9498.00000  130.46000    9.08900    2.93200    0.16800   -0.00100    3.75500   13.04800
 9498.50000  131.65600    9.08900    3.00000    0.17000    0.00200    3.64500   12.89000
 9499.00000  135.24900    9.08900    3.06800    0.17300    0.00500    3.53400   12.56600
 9499.50000  138.61600    9.08900    3.09200    0.17500    0.01100    3.42400   12.24500
 9500.00000  139.25000    9.08900    3.05800    0.17900    0.01900    3.31400   11.93300
 9500.50000  138.38800    9.08900    3.01900    0.18200    0.03000    3.20400   11.62700
 9501.00000  138.85500    9.08900    2.98000    0.18600    0.04000    3.09300   11.32600
 9501.50000  141.94500    9.08900    2.94100    0.18700    0.04600    2.98000   11.37000
 9502.00000  144.96500    9.08900    2.93200    0.18200    0.04700    3.02500   11.41800
 9502.50000  146.32700    9.08900    3.05300    0.17400    0.03500    3.09900   11.46600
 9503.00000  139.52900    9.08900    3.12100    0.17300    0.02300    3.17500   11.51500
 9503.50000  131.83000    9.08800    3.16600    0.17500    0.02000    3.24900   11.75200
 9504.00000  123.88300    9.06900    3.21100    0.18300    0.02200    3.32400   12.15900
 9504.50000  119.79900    9.04700    3.21300    0.19000    0.02300    3.38000   12.57900
 9505.00000  121.33900    9.02600    3.21200    0.19000    0.02200    3.44300   13.01700
 9505.50000  124.78600    9.00400    3.21300    0.18700    0.02200    3.50400   13.49800
 9506.00000  127.88900    8.98000    3.21200    0.18100    0.02300    3.56600   13.54300
 9506.50000  126.26500    8.94600    3.24800    0.17500    0.02300    3.62800   13.58300
 9507.00000  119.36700    8.91400    3.30200    0.17000    0.01900    3.68900   13.62700
 9507.50000  113.01600    8.88500    3.27000    0.17100    0.01500    3.75200   13.83800
 9508.00000  109.75900    8.87800    3.20000    0.17100    0.01200    3.71300   14.04700
 9508.50000  109.86000    8.87000    3.13400    0.17000    0.01000    3.63200   14.27100
 9509.00000  111.14400    8.86100    3.14300    0.16500    0.01000    3.54900   14.27100
 9509.50000  112.39600    8.85300    3.15900    0.16200    0.01000    3.46600   13.71800
 9510.00000  113.89000    8.84500    3.15400    0.16300    0.01000    3.38300   12.73500
 9510.50000  116.36100    8.83700    3.11700    0.16800    0.01100    3.30100   11.82200
 9511.00000  118.73100    8.82800    3.10800    0.17000    0.01700    3.21900   10.97400
 9511.50000  122.24300    8.86900    3.22000    0.17500    0.03000    3.16500   10.25900
 9512.00000  130.62500    8.92500    3.62700    0.17900    0.04600    3.16300    9.64500
 9512.50000  139.22500    8.97900    3.86200    0.18000    0.05800    3.07800    8.98400
 9513.00000  145.32200    9.03000    3.79700    0.16800    0.05200    2.98700    8.98400
 9513.50000  141.22000    8.98500    3.40800    0.15200    0.03600    3.04100    9.05200
 9514.00000  132.50300    8.92300    3.23200    0.15000    0.02200    3.15000    9.47400
 9514.50000  123.99200    8.85900    3.12000    0.15200    0.00800    3.26100   10.05100
