~Version Information Block
 VERS.                2.00:     CWLS LOG ASCII STANDARD - VERSION 2.000000
 WRAP.                  NO:     One Line Per Depth Step
#
~Well Information Block
#MNEM.UNIT                     Data                         Information
#----------   ------------------------------------------   ----------------
 STRT.FT                                    12600.0000:     START DEPTH
 STOP.FT                                    13950.0000:     STOP DEPTH
 STEP.FT                                        0.1000:     STEP
 NULL.                                       -999.2500:     NULL VALUE
 COMP.                        PRESIDIO EXPLORATION INC:     COMPANY
 WELL.                          PICKETLAKE UNIT #40-13:     WELL
 FLD .                                         WILDCAT:     FIELD
 LOC .                           1320' FSL & 1320' FEL:     LOCATION
 CNTY.                                      SWEETWATER:     COUNTY
 STAT.                                         WYOMING:     STATE
 CTRY.                                             USA:     COUNTRY
 SRVC.                                                :     SERVICE COMPANY
 DATE.                                      15/05/1995:     DATE
 API .                                      4903723472:     API NUMBER
 UWI .                                         3723472:     UWI NUMBER
 TVD .                                              NO:     TVD flag
 WSTA.                                             LOC:     Well status
 USGS.                                            F042:     USGS Number
 LATI.DEG                                     42.22387:     LATITUDE
 LONG.DEG                                   -108.34765:     LONGITUDE
 UTM-N.                                     4678038.95:     Northing
 UTM-E.                                       718897.4:     Easting
 CORE.                                              +5:     Core/Log Offset
#
~Curve Information Block
#MNEM.UNIT       API CODE      Curve Description
#----------    -------------   -------------------
 DEPT.FT                   :   Depth in Feet
 DTCO.US/F     60 520 08 01:   DTCO
 SPHI.V/V      61 890 01 01:   Sonic Porosity
 GR  .GAPI     35 310 01 01:   Gamma Ray
 CALI.IN       70 280 01 01:   Caliper
 ILD .OHMM     05 120 46 01:   Deep Induction Standard Processed Resistivity
 SP  .MV       01 010 01 01:   Spontaneous Potential
 PEF .b/e                  :   Photo-Electric Factor
 RHOB.G/C3     42 350 01 01:   Bulk Density
 DPHI.V/V      45 890 01 01:   Density Porosity
 NPHI.V/V      42 890 03 01:   Neutron Porosity
#
~Parameter Information Block
#MNEM.UNIT            Value               Description
#----------    --------------------    -------------------
 DATE.                  15-05-1995:    Date As Month-Day-Year
 RUN .                         ONE:    Run Number
 PDAT.                         UNK:    Permanent Datum
 EPD .FT                 7224.0000:    Elevation Of Perm. Datum
 LMF .                          KB:    Log Measured From
 FAPD.FT                   15.0000:    Feet Above Perm. Datum
 DMF .                          KB:    Drilling Measured From
 EKB .FT                 7240.0000:    Elevation Of Kelly Bushing
 EDF .FT                 7239.0000:    Elevation Of Derrick Floor
 EGL .FT                 7224.0000:    Elevation Of Ground Level
 TD  .FT                13950.0000:    Total Depth
 DD  .FT                13957.0000:    Depth Driller
 DL  .FT                13952.0000:    Depth Logger
 BLI .FT                13925.0000:    Bottom Log Interval
 TLI .FT                10000.0000:    Top Log Interval
 CSIZ.IN                   9.625IN:    Casing Size
 CBD1.                        2520:    Casing Bottom (Driller) 1
 CBL1.                        2518:    Casing Bottom (Logger) 1
 BS  .IN                   7.875IN:    Bit Size
 DFT .                         WTD:    Drilling Fluid Type
 DFV .S                    74.0000:    Drilling Fluid Viscosity
 DFD .LB/G                 10.8000:    Drilling Fluid Density
 DFL .ML                    7.2000:    Drilling Fluid Loss
 DFPH.                      9.5000:    Drilling Fluid Ph
 MSS .                     MUDTANK:    Mud Sample Source
 RMS .OHMM                  4.3300:    Resistivity Of Mud Sample
 MST .DEGF                 65.0000:    Mud Sample Temperature
 RMF .OHMM                  3.3800:    Mud Filtrate Resistivity
 MFST.DEGF                 65.0000:    Mud Filtrate Sample Temperature
 RMC .OHMM                  4.5000:    Mud Cake Resistivity
 MCST.DEGF                 65.0000:    Mud Cake Sample Temperature
 RMB .OHMM                  1.3760:    Mud Resistivity At Bht
 BHT .DEGF                219.0000:    Bottom Hole Temperature
 MRT .DEGF                219.0000:    Maximum Recorded Temperature
 LUN .                        8415:    Logging Unit Number
 LUL .                      CASPER:    Logging Unit Location
 ENGI.               T.CHRISTENSEN:    Engineer'S Name
 WITN.                STEVE HEFNER:    Witness' Name
 DGBY.                         R2V:    
 WSTA.                         LOC:    
#
~Other Information Block
<DescLogPlotStart>   NEURALOG PLOT DEFINITION
PLOTDEFVERSION: 3
LASFILE: C:\nds\projects\mf-nov-13\las\3723472C.las
DEPTHSCALE: 240.000000
RESOLUTION: 200
DEPTHLABELFREQ: 100.000000
HEAVYGRIDFREQ: 100.000000
MEDIUMGRIDFREQ: 50.000000
LIGHTGRIDFREQ: 10.000000
#
#   TRACK 1
#
STARTTRACK: 
 LEFTX: 0.500000 inch
 RIGHTX: 3.000000 inch
 SCALETYPE: Linear
 NUMCHARTDIVISIONS: 10
CURVE: DTCO  140.000000 40.000000  (0,0,255)      Solid             2     N    
CURVE: SPHI  0.300000   -0.100000  (0,131,131)    Dot               2     N    
ENDTRACK: 
#
#   TRACK 2
#
STARTTRACK: 
 LEFTX: 3.500000 inch
 RIGHTX: 6.000000 inch
 SCALETYPE: Linear
 NUMCHARTDIVISIONS: 10
CURVE: GR    0.000000   150.000000 (255,0,255)    Solid             2     Y    
BACKUP: 150.000000 300.000000 (255,0,255)    Solid             2    
CURVE: CALI  6.000000   16.000000  (255,0,0)      Dot               2     N    
ENDTRACK: 
#
#   TRACK 3
#
STARTTRACK: 
 LEFTX: 6.000000 inch
 RIGHTX: 11.000000 inch
 SCALETYPE: Log
 NUMCYCLES: 4
 STARTCYCLE: 2
CURVE: ILD   0.200000   2000.000000 (255,131,0)    Solid             2     N   
ENDTRACK: 
#
#   TRACK 4
#
STARTTRACK: 
 LEFTX: 11.000000 inch
 RIGHTX: 13.500000 inch
 SCALETYPE: Linear
 NUMCHARTDIVISIONS: 10
CURVE: SP    -80.000000 20.000000  (255,255,0)    Solid             2     N    
ENDTRACK: 
#
#   TRACK 5
#
STARTTRACK: 
 LEFTX: 13.500000 inch
 RIGHTX: 18.500000 inch
 SCALETYPE: Linear
 NUMCHARTDIVISIONS: 10
CURVE: PEF   0.000000   10.000000  (0,0,255)      Solid             2     N    
CURVE: RHOB  2.000000   3.000000   (0,131,131)    Dot               2     Y    
BACKUP: 1.000000   2.000000   (0,131,131)    Dot               2    
ENDTRACK: 
#
#   TRACK 6
#
STARTTRACK: 
 LEFTX: 18.500000 inch
 RIGHTX: 23.500000 inch
 SCALETYPE: Linear
 NUMCHARTDIVISIONS: 10
CURVE: DPHI  0.300000   -0.100000  (255,0,255)    Solid             2     N    
CURVE: NPHI  0.300000   -0.100000  (255,0,0)      Dot               2     Y    
BACKUP: 0.700000   0.300000   (255,0,0)      Dot               2    
ENDTRACK: 
<DescLogPlotEnd>
~A DEPTH     DTCO             SPHI             GR               CALI             ILD              SP               PEF              RHOB             DPHI             NPHI            
   12600.000 70.77309237      0.13602629       116.51515152     9.50505051       21.63890235      -35.94758065     4.09136546       2.63704819       0.01006036       0.19034205      
   12600.100 70.77309237      0.13698503       116.51515152     9.50505051       21.63890235      -35.94758065     4.09136546       2.63704819       0.01006036       0.19034205      
   12600.200 70.77309237      0.13794378       116.51515152     9.50505051       21.63890235      -35.94758065     4.09136546       2.63704819       0.01656740       0.19034205      
   12600.300 70.77309237      0.13890252       116.51515152     9.50505051       21.63890235      -35.93716398     4.09136546       2.63097533       0.02094970       0.19902437      
   12600.400 70.77309237      0.13986126       116.51515152     9.50505051       21.63890235      -35.91985887     4.08634538       2.62029547       0.02533199       0.20491169      
   12600.500 70.77309237      0.14082001       115.83636364     9.50505051       21.63890235      -35.90255376     4.07781124       2.60961561       0.02971429       0.21079902      
   12600.600 70.77309237      0.14177875       114.61212121     9.56565657       21.63890235      -35.88524866     4.06927711       2.59893574       0.03219316       0.21668634      
   12600.700 71.67670683      0.14273750       112.87878788     9.60080808       21.63890235      -35.86794355     4.06074297       2.58825588       0.04790744       0.22257366      
   12600.800 70.93273092      0.14369624       112.55696970     9.66202020       21.54902948      -35.85063844     4.05220884       2.57757602       0.05886318       0.22846099      
   12600.900 71.03413655      0.14465498       112.00606061     9.72323232       21.42939326      -35.83333333     4.04116466       2.56689616       0.06981891       0.23434831      
   12601.000 71.13554217      0.14598394       111.45515152     9.78444444       21.31042125      -35.81602823     4.00915089       2.55621629       0.07645875       0.24023564      
   12601.100 71.23694779      0.14638554       110.90424242     9.84565657       21.19210974      -35.79872312     3.96379805       2.54553643       0.07992958       0.24386318      
   12601.200 71.33835341      0.14638554       110.15151515     9.90686869       21.07445507      -35.78141801     3.91844521       2.53485657       0.08241952       0.24346076      
   12601.300 71.43975904      0.14638554       110.51784512     9.96808081       20.95745361      -35.76411290     3.87309237       2.52417671       0.08490946       0.23378068      
   12601.400 71.56998582      0.14658834       110.65323930     9.98436070       21.12550957      -35.81362919     3.87979473       2.52939841       0.08530473       0.23551473      
   12601.500 71.57020801      0.14621151       111.06957659     10.02820498      20.84110171      -35.76223910     3.82845307       2.51415408       0.08739940       0.22660577      
   12601.600 71.66746021      0.14594110       111.71552160     10.09211511      20.72539578      -35.82947676     3.78306347       2.50104138       0.08988934       0.22000423      
   12601.700 71.60252297      0.14558233       112.26519192     10.15904987      20.61033222      -35.93451021     3.73705885       2.49307007       0.09237928       0.21255487      
   12601.800 71.45252309      0.14477912       112.82668853     10.22059972      20.49590748      -36.04111993     3.69159976       2.49761369       0.09486922       0.20581330      
   12601.900 71.28414531      0.14437751       113.42481164     10.26623063      20.38211800      -36.13686786     3.64648188       2.50951032       0.09657948       0.19850904      
   12602.000 70.93793869      0.14397590       113.99637703     10.29002569      20.27991886      -36.23204747     3.60107851       2.52011654       0.08724346       0.19160614      
   12602.100 70.44933740      0.14277831       114.59413639     10.29473195      20.26980990      -36.33300004     3.55540917       2.52929205       0.08013373       0.18444056      
   12602.200 69.95461603      0.14107470       115.27312210     10.29238070      20.26059993      -36.43435395     3.50987490       2.53967563       0.07302399       0.17742469      
   12602.300 69.46298390      0.13937108       115.75455411     10.29547795      20.25139414      -36.53224822     3.46461430       2.55023623       0.06591425       0.17034806      
   12602.400 68.97112256      0.13766747       115.48210635     10.29759082      20.24219254      -36.62968326     3.41932205       2.56012589       0.05880452       0.16326551      
   12602.500 68.47608329      0.13554217       114.18000792     10.26919033      20.23299512      -36.72973920     3.37367618       2.57017307       0.05169478       0.15623853      
   12602.600 67.99061334      0.13096386       112.17331866     10.18783114      20.22380188      -36.83054160     3.32799335       2.58044658       0.04458505       0.14911651      
   12602.700 67.48634361      0.12487952       110.04000682     10.06952755      20.21461281      -36.92841262     3.28288478       2.59068905       0.03747531       0.14212530      
   12602.800 67.01126179      0.11879518       108.05724326     9.95039804       20.20542792      -37.02495707     3.23789456       2.60081817       0.03036558       0.13497069      
   12602.900 66.49595581      0.11271084       106.11016337     9.83983148       20.19624720      -37.12596674     3.19171014       2.61072808       0.02325584       0.12952164      
   12603.000 66.02023479      0.10542169       104.04866877     9.71889290       20.18707066      -37.22936895     3.14597900       2.62091015       0.01614611       0.12716298      
   12603.100 65.52880754      0.10428313       101.96013888     9.58828468       20.17789828      -37.32499954     3.10900790       2.63156397       0.00903637       0.12517103      
   12603.200 64.94979920      0.10286345       100.00036518     9.48457605       20.16873007      -37.41596506     3.09242106       2.63951349       0.00321932       0.12354125      
   12603.300 64.82479920      0.10144378       98.07288325      9.43331936       20.15956603      -37.52189768     3.10126588       2.64231953       0.00227767       0.12394366      
   12603.400 64.67269076      0.09979920       95.93888349      9.41434121       20.15040615      -37.64239170     3.12836159       2.64343093       0.00148089       0.12747384      
   12603.500 64.52058233      0.09979920       93.71836349      9.39389817       20.14125044      -37.73579097     3.16098950       2.64543047       0.00068410       0.13048667      
   12603.600 64.34738956      0.09979920       91.97639804      9.36885887       20.13209888      -37.76248784     3.19165320       2.64720011       -0.00011268      0.13349950      
   12603.700 64.42503347      0.09979920       91.07913576      9.35617201       20.12295148      -37.73567089     3.22061932       2.64876491       -0.00090946      0.13651232      
   12603.800 64.51517180      0.09979920       90.72504991      9.35786601       20.11380824      -37.70165175     3.24998739       2.65062919       -0.00170624      0.13952515      
   12603.900 64.60531013      0.10083574       90.37763405      9.36010101       20.10466915      -37.68259537     3.28004941       2.65232949       -0.00250302      0.14253798      
   12604.000 64.69544846      0.10201205       89.88298634      9.35651226       20.09287434      -37.66648012     3.31045860       2.65400922       -0.00329980      0.14555080      
   12604.100 64.78558679      0.10318835       89.37539805      9.35244414       20.13066285      -37.64279919     3.34068209       2.65580763       -0.00409658      0.14856363      
   12604.200 64.87572512      0.10436466       88.93668547      9.35140369       20.18410180      -37.61767501     3.36833231       2.65748580       -0.00489336      0.15157646      
   12604.300 64.96586345      0.10554096       88.72871585      9.35102416       20.23768260      -37.59665610     3.38850442       2.65922696       -0.00569014      0.15458929      
