~Version ---------------------------------------------------
VERS.   2.0 : CWLS log ASCII Standard -VERSION 2.0
WRAP.    NO : One line per depth step
DLM . SPACE : Column Data Section Delimiter
~Well ------------------------------------------------------
STRT.FT   8950.0     : START DEPTH
STOP.FT  10550.0     : STOP DEPTH
STEP.FT      0.5     : STEP
NULL.    -999.25     : NULL VALUE
COMP.        HRM     : COMPANY
WELL.57 Hay Reservoir: WELL
FLD .  Hay Reservoir : FIELD
LOC .     24N 97W    : LOCATION
CNTY.     Sweetwater : COUNTY
STAT.         WY     : STATE
CTRY.          USA   : COUNTRY
SRVC.           SLB? : SERVICE COMPANY
DATE. 11/14/2019     : DATE
API . 4903723193     : API NUMBER
UWI .   3723193A     : UWI NUMBER
TVD .         NO     : TVD flag
WSTA.        LOC     : Well status
USGS.            E952: USGS Number
LATI.DEG     42.04063: LATITUDE
LONG.DEG   -108.36672: LONGITUDE
UTM-N.     4657642.54: Northing
UTM-E.      717951.25: Easting
CORE.              -4: Core/Log Offset
~Curve Information -----------------------------------------
DEPT.FT                : Depth in Feet
DPHI.V/V  45 890 01 01 : Density Porosity
NPHI.V/V  42 890 03 01 : Neutron Porosity
GR  .API  35 310 01 01 : Gamma Ray
CALI.IN   70 280 01 01 : Caliper
RHOB.G/CC 42 350 01 01 : Bulk Density
PEF .BARN              : Photoelectric Effect
ILD .                  : Deep Induction
SP  .                  : Spontaneous Potential
~Params ----------------------------------------------------
~Other -----------------------------------------------------
~ASCII -----------------------------------------------------
# ...
 9070.00000    0.00600    0.12800   79.68900    9.60600    2.63700    3.84900   19.36200  -54.68400
 9070.50000    0.00700    0.12600   82.37800    9.60600    2.63800    3.94200   19.53900  -54.75600
 9071.00000    0.01000    0.12500   84.68300    9.60600    2.63400    3.94100   19.66700  -54.82900
 9071.50000    0.01200    0.12700   84.84700    9.60600    2.63000    3.87000   19.79500  -54.90200
 9072.00000    0.01100    0.12700   84.95200    9.60800    2.62900    3.67800   19.92400  -54.97400
 9072.50000    0.00600    0.12600   85.92700    9.61600    2.63900    3.66600   20.05400  -55.04700
 9073.00000    0.00100    0.12400   87.76000    9.62400    2.64700    3.70900   20.18500  -55.12000
 9073.50000   -0.00300    0.11900   88.01700    9.62600    2.65500    3.69400   20.28000  -55.19200
 9074.00000   -0.00700    0.11400   89.13700    9.62600    2.66200    3.58100   20.21300  -55.26500
 9074.50000   -0.00900    0.11300   90.71400    9.62700    2.66500    3.54600   19.66600  -55.33800
 9075.00000   -0.01000    0.12500   92.35200    9.65400    2.66700    3.57200   19.13200  -55.41100
 9075.50000   -0.01200    0.13500   90.46100    9.68300    2.67000    3.56100   18.61400  -55.48300
 9076.00000   -0.01300    0.14400   87.83100    9.68700    2.67100    3.49200   18.10900  -55.55600
 9076.50000   -0.01300    0.14600   87.09600    9.68700    2.67000    3.42400   17.61800  -55.62800
 9077.00000   -0.01300    0.14300   95.77000    9.69400    2.67100    3.35500   17.14100  -55.70100
 9077.50000   -0.01300    0.14100   98.56000    9.70400    2.67300    3.28900   16.72500  -55.79600
 9078.00000   -0.01400    0.13900   97.76500    9.70700    2.67300    3.30300   16.06000  -55.97500
 9078.50000   -0.01200    0.14100   96.83200    9.70700    2.66900    3.50300   15.42100  -56.14900
 9079.00000   -0.01000    0.14600   95.96500    9.70700    2.66700    3.70200   14.80800  -56.32300
 9079.50000   -0.01300    0.15200   98.34300    9.71300    2.67000    3.71600   14.21900  -56.49700
 9080.00000   -0.01800    0.16300  103.21500    9.72000    2.67800    3.71800   13.65400  -56.67000
 9080.50000   -0.02300    0.17400  108.26100    9.72800    2.68700    3.73300   13.12000  -56.74700
 9081.00000   -0.02400    0.18600  111.46000    9.74000    2.68700    3.79700   12.99900  -56.71700
 9081.50000   -0.02000    0.19000  111.33400    9.76200    2.68000    3.85100   12.99900  -56.68700
 9082.00000   -0.01400    0.18800  108.12000    9.80600    2.66900    3.77500   13.03900  -56.65700
 9082.50000   -0.01000    0.16600  104.21500    9.84900    2.66700    3.69400   13.36500  -56.62700
 9083.00000   -0.00900    0.15900  100.31600    9.88100    2.66600    3.61500   14.22400  -56.59800
 9083.50000   -0.00800    0.15600   95.75300    9.91300    2.66400    3.46700   15.35100  -56.56800
 9084.00000   -0.00600    0.15300   87.07900    9.94000    2.66100    3.29300   16.61300  -56.47600
 9084.50000   -0.00000    0.15000   75.94300    9.96700    2.65400    3.11700   18.05800  -56.36100
 9085.00000    0.01800    0.14900   60.87800    9.99600    2.63500    2.94200   20.28300  -56.24400
 9085.50000    0.06600    0.15200   47.49200   10.05400    2.55100    2.86400   22.78300  -56.09400
 9086.00000    0.25600    0.27500   35.73000   10.14800    2.14200    2.90500   25.59100  -55.80300
 9086.50000    0.29900    0.31600   31.17500   10.40500    1.95500    2.94100   28.74400  -55.49500
 9087.00000    0.29900    0.37400   30.01100   10.72100    1.68600    2.67900   32.66300  -55.08600
 9087.50000    0.29900    0.48700   28.24200   11.27400    1.41800    2.34600   37.55900  -54.66900
 9088.00000    0.30000    0.58700   25.23900   11.82300    1.30600    2.10900   43.19000  -54.25200
 9088.50000    0.30000    0.60500   25.80400   12.37700    1.28600    3.58800   49.66500  -53.82200
 9089.00000    0.30000    0.63200   30.40400   12.70400    1.27900    4.58000   53.65400  -53.30500
 9089.50000    0.30000    0.65000   40.18100   12.80400    1.27400    5.59100   47.76400  -52.80000
 9090.00000    0.30000    0.65000   54.30900   12.63900    1.33400    6.59700   42.80800  -52.29500
 9090.50000    0.30000    0.49500   68.48600   11.58500    1.55900    7.14300   38.36600  -51.78900
 9091.00000    0.30000    0.38900   82.69800   10.52700    1.86700    7.62800   34.38600  -51.28500
 9091.50000    0.30000    0.27200   96.26600    9.90800    2.15000    7.11400   30.81800  -50.80100
 9092.00000    0.20500    0.19000   92.44300    9.53600    2.40400    5.53300   27.62100  -50.02900
 9092.50000    0.02000    0.13700   84.64700    9.52700    2.60900    3.98900   24.87900  -49.24600
 9093.00000    0.01200    0.12300   76.83200    9.51300    2.62900    3.49800   23.20300  -48.46000
 9093.50000    0.01500    0.14300   71.68400    9.50000    2.62500    3.37300   21.64000  -47.85900
 9094.00000    0.01800    0.17300   71.02900    9.48600    2.62100    3.28700   20.18300  -47.29800
 9094.50000    0.01200    0.20100   79.41500    9.47300    2.62700    3.20000   19.00600  -46.81500
 9095.00000    0.00400    0.21700   86.02300    9.46000    2.64200    3.12500   18.26300  -46.49600
 9095.50000   -0.00300    0.22700   92.02200    9.44600    2.65800    3.24200   17.59900  -46.18400
 9096.00000   -0.00800    0.22800   97.76200    9.43300    2.66500    3.37400   17.32400  -45.87200
 9096.50000   -0.00400    0.20800  101.05900    9.41900    2.65600    3.50900   17.12500  -45.64600
 9097.00000    0.00500    0.18900  102.43900    9.40700    2.64000    3.43300   16.94900  -45.53700
 9097.50000    0.01100    0.16900   98.35100    9.38200    2.63200    3.31400   16.77500  -45.42700
 9098.00000    0.00800    0.15000   94.29100    9.35500    2.63300    3.19300   16.69400  -45.31300
 9098.50000   -0.00100    0.16000   91.38700    9.32800    2.64500    3.21600   17.04300  -45.33900
 9099.00000   -0.01000    0.17100   92.41100    9.31600    2.65800    3.30000   17.32400  -45.40000
 9099.50000   -0.01800    0.17100   92.38900    9.30600    2.67000    3.38200   17.81000  -45.45600
 9100.00000   -0.01800    0.16900   90.77200    9.30300    2.67900    3.46900   18.46700  -45.23700
 9100.50000    0.00400    0.17400   90.14300    9.30300    2.65700    3.45800   20.09900  -44.70700
 9101.00000    0.03500    0.19400   90.69900    9.30300    2.62300    3.41600   22.30100  -44.24900
 9101.50000    0.07000    0.21700   93.26200    9.30300    2.57300    3.38800   24.74400  -44.11100
 9102.00000    0.10500    0.24500   94.87600    9.30300    2.52100    3.38800   27.45500  -43.96600
 9102.50000    0.14000    0.27400   93.59000    9.30300    2.46900    3.39000   29.92800  -43.82100
 9103.00000    0.17000    0.30600   88.07000    9.30300    2.40200    3.27500   29.86300  -43.68800
 9103.50000    0.18900    0.31100   82.59400    9.30300    2.35400    3.10400   29.37200  -43.76500
 9104.00000    0.19500    0.30500   77.07800    9.30300    2.33000    2.93000   26.95000  -43.84900
 9104.50000    0.16500    0.26300   71.53400    9.30300    2.34200    2.75300   24.97000  -43.84400
 9105.00000    0.11800    0.22800   69.64100    9.30200    2.42000    2.70500   23.14400  -43.77900
 9105.50000    0.07400    0.20000   68.24500    9.26600    2.49800    2.82400   21.45200  -43.71200
 9106.00000    0.03500    0.18000   68.05300    9.22800    2.57400    3.04700   19.88400  -43.77900
 9106.50000    0.01400    0.14800   69.64400    9.20000    2.63200    3.26900   18.65700  -43.95500
 9107.00000    0.00600    0.12500   69.84700    9.17400    2.63800    3.31300   18.65700  -44.13200
 9107.50000    0.00300    0.11400   69.86200    9.14600    2.64300    3.32900   18.65700  -44.33000
 9108.00000   -0.00000    0.10700   70.74900    9.11500    2.64900    3.29900   18.65800  -44.63000
 9108.50000   -0.00100    0.10900   73.59800    9.11700    2.65100    3.25600   18.66000  -44.93000
 9109.00000    0.00000    0.11200   72.69400    9.12100    2.64800    3.22800   18.66200  -44.94500
 9109.50000    0.00400    0.11500   71.02200    9.12100    2.64300    3.53700   18.11200  -44.64000
