~Version ---------------------------------------------------
VERS. 2.0 : CWLS log ASCII Standard -VERSION 2.0
WRAP.  NO : One Line Per Depth Step
~Well ------------------------------------------------------
STRT .FT              8400.0 : START DEPTH
STOP .FT              9700.0 : STOP DEPTH
STEP .FT  0.1000000000003638 : STEP
NULL .               -999.25 : NULL VALUE
COMP .  PRESIDIO OIL COMPANY : COMPANY
WELL .     J.T. FEDERAL NO.5 : WELL
FLD  .   SOUTH HAY RESOURCES : FIELD
LOC  . 1266' FNL & 1684' FEL : LOCATION
CNTY .            SWEETWATER : COUNTY
STAT .               WYOMING : STATE
CTRY .                   USA : COUNTRY
SRVC .                       : SERVICE COMPANY
DATE .            30/06/1993 : DATE
API  .            4903723152 : API NUMBER
UWI  .               3723152 : UWI NUMBER
TVD  .                    NO : TVD flag
WSTA .                   LOC : Well status
USGS .                  S179 : USGS Number
LATI .DEG           41.97079 : LATITUDE
LONG .DEG           -108.322 : LONGITUDE
UTM-N.            4650002.36 : Northing
UTM-E.             721895.66 : Easting
CORE .                   N/A : Core/Log Offset
~Curve Information -----------------------------------------
DEPT    .FT                : Depth in Feet
GR      .GAPI 35 310 01 01 : Gamma Ray
SP      .MV   01 010 01 01 : Spontaneous Potential
CALI    .IN   70 280 01 01 : Caliper
ILD     .OHMM 05 120 46 01 : Deep Induction Standard Processed Resistivity
DPHI    .V/V  45 890 01 01 : Density Porosity
NPHI    .V/V  42 890 03 01 : Neutron Porosity
PE      .B/E               : PE
DT      .US/F 60 520 08 01 : Delta-T
ACOUSTIC.DEC               : ACOUSTIC
~Params ----------------------------------------------------
DATE. 30-06-1993 : Date As Month-Day-Year
RUN .        ONE : Run Number
PDAT.        UNK : Permanent Datum
EPD .FT   6607.0 : Elevation Of Perm. Datum
LMF .         KB : Log Measured From
FAPD.FT     16.0 : Feet Above Perm. Datum
DMF .         KB : Drilling Measured From
EKB .FT   6623.0 : Elevation Of Kelly Bushing
EDF .FT   6622.0 : Elevation Of Derrick Floor
EGL .FT   6607.0 : Elevation Of Ground Level
TD  .FT   9700.0 : Total Depth
DD  .FT   9780.0 : Depth Driller
DL  .FT   9724.0 : Depth Logger
BLI .FT   9720.0 : Bottom Log Interval
CSIZ.IN  9.625IN : Casing Size
CBD1.       1698 : Casing Bottom (Driller) 1
CBL1.       1697 : Casing Bottom (Logger) 1
BS  .IN  7.875IN : Bit Size
DFT .        GEL : Drilling Fluid Type
DFV .S      55.0 : Drilling Fluid Viscosity
DFD .LB/G   10.2 : Drilling Fluid Density
DFL .ML      7.6 : Drilling Fluid Loss
DFPH.        9.5 : Drilling Fluid Ph
MSS .   FLOWLINE : Mud Sample Source
RMS .OHMM    1.5 : Resistivity Of Mud Sample
MST .DEGF   74.0 : Mud Sample Temperature
RMF .OHMM    1.8 : Mud Filtrate Resistivity
MFST.DEGF   66.0 : Mud Filtrate Sample Temperature
RMC .OHMM   2.44 : Mud Cake Resistivity
MCST.DEGF   69.0 : Mud Cake Sample Temperature
RMB .OHMM    0.6 : Mud Resistivity At Bht
BHT .DEGF  197.0 : Bottom Hole Temperature
MRT .DEGF  197.0 : Maximum Recorded Temperature
LUN .      52546 : Logging Unit Number
LUL .      VERNL : Logging Unit Location
ENGI.    K EVATT : Engineer'S Name
WITN.    HEFFNER : Witness' Name
DGBY.        R2V : 
WSTA.        LOC : 
~Other -----------------------------------------------------
<DescLogPlotStart>   NEURALOG PLOT DEFINITION
PLOTDEFVERSION: 3
LASFILE: C:\nds\projects\mf-nov-13\las\3723152A.las
DEPTHSCALE: 240.000000
RESOLUTION: 200
DEPTHLABELFREQ: 100.000000
HEAVYGRIDFREQ: 100.000000
MEDIUMGRIDFREQ: 50.000000
LIGHTGRIDFREQ: 10.000000
#
#   TRACK 1
#
STARTTRACK:
LEFTX: 0.500000 inch
RIGHTX: 3.000000 inch
SCALETYPE: Linear
NUMCHARTDIVISIONS: 10
CURVE: GR    0.000000   150.000000 (0,0,255)      Solid             2     N
CURVE: SP    -100.000000 0.000000   (0,131,131)    Dot               2     N
ENDTRACK:
#
#   TRACK 2
#
STARTTRACK:
LEFTX: 0.500000 inch
RIGHTX: 3.000000 inch
SCALETYPE: Linear
NUMCHARTDIVISIONS: 10
CURVE: CALI  6.000000   16.000000  (255,0,255)    Solid             2     Y
BACKUP: -4.000000  6.000000   (255,0,255)    Solid             2
ENDTRACK:
#
#   TRACK 3
#
STARTTRACK:
LEFTX: 3.500000 inch
RIGHTX: 8.500000 inch
SCALETYPE: Log
NUMCYCLES: 4
STARTCYCLE: 2
CURVE: ILD   0.200000   2000.000000 (255,0,0)      Solid             2     N
ENDTRACK:
#
#   TRACK 4
#
STARTTRACK:
LEFTX: 3.500000 inch
RIGHTX: 8.500000 inch
SCALETYPE: Linear
NUMCHARTDIVISIONS: 10
CURVE: DPHI  0.300000   -0.100000  (255,131,0)    Solid             2     Y
BACKUP: 0.700000   0.300000   (255,131,0)    Solid             2
CURVE: NPHI  0.300000   -0.100000  (255,255,0)    Dot               2     Y
BACKUP: 0.700000   0.300000   (255,255,0)    Dot               2
ENDTRACK:
#
#   TRACK 5
#
STARTTRACK:
LEFTX: 3.500000 inch
RIGHTX: 6.000000 inch
SCALETYPE: Linear
NUMCHARTDIVISIONS: 10
CURVE: PE    0.000000   10.000000  (0,0,255)      Solid             2     N
ENDTRACK:
#
#   TRACK 6
#
STARTTRACK:
LEFTX: 8.500000 inch
RIGHTX: 13.500000 inch
SCALETYPE: Linear
NUMCHARTDIVISIONS: 10
CURVE: DT    140.000000 40.000000  (0,131,131)    Solid             2     Y
BACKUP: 40.000000  -60.000000 (0,131,131)    Solid             2
CURVE: ACOUSTIC 0.300000   -0.100000  (255,0,255)    Dot               2     Y
BACKUP: 0.700000   0.300000   (255,0,255)    Dot               2
BACKUP: -0.100000  -0.500000  (255,0,255)    Dot               2
ENDTRACK:
<DescLogPlotEnd>
~ASCII -----------------------------------------------------
# ...
 9078.90000   73.66303  -23.42684    9.68496   17.89307   -0.00918    0.11468    3.50390   67.36072    0.11232
 9079.00000   73.30561  -23.42876    9.68609   17.84926   -0.01000    0.11345    3.50016   67.33266    0.11121
 9079.10000   72.98305  -23.42863    9.68722   17.80555   -0.01072    0.11222    3.49624   67.20791    0.11010
 9079.20000   72.72503  -23.42709    9.68844   17.76195   -0.01152    0.11099    3.49184   67.10345    0.10898
 9079.30000   72.44195  -23.42688    9.68966   17.71846   -0.01227    0.10975    3.48798   66.99899    0.10787
 9079.40000   72.07303  -23.42900    9.69083   17.67507   -0.01281    0.10852    3.48640   66.92698    0.10710
 9079.50000   71.71586  -23.43000    9.69201   17.63179   -0.01285    0.10729    3.48749   66.40904    0.10551
 9079.60000   71.47978  -23.42390    9.69320   17.58862   -0.01289    0.10606    3.48979   66.01388    0.10430
 9079.70000   71.28079  -23.40905    9.69440   17.54555   -0.01294    0.10483    3.49179   65.61871    0.10309
 9079.80000   70.98161  -23.39091    9.69559   17.50259   -0.01297    0.10360    3.49333   65.22355    0.10189
 9079.90000   70.72658  -23.37529    9.69677   17.45973   -0.01301    0.10236    3.49492   64.82839    0.10068
 9080.00000   70.86382  -23.36187    9.69796   17.41698   -0.01305    0.10113    3.49671   64.43322    0.09947
 9080.10000   71.46804  -23.34711    9.69915   17.37433   -0.01309    0.09939    3.49860   63.88438    0.09826
 9080.20000   72.21499  -23.33117    9.70034   17.33179   -0.01313    0.09970    3.50041   63.81744    0.09705
 9080.30000   72.82530  -23.31678    9.70153   17.28935   -0.01316    0.10022    3.50194   63.70791    0.09584
 9080.40000   73.35622  -23.30314    9.70272   17.24701   -0.01321    0.10075    3.50348   63.58012    0.09458
 9080.50000   73.96393  -23.28714    9.70391   17.20478   -0.01336    0.10128    3.50631   63.62576    0.09329
 9080.60000   74.63616  -23.27056    9.70510   17.16265   -0.01356    0.10180    3.51170   63.68053    0.09353
 9080.70000   75.29306  -23.25834    9.70629   17.12062   -0.01377    0.10233    3.51930   63.73529    0.09383
 9080.80000   75.95123  -23.24656    9.70747   17.07870   -0.01397    0.10286    3.52758   63.78296    0.09409
 9080.90000   76.66197  -23.21980    9.70866   17.03688   -0.01417    0.10338    3.53556   63.98093    0.09549
 9081.00000   77.41094  -23.16719    9.70985   16.99517   -0.01437    0.10386    3.54335   64.15619    0.09679
 9081.10000   78.15052  -23.09609    9.71104   16.95355   -0.01457    0.10642    3.55122   64.33144    0.09800
 9081.20000   78.85972  -23.02248    9.71223   16.91204   -0.01477    0.10875    3.55918   64.59432    0.09932
 9081.30000   79.54114  -22.95288    9.71342   16.87062   -0.01497    0.11108    3.56721   64.59432    0.10053
 9081.40000   80.18818  -22.88353    9.71461   16.82931   -0.01517    0.11342    3.57523   65.15568    0.10185
 9081.50000   80.78051  -22.81256    9.71579   16.78811   -0.01537    0.11575    3.58298   65.52992    0.10341
 9081.60000   81.32818  -22.74234    9.71698   16.74700   -0.01558    0.11809    3.59070   65.90416    0.10512
 9081.70000   81.90824  -22.67228    9.71818   16.70599   -0.01578    0.12042    3.59896   66.27840    0.10739
 9081.80000   82.56578  -22.60022    9.71936   16.66508   -0.01606    0.12275    3.60737   66.65264    0.10972
 9081.90000   83.15756  -22.52943    9.72054   16.62428   -0.01577    0.12509    3.61467   67.02688    0.11201
 9082.00000   83.41678  -22.46259    9.72174   16.58357   -0.01529    0.12742    3.62133   67.40112    0.11431
 9082.10000   83.25447  -22.39236    9.72298   16.54296   -0.01481    0.13028    3.63040   67.77535    0.11661
 9082.20000   82.88391  -22.31418    9.72437   16.50245   -0.01433    0.13045    3.64388   68.14959    0.11891
 9082.30000   82.56144  -22.24716    9.72603   16.46204   -0.01385    0.13067    3.65928   68.52383    0.12049
 9082.40000   82.31755  -22.22179    9.72797   16.42173   -0.01337    0.13088    3.67268   68.75254    0.12210
 9082.50000   82.04419  -22.24320    9.73008   16.38152   -0.01290    0.13110    3.68461   68.93002    0.12333
 9082.60000   81.72814  -22.28404    9.73219   16.34141   -0.01242    0.13131    3.69840   69.05781    0.12455
 9082.70000   81.44780  -22.31837    9.73426   16.30140   -0.01199    0.13150    3.71402   69.18560    0.12617
 9082.80000   81.18373  -22.34471    9.73633   16.26148   -0.01223    0.12997    3.72658   69.31339    0.12599
 9082.90000   80.77914  -22.37237    9.73842   16.22166   -0.01245    0.12859    3.73194   69.46247    0.12572
 9083.00000   80.10346  -22.40405    9.74051   16.18194   -0.01266    0.12721    3.73087   69.37120    0.12546
 9083.10000   79.17833  -22.43708    9.74259   16.14232   -0.01288    0.12583    3.72818   69.26166    0.12520
 9083.20000   78.13985  -22.46797    9.74467   16.10279   -0.01309    0.12445    3.72890   69.15822    0.12495
 9083.30000   77.12929  -22.49440    9.74675   16.06336   -0.01331    0.12307    3.73227   68.81136    0.12260
 9083.40000   76.19148  -22.52149    9.74884   16.02403   -0.01352    0.12170    3.73147   68.54970    0.12037
 9083.50000   75.23730  -22.55864    9.75092   15.98479   -0.01374    0.12032    3.72607   68.04429    0.11814
 9083.60000   74.17589  -22.59619    9.75300   15.94565   -0.01396    0.11894    3.72725   67.62441    0.11592
 9083.70000   73.12940  -22.60041    9.75508   15.90660   -0.01417    0.11756    3.73739   67.20453    0.11369
 9083.80000   72.39635  -22.55009    9.75716   15.86765   -0.01443    0.11618    3.73541   66.78465    0.11146
 9083.90000   72.10565  -22.46620    9.75924   15.82880   -0.01443    0.11480    3.70303   66.36477    0.10924
 9084.00000   72.05682  -22.38484    9.76133   15.79004   -0.01443    0.11342    3.65594   65.94490    0.10701
 9084.10000   72.01646  -22.31234    9.76341   15.75137   -0.01443    0.11199    3.62432   65.52502    0.10478
 9084.20000   72.01071  -22.23394    9.76549   15.71281   -0.01443    0.11247    3.61180   65.10514    0.10255
 9084.30000   72.17461  -22.15299    9.76757   15.67433   -0.01443    0.11296    3.59969   64.68526    0.10020
 9084.40000   72.47183  -22.08319    9.76965   15.63595   -0.01404    0.11345    3.58260   64.26538    0.09986
 9084.50000   72.75132  -22.01121    9.77173   15.59766   -0.01367    0.11394    3.57196   63.88438    0.09949
 9084.60000   72.97290  -21.91698    9.77382   15.55947   -0.01331    0.11444    3.57059   63.70487    0.09913
 9084.70000   73.20421  -21.83509    9.77590   15.52137   -0.01294    0.11493    3.56860   63.58012    0.09876
 9084.80000   73.46764  -21.83930    9.77798   15.48336   -0.01258    0.11524    3.56180   63.53482    0.09840
 9084.90000   73.73395  -21.94749    9.78006   15.44545   -0.01222    0.11829    3.55522   63.49831    0.09817
 9085.00000   74.03890  -22.09429    9.78214   15.40763   -0.01185    0.12053    3.55120   63.47870    0.10019
 9085.10000   74.48227  -22.21992    9.78423   15.36990   -0.01149    0.12277    3.54703   64.18835    0.10186
 9085.20000   75.10139  -22.33438    9.78631   15.31709   -0.01111    0.12501    3.54160   64.67343    0.10329
 9085.30000   75.81256  -22.46506    9.78838   15.33562   -0.01076    0.12725    3.53618   65.15850    0.10491
 9085.40000   76.50862  -22.59422    9.79047   15.36675   -0.01038    0.12949    3.53130   65.64358    0.10639
 9085.50000   77.17839  -22.68957    9.79257   15.39795   -0.00996    0.13173    3.52670   66.12866    0.10796
 9085.60000   77.87332  -22.75883    9.79464   15.42921   -0.01004    0.13397    3.52186   66.61374    0.10953
 9085.70000   78.58156  -22.83503    9.79669   15.46053   -0.01016    0.13621    3.51649   67.09881    0.11187
 9085.80000   79.24464  -22.92722    9.79879   15.49192   -0.01026    0.13845    3.51097   67.58389    0.11434
 9085.90000   79.89960  -23.01723    9.80095   15.52337   -0.01037    0.14069    3.50713   68.06897    0.11668
 9086.00000   80.64448  -23.09534    9.80299   15.55488   -0.00980    0.14293    3.50644   68.55404    0.11920
 9086.10000   81.39489  -23.17512    9.80479   15.58646   -0.00927    0.14518    3.50790   69.03912    0.12148
