~Version ---------------------------------------------------
VERS.   2.0 : CWLS log ASCII Standard -VERSION 2.0
WRAP.    NO : One line per depth step
DLM . SPACE : Column Data Section Delimiter
~Well ------------------------------------------------------
STRT.FT       8390.0 : START DEPTH
STOP.FT       9710.0 : STOP DEPTH
STEP.FT          0.5 : STEP
NULL.        -999.25 : NULL VALUE
COMP.  HRM Resources : COMPANY
WELL.  23-12 Hay Dam : WELL
FLD .        Hay Dam : FIELD
LOC . 23N R97W Sec12 : LOCATION
CNTY.     Sweetwater : COUNTY
STAT.             WY : STATE
CTRY.            USA : COUNTRY
SRVC.            SLB : SERVICE COMPANY
DATE.     11/14/2019 : DATE
API .     4903723253 : API NUMBER
UWI .       3723253A : UWI NUMBER
TVD .             NO : TVD flag
WSTA.            LOC : Well status
USGS.           E974 : USGS Number
LATI.DEG     41.97803: LATITUDE
LONG.DEG    -108.3282: LONGITUDE
UTM-N.     4650790.25: Northing
UTM-E.       721356.8: Easting
CORE.             -13: Core/Log Offset
~Curve Information -----------------------------------------
DEPT.FT               : Depth in Feet
GR  .API 35 310 01 01 : Gamma Ray
CALI.IN  70 280 01 01 : Caliper
PEF .BARN             : Photoelectric Effect
NPHI.V/V 42 890 03 01 : Neutron Porosity
DPHI.V/V 45 890 01 01 : Density Porosity
SP  .                 : 
ILD .                 : 
~Params ----------------------------------------------------
~Other -----------------------------------------------------
~ASCII -----------------------------------------------------
# ...
 9380.00000   66.59400    8.86700    2.62800    0.07900    0.07000    0.57800   36.29900
 9380.50000   66.80500    8.86700    2.63200    0.07900    0.06300    0.53500   38.21600
 9381.00000   67.46800    8.87500    2.53200    0.08200    0.06800    0.23600   40.23500
 9381.50000   68.12000    8.88400    2.43300    0.08700    0.08300   -0.06600   42.49500
 9382.00000   68.62200    8.89200    2.32500    0.09200    0.09700   -0.34600   41.94600
 9382.50000   68.61100    8.90100    2.28400    0.09600    0.11000   -0.58000   40.93600
 9383.00000   69.31200    8.90900    2.27400    0.09600    0.11200   -0.81700   39.95300
 9383.50000   70.65800    8.91800    2.26500    0.09600    0.11000   -1.05800   38.99700
 9384.00000   72.02600    8.92600    2.30700    0.09700    0.10600   -1.09300   38.03200
 9384.50000   72.06000    8.94000    2.39200    0.09900    0.10300   -1.13100   38.03200
 9385.00000   71.75000    8.95500    2.51100    0.10100    0.10200   -1.17200   38.25400
 9385.50000   69.97900    8.97000    2.46400    0.10300    0.10500   -1.21200   38.38500
 9386.00000   68.24600    8.98500    2.41900    0.10400    0.10800   -1.25400   37.13200
 9386.50000   66.66000    9.00000    2.38600    0.10000    0.11100   -1.26400   36.19100
 9387.00000   67.89900    9.00600    2.44000    0.09700    0.11300   -1.06600   35.32000
 9387.50000   71.02000    9.00100    2.50700    0.09700    0.11100   -0.86100   34.99500
 9388.00000   74.11500    8.99600    2.54100    0.10300    0.10600   -0.65600   35.41500
 9388.50000   75.52200    8.99100    2.51200    0.10800    0.10100   -0.45100   35.70200
 9389.00000   71.21200    8.98000    2.44500    0.10600    0.09900   -0.24600   35.99100
 9389.50000   65.48300    8.96200    2.37900    0.10000    0.09900   -0.06200   36.28300
 9390.00000   60.99200    8.94300    2.37700    0.09400    0.10100   -0.14200   35.76500
 9390.50000   60.23000    8.92400    2.38600    0.08900    0.09900   -0.23500   35.16400
 9391.00000   60.52000    8.90500    2.42000    0.08800    0.09100   -0.32600   34.57200
 9391.50000   60.80800    8.88800    2.46600    0.08800    0.08200   -0.41800   34.01700
 9392.00000   61.94000    8.89600    2.51200    0.08900    0.07400   -0.46400   30.52900
 9392.50000   66.97500    8.90500    2.58900    0.09500    0.06900   -0.46900   27.51700
 9393.00000   78.45900    8.91400    2.79700    0.12000    0.06400   -0.43800   23.71800
 9393.50000   96.68500    8.92300    3.00200    0.14500    0.05300    0.31200   20.71300
 9394.00000  114.86300    8.93200    2.96100    0.17200    0.04100    1.07800   18.43900
 9394.50000  129.91100    8.94100    2.90400    0.18300    0.03200    1.84000   17.49000
 9395.00000  139.03800    8.94800    2.84900    0.17200    0.02800    2.60000   17.60400
 9395.50000  135.07100    8.94800    2.73600    0.15800    0.02900    3.17800   17.98200
 9396.00000  118.30300    8.94800    2.61100    0.12100    0.03800    3.16800   18.93900
 9396.50000  100.44600    8.94800    2.47000    0.09400    0.05400    2.81500   20.71100
 9397.00000   82.88700    8.94800    2.32500    0.08600    0.07000    2.16600   23.83600
 9397.50000   70.84800    8.94800    2.24600    0.08600    0.08500    1.51500   27.43200
 9398.00000   62.93600    8.94800    2.28900    0.09300    0.10100    0.86600   31.57100
 9398.50000   59.82600    8.94800    2.34000    0.09600    0.10700    0.21400   36.33400
 9399.00000   61.02900    8.94800    2.31800    0.09600    0.10800   -0.25900   41.81600
 9399.50000   62.15800    8.94800    2.29700    0.09700    0.11000   -0.61100   45.67500
 9400.00000   63.26900    8.95000    2.27600    0.09400    0.11000   -0.95800   47.04500
 9400.50000   63.40100    8.95300    2.25600    0.09300    0.10900   -1.31300   45.33900
 9401.00000   62.61400    8.95500    2.24400    0.09100    0.10500   -1.62100   38.90500
 9401.50000   61.54300    8.95800    2.26700    0.09000    0.10100   -1.72800   33.35300
 9402.00000   61.40100    8.96100    2.29700    0.09000    0.09600   -1.78600   28.60500
 9402.50000   67.05600    8.96300    2.49700    0.09500    0.08900   -1.85600   24.90400
 9403.00000   79.89700    8.96600    2.70900    0.10800    0.07900   -1.38200   22.98200
 9403.50000   95.81300    8.96600    2.92300    0.13500    0.06400   -0.60000   21.63500
 9404.00000  116.61800    8.95700    3.07900    0.16300    0.04900    0.18600   21.62800
 9404.50000  121.74700    8.94800    3.20400    0.18100    0.03600    0.75700   22.31400
 9405.00000  110.94200    8.94000    2.95100    0.16500    0.04100    0.74700   23.05400
 9405.50000   85.84600    8.93100    2.66200    0.13300    0.05500    0.79900   24.80900
 9406.00000   69.61000    8.93200    2.41800    0.10000    0.07200    0.85600   27.05400
 9406.50000   60.81000    8.94000    2.32500    0.08900    0.08800    0.91300   29.50200
 9407.00000   59.68100    8.94700    2.28500    0.08300    0.10000    0.96800   31.63200
 9407.50000   60.95200    8.95500    2.36800    0.08300    0.09900    1.07800   31.64000
 9408.00000   63.84600    8.96200    2.48900    0.09000    0.09000    1.18600   28.83200
 9408.50000   69.51400    8.97000    2.70200    0.10800    0.07900    1.29800   25.50000
 9409.00000   75.13000    8.97700    2.80400    0.12100    0.06800    1.53900   22.54300
 9409.50000   80.63400    8.98500    2.90500    0.12900    0.05800    1.92500   19.92900
 9410.00000   91.32900    8.98800    2.96300    0.13200    0.05200    2.31100   17.49000
 9410.50000  103.20600    8.98800    2.93700    0.14200    0.04700    2.69800   15.80900
 9411.00000  115.03700    8.98800    2.91300    0.16300    0.04100    3.08900   14.19900
 9411.50000  126.38000    8.98800    2.89000    0.17900    0.03500    3.33300   13.17500
 9412.00000  127.71900    9.00300    2.88800    0.18200    0.02900    3.54500   12.33100
 9412.50000  124.49100    9.02400    2.96200    0.18200    0.02400    3.75700   11.80200
 9413.00000  121.95800    9.04500    3.03700    0.18400    0.01800    3.96900   11.53700
 9413.50000  123.90800    9.06700    3.11600    0.18700    0.01800    4.18200   11.43000
 9414.00000  125.47200    9.08800    3.12100    0.18800    0.02100    4.39400   11.32500
 9414.50000  125.05700    9.10900    3.10200    0.18600    0.02500    4.58200   11.69500
 9415.00000  121.59200    9.12900    3.08200    0.17900    0.02800    4.53700   11.98600
 9415.50000  117.47500    9.13900    3.06200    0.16900    0.02800    4.49300   12.28500
 9416.00000  117.25300    9.14800    3.06100    0.16000    0.02800    4.44900   12.59000
 9416.50000  120.46100    9.15800    3.08200    0.16000    0.02800    4.40700   12.79800
 9417.00000  124.48800    9.16700    3.10400    0.16500    0.02700    4.46800   12.89000
 9417.50000  128.65900    9.17600    3.12500    0.17100    0.02700    4.92400   12.57900
 9418.00000  130.42000    9.18600    3.14700    0.17700    0.02600    5.36900   12.33400
 9418.50000  130.30200    9.17700    3.16900    0.18300    0.02500    5.58000   12.09300
 9419.00000  128.26000    9.15900    3.14800    0.18400    0.02200    4.92200   11.85700
 9419.50000  125.99900    9.14100    3.11800    0.18100    0.01900    4.19400   11.62600
 9420.00000  125.01900    9.12200    3.08700    0.17800    0.01900    3.46000   11.40000
 9420.50000  127.33600    9.10300    3.06800    0.17500    0.02100    3.26600   11.22000
 9421.00000  131.05100    9.08400    3.06200    0.17200    0.02400    3.42200   11.22100
 9421.50000  133.55700    9.06500    3.05600    0.16900    0.02400    3.58700   11.08800
 9422.00000  135.77400    9.04600    3.05100    0.16800    0.02200    3.75200   10.88000
 9422.50000  137.84900    9.02800    3.01000    0.17000    0.02100    3.69900   10.77000
 9423.00000  138.93100    9.02800    2.96700    0.17500    0.01800    3.61700   10.70700
 9423.50000  139.21800    9.02800    2.92400    0.18000    0.01600    3.53400   10.64400
 9424.00000  137.58500    9.02600    2.88100    0.18200    0.01500    3.45100   10.61500
 9424.50000  135.74300    9.02100    2.86700    0.18300    0.01800    3.37000   10.85800
