~Version ---------------------------------------------------
VERS.   2.0 : CWLS log ASCII Standard -VERSION 2.0
WRAP.    NO : One line per depth step
DLM . SPACE : Column Data Section Delimiter
~Well ------------------------------------------------------
STRT.FT       8390.0 : START DEPTH
STOP.FT       9710.0 : STOP DEPTH
STEP.FT          0.5 : STEP
NULL.        -999.25 : NULL VALUE
COMP.  HRM Resources : COMPANY
WELL.  23-12 Hay Dam : WELL
FLD .        Hay Dam : FIELD
LOC . 23N R97W Sec12 : LOCATION
CNTY.     Sweetwater : COUNTY
STAT.             WY : STATE
CTRY.            USA : COUNTRY
SRVC.            SLB : SERVICE COMPANY
DATE.     11/14/2019 : DATE
API .     4903723253 : API NUMBER
UWI .       3723253A : UWI NUMBER
TVD .             NO : TVD flag
WSTA.            LOC : Well status
USGS.           E974 : USGS Number
LATI.DEG     41.97803: LATITUDE
LONG.DEG    -108.3282: LONGITUDE
UTM-N.     4650790.25: Northing
UTM-E.       721356.8: Easting
CORE.             -13: Core/Log Offset
~Curve Information -----------------------------------------
DEPT.FT               : Depth in Feet
GR  .API 35 310 01 01 : Gamma Ray
CALI.IN  70 280 01 01 : Caliper
PEF .BARN             : Photoelectric Effect
NPHI.V/V 42 890 03 01 : Neutron Porosity
DPHI.V/V 45 890 01 01 : Density Porosity
SP  .                 : 
ILD .                 : 
~Params ----------------------------------------------------
~Other -----------------------------------------------------
~ASCII -----------------------------------------------------
# ...
 8705.00000  115.83500    9.28600    3.05000    0.12800   -0.00900   -5.63400   27.08900
 8705.50000  119.34800    9.29100    3.07200    0.13000   -0.00800   -5.59300   27.15100
 8706.00000  121.81700    9.29400    3.09300    0.13000   -0.00600   -5.55200   27.21300
 8706.50000  119.20200    9.29700    3.09700    0.13000   -0.00500   -5.51100   27.26400
 8707.00000  115.92700    9.30000    3.07100    0.13000   -0.00600   -5.50400   27.14200
 8707.50000  113.34500    9.30300    3.03900    0.12800   -0.00900   -5.50400   26.99800
 8708.00000  113.37200    9.30600    3.01500    0.12500   -0.01100   -5.50400   26.85200
 8708.50000  114.03600    9.30900    3.06200    0.12100   -0.01200   -5.50400   26.76400
 8709.00000  113.25100    9.30200    3.16100    0.11900   -0.01200   -5.50400   26.93700
 8709.50000  111.61900    9.28900    3.25900    0.11800   -0.00900   -5.50400   27.12700
 8710.00000  109.54800    9.27600    3.29100    0.11800   -0.00700   -5.50400   27.38900
 8710.50000  107.92400    9.26300    3.26000    0.11800   -0.00800   -5.50400   27.91900
 8711.00000  106.99300    9.25000    3.28900    0.11700   -0.01100   -5.50400   29.03900
 8711.50000  102.85300    9.23700    3.38400    0.11400   -0.01700   -5.50400   30.20500
 8712.00000   95.96800    9.22400    3.58400    0.10600   -0.02400   -5.50400   31.41700
 8712.50000   88.96900    9.21100    3.67000    0.09800   -0.03100   -5.50500   32.79200
 8713.00000   86.68800    9.21600    3.67600    0.09800   -0.03400   -5.60900   33.09700
 8713.50000   89.35700    9.22500    3.65300    0.10100   -0.03300   -5.72600   33.41600
 8714.00000   97.30600    9.23300    3.62100    0.10500   -0.03100   -5.84200   33.20300
 8714.50000  105.39600    9.24100    3.56800    0.10800   -0.02300   -5.95900   32.93800
 8715.00000  111.03700    9.25000    3.47700    0.11100   -0.01500   -6.07500   32.49900
 8715.50000  114.56100    9.25800    3.33900    0.11400   -0.01000   -6.19300   31.83900
 8716.00000  115.43400    9.26700    3.20300    0.11600   -0.00700   -6.30700   30.85900
 8716.50000  115.32600    9.27500    3.11600    0.11900   -0.00800   -6.31100   29.88600
 8717.00000  114.68400    9.28300    3.15100    0.12100   -0.00900   -6.31100   28.94300
 8717.50000  111.60500    9.29100    3.20600    0.12200   -0.01200   -6.31000   28.03000
 8718.00000  107.96300    9.29800    3.26100    0.12300   -0.01400   -6.31100   27.38300
 8718.50000  108.86400    9.30400    3.31900    0.12900   -0.01700   -6.31000   26.84600
 8719.00000  112.71400    9.31100    3.38900    0.13500   -0.01900   -6.31200   26.32000
 8719.50000  118.42800    9.31800    3.50300    0.14000   -0.01800   -6.17900   25.45800
 8720.00000  124.13400    9.32400    3.61700    0.14400   -0.01600   -5.97600   24.16500
 8720.50000  129.73900    9.33100    3.63700    0.14500   -0.01300   -5.77000   22.87000
 8721.00000  133.96800    9.33800    3.53600    0.14400   -0.01000   -5.56500   22.47300
 8721.50000  133.40400    9.34400    3.38600    0.14600   -0.01200   -5.36000   22.14300
 8722.00000  129.48800    9.35100    3.35600    0.15100   -0.01300   -5.15500   21.82800
 8722.50000  125.55400    9.35700    3.48200    0.15600   -0.01200   -4.95000   20.67400
 8723.00000  123.76500    9.36400    3.56200    0.15800   -0.00800   -4.74400   18.99400
 8723.50000  125.77700    9.37100    3.58400    0.15900   -0.00300   -4.53600   17.31400
 8724.00000  133.85700    9.39600    3.47300    0.16300    0.00200   -4.42200   15.78100
 8724.50000  142.06800    9.42100    3.35700    0.17500    0.00500   -4.32700   14.38300
 8725.00000  149.61700    9.42900    3.30800    0.19000    0.00500   -4.23400   13.11700
 8725.50000  151.93500    9.42800    3.26100    0.20500    0.00400   -4.14000   12.31200
 8726.00000  151.68500    9.42600    3.21300    0.22000    0.00200   -4.04500   11.91300
 8726.50000  151.53400    9.42400    3.17100    0.22500    0.00200   -3.95100   11.51800
 8727.00000  151.79500    9.42200    3.23500    0.22100    0.00400   -3.85700   11.13600
 8727.50000  152.04700    9.42000    3.31600    0.21100    0.00600   -3.76300   10.95500
 8728.00000  152.37600    9.41800    3.39700    0.20500    0.00600   -3.66900   10.86900
 8728.50000  154.34400    9.41600    3.47700    0.20500    0.00700   -3.57500   10.81300
 8729.00000  156.35000    9.41400    3.52100    0.20800    0.01100   -3.48100   11.06300
 8729.50000  158.36300    9.41200    3.45900    0.20800    0.01300   -3.38700   11.25000
 8730.00000  160.24900    9.40800    3.41300    0.20500    0.01100   -3.29300   11.44000
 8730.50000  157.78500    9.40100    3.41400    0.20000    0.00300   -3.19900   11.64400
 8731.00000  153.23100    9.39400    3.41400    0.19500   -0.00500   -3.10200   11.75200
 8731.50000  148.74800    9.38700    3.41400    0.19300   -0.00900   -3.08500   11.72400
 8732.00000  147.05700    9.38000    3.41400    0.19100   -0.01300   -3.08400   11.69600
 8732.50000  147.51100    9.37300    3.43300    0.18700   -0.01600   -3.08500   11.66800
 8733.00000  150.17600    9.37000    3.55200    0.18600   -0.01800   -3.08400   11.64400
 8733.50000  153.36200    9.37000    3.54100    0.18700   -0.01100   -3.08600   11.85600
 8734.00000  158.11400    9.37000    3.47900    0.18900   -0.00200   -3.13600   12.49700
 8734.50000  160.40000    9.37000    3.37000    0.18900    0.00700   -3.18800   13.43200
 8735.00000  159.73000    9.37000    3.27400    0.17300    0.01000   -3.24100   14.43700
 8735.50000  149.08100    9.37000    3.17800    0.15400    0.00600   -3.30700   15.51600
 8736.00000  137.62300    9.37000    3.08200    0.13800    0.00100   -3.45600   16.67900
 8736.50000  126.23100    9.36100    3.00900    0.12400   -0.00300   -3.60600   17.99200
 8737.00000  114.91600    9.34000    3.03300    0.12100   -0.01000   -3.75600   19.71500
 8737.50000  110.59100    9.31900    3.06500    0.12200   -0.01800   -3.90600   20.91300
 8738.00000  111.07700    9.29800    3.09700    0.12800   -0.02200   -4.05600   21.85800
 8738.50000  115.01200    9.27700    3.13000    0.13900   -0.02300   -4.20400   22.68400
 8739.00000  118.89900    9.27500    3.16100    0.14900   -0.02200   -4.29500   22.77100
 8739.50000  122.72200    9.28400    3.24400    0.14800   -0.02500   -4.29400   22.86600
 8740.00000  125.67200    9.29300    3.34700    0.14400   -0.02900   -4.29400   22.96200
 8740.50000  124.04100    9.30100    3.40100    0.13400   -0.02800   -4.29400   23.06900
 8741.00000  121.74200    9.30900    3.31000    0.12300   -0.02600   -4.29400   22.88100
 8741.50000  121.12600    9.29300    3.22100    0.11400   -0.02300   -4.29400   23.58700
 8742.00000  122.54000    9.27700    3.21100    0.11300   -0.02400   -4.29400   24.05800
 8742.50000  127.78500    9.26000    3.28400    0.11700   -0.02600   -4.29400   24.39900
 8743.00000  132.84400    9.24900    3.35000    0.12300   -0.02500   -4.29400   24.26000
 8743.50000  137.81200    9.25000    3.41600    0.12800   -0.02500   -4.29400   24.06700
 8744.00000  138.24500    9.24900    3.48200    0.13300   -0.02400   -4.29400   23.87500
 8744.50000  134.79100    9.24900    3.54800    0.13600   -0.02200   -4.29400   23.73200
 8745.00000  131.01600    9.24900    3.55400    0.13800   -0.02100   -4.29400   23.92900
 8745.50000  129.83100    9.24900    3.50100    0.13800   -0.01900   -4.29400   24.11700
 8746.00000  131.44500    9.24900    3.32800    0.13500   -0.01700   -4.29400   24.30600
 8746.50000  135.95100    9.24900    3.23400    0.13400   -0.01500   -4.32300   24.49800
 8747.00000  142.00200    9.24900    3.24200    0.13600   -0.01600   -4.37000   24.69000
 8747.50000  147.19700    9.24900    3.28800    0.14200   -0.02000   -4.41900   24.88400
 8748.00000  146.25600    9.24900    3.33000    0.14500   -0.02100   -4.46500   25.08000
 8748.50000  143.50700    9.24900    3.23500    0.14800   -0.02200   -4.42400   25.31900
 8749.00000  140.71200    9.25000    3.12600    0.15000   -0.02300   -4.22100   25.14800
 8749.50000  139.03900    9.24900    3.12700    0.15100   -0.02500   -4.01900   24.93300
