~Version ---------------------------------------------------
VERS.   2.0 : CWLS log ASCII Standard -VERSION 2.0
WRAP.    NO : One line per depth step
DLM . SPACE : Column Data Section Delimiter
~Well ------------------------------------------------------
STRT.FT       8390.0 : START DEPTH
STOP.FT       9710.0 : STOP DEPTH
STEP.FT          0.5 : STEP
NULL.        -999.25 : NULL VALUE
COMP.  HRM Resources : COMPANY
WELL.  23-12 Hay Dam : WELL
FLD .        Hay Dam : FIELD
LOC . 23N R97W Sec12 : LOCATION
CNTY.     Sweetwater : COUNTY
STAT.             WY : STATE
CTRY.            USA : COUNTRY
SRVC.            SLB : SERVICE COMPANY
DATE.     11/14/2019 : DATE
API .     4903723253 : API NUMBER
UWI .       3723253A : UWI NUMBER
TVD .             NO : TVD flag
WSTA.            LOC : Well status
USGS.           E974 : USGS Number
LATI.DEG     41.97803: LATITUDE
LONG.DEG    -108.3282: LONGITUDE
UTM-N.     4650790.25: Northing
UTM-E.       721356.8: Easting
CORE.             -13: Core/Log Offset
~Curve Information -----------------------------------------
DEPT.FT               : Depth in Feet
GR  .API 35 310 01 01 : Gamma Ray
CALI.IN  70 280 01 01 : Caliper
PEF .BARN             : Photoelectric Effect
NPHI.V/V 42 890 03 01 : Neutron Porosity
DPHI.V/V 45 890 01 01 : Density Porosity
SP  .                 : 
ILD .                 : 
~Params ----------------------------------------------------
~Other -----------------------------------------------------
~ASCII -----------------------------------------------------
# ...
 8795.00000  116.70100    9.18900    3.18100    0.11500   -0.02000   -4.51800   35.85800
 8795.50000  116.04400    9.18900    3.18500    0.11400   -0.02000   -4.35500   34.82500
 8796.00000  118.01500    9.18900    3.18900    0.11900   -0.02000   -4.16300   33.82300
 8796.50000  119.96100    9.18900    3.18000    0.12500   -0.02000   -3.97000   32.84900
 8797.00000  122.32900    9.18900    3.12600    0.13000   -0.01900   -3.77700   31.90300
 8797.50000  125.75500    9.18900    3.07300    0.13500   -0.01600   -3.58400   30.98500
 8798.00000  129.19100    9.19300    3.09600    0.14000   -0.01700   -3.39100   30.09300
 8798.50000  130.34200    9.20100    3.24100    0.14300   -0.01700   -3.19900   29.22600
 8799.00000  129.01200    9.20800    3.34000    0.14400   -0.01500   -3.01300   28.38500
 8799.50000  126.18600    9.21500    3.25700    0.14500   -0.01100   -2.84000   27.61700
 8800.00000  123.37600    9.22200    3.17800    0.13800   -0.00800   -2.66600   27.01300
 8800.50000  120.53200    9.23000    3.11200    0.13100   -0.00800   -2.49200   26.27300
 8801.00000  117.78300    9.23700    3.24200    0.12500   -0.01200   -2.31800   26.33100
 8801.50000  118.70100    9.24400    3.38500    0.12500   -0.01500   -2.14300   26.41000
 8802.00000  124.96200    9.25200    3.38500    0.13300   -0.01300   -2.03700   26.51500
 8802.50000  131.77900    9.25900    3.31200    0.14100   -0.01200   -1.97100   26.46400
 8803.00000  137.44200    9.26600    3.23700    0.14500   -0.01300   -1.90600   26.38100
 8803.50000  138.42400    9.27400    3.16200    0.14700   -0.01200   -2.03900   26.29900
 8804.00000  137.01700    9.28100    3.11700    0.14900   -0.00700   -2.35000   26.21700
 8804.50000  132.24700    9.28800    3.08900    0.14800    0.00500   -2.66300   26.13500
 8805.00000  121.93000    9.29600    3.01300    0.14600    0.01700   -2.97600   26.05400
 8805.50000  111.73000    9.30300    2.93800    0.14500    0.02800   -3.28800   25.97300
 8806.00000  101.64700    9.31000    2.86300    0.14500    0.04000   -3.61300   25.89200
 8806.50000   95.24000    9.31800    2.78700    0.14300    0.04700   -3.74200   25.79100
 8807.00000   98.19600    9.32500    2.78300    0.14100    0.04600   -3.81500   25.90000
 8807.50000  104.49700    9.33200    2.80900    0.14500    0.04000   -3.88700   26.04600
 8808.00000  108.63700    9.34000    2.79500    0.15000    0.03500   -3.96000   26.19300
 8808.50000  112.09900    9.34700    2.76600    0.15400    0.03500   -4.03300   26.72800
 8809.00000  112.71400    9.35400    2.74800    0.15400    0.03800   -4.10500   28.15600
 8809.50000  111.86800    9.36200    2.81500    0.15100    0.04300   -4.17800   29.95000
 8810.00000  109.36800    9.36900    2.92200    0.14000    0.04400   -4.25200   31.83300
 8810.50000  103.70700    9.37600    3.02600    0.13200    0.04000   -4.39000   33.41300
 8811.00000   97.54200    9.38400    2.97800    0.12300    0.03700   -4.63200   33.41300
 8811.50000   91.39900    9.39100    2.91900    0.12200    0.04100   -4.87000   33.41900
 8812.00000   87.85800    9.39800    2.86100    0.12200    0.04600   -4.96700   33.41500
 8812.50000   89.37100    9.40500    2.81400    0.12700    0.05100   -5.04100   32.35700
 8813.00000   95.32500    9.41400    2.87200    0.13500    0.05000   -5.04600   30.95100
 8813.50000  102.68100    9.42300    2.93400    0.14200    0.04500   -4.69300   29.60600
 8814.00000  110.34600    9.43300    2.99400    0.14200    0.03900   -4.34400   28.32000
 8814.50000  116.27700    9.44200    3.05600    0.14300    0.03600   -3.99500   27.09100
 8815.00000  116.91900    9.45100    3.07000    0.14300    0.03700   -3.66200   26.06400
 8815.50000  116.14100    9.46500    3.04100    0.14400    0.03900   -3.51000   25.40200
 8816.00000  115.06300    9.47800    3.01300    0.14400    0.03800   -3.35000   24.75600
 8816.50000  113.98400    9.49100    2.99000    0.14500    0.03500   -3.19000   24.62600
 8817.00000  112.90700    9.49100    3.01900    0.14400    0.03200   -3.02900   24.62600
 8817.50000  111.83200    9.49100    3.06300    0.14300    0.03300   -2.86900   24.62600
 8818.00000  110.75900    9.49100    3.10800    0.14300    0.03700   -2.70900   24.62500
 8818.50000  109.64000    9.49100    3.14800    0.14400    0.04000   -2.54800   24.71200
 8819.00000  107.62200    9.49100    3.05000    0.14500    0.03900   -2.51500   24.83100
 8819.50000  106.40500    9.49100    2.94500    0.14300    0.03400   -2.57200   24.95000
 8820.00000  108.53300    9.49100    2.83500    0.13900    0.02800   -2.63100   25.06900
 8820.50000  111.52000    9.49100    2.80900    0.13700    0.02200   -2.69100   25.18900
 8821.00000  110.56600    9.49100    2.85500    0.13500    0.01600   -2.75000   25.31000
 8821.50000  107.40000    9.49100    2.91700    0.13500    0.01500   -2.80900   25.43100
 8822.00000  105.60100    9.49100    2.97200    0.13700    0.01700   -2.86800   25.55400
 8822.50000  107.23400    9.49100    2.98400    0.13700    0.01500   -2.92700   25.22000
 8823.00000  109.56900    9.49100    3.00200    0.13700    0.01300   -2.98600   24.88500
 8823.50000  110.77900    9.49100    3.02000    0.13600    0.01000   -3.04400   24.55900
 8824.00000  111.95300    9.49100    3.03200    0.13800    0.01100   -3.04300   24.31700
 8824.50000  113.16700    9.49100    3.01500    0.14000    0.01400   -2.90500   24.15700
 8825.00000  111.97400    9.49100    2.99100    0.14000    0.01800   -2.76900   23.99800
 8825.50000  110.42400    9.49100    2.97400    0.14000    0.01800   -2.63300   23.84000
 8826.00000  108.68000    9.49100    3.03600    0.14300    0.01700   -2.49700   23.68400
 8826.50000  107.20200    9.49100    3.10300    0.14500    0.01700   -2.36100   23.51300
 8827.00000  107.37800    9.49100    3.17000    0.14500    0.02000   -2.22500   23.22400
 8827.50000  108.98700    9.49100    3.12800    0.14400    0.02100   -2.08900   22.67500
 8828.00000  111.78600    9.49100    2.99700    0.14300    0.01900   -1.95500   22.13800
 8828.50000  114.58600    9.49100    2.96900    0.14300    0.01600   -1.94200   21.63600
 8829.00000  117.25900    9.49100    2.98000    0.14500    0.01400   -2.10500   21.57200
 8829.50000  117.26500    9.49100    2.99100    0.14400    0.01400   -2.27000   21.51200
 8830.00000  115.07900    9.49100    3.00200    0.14300    0.01400   -2.19300   21.45100
 8830.50000  113.47900    9.49100    3.01300    0.14100    0.00900   -2.09100   21.43600
 8831.00000  115.47800    9.49100    3.02500    0.14000    0.00300   -2.24300   21.79800
 8831.50000  117.45600    9.49100    3.02800    0.14200   -0.00200   -2.45700   22.00700
 8832.00000  118.67600    9.49100    2.92500    0.14300    0.00400   -2.67100   22.45100
 8832.50000  109.60700    9.49100    2.81900    0.13800    0.01800   -2.88500   23.21400
 8833.00000   99.69100    9.49100    2.71300    0.13100    0.03300   -3.09900   24.40200
 8833.50000   89.81000    9.49100    2.70800    0.12400    0.04800   -3.31300   25.65000
 8834.00000   81.69900    9.49100    2.71000    0.11800    0.05700   -3.52700   26.96300
 8834.50000   78.57200    9.49100    2.68000    0.11500    0.06300   -3.68900   28.35000
 8835.00000   78.13600    9.49100    2.64500    0.11500    0.06300   -3.66100   28.77800
 8835.50000   76.46400    9.49600    2.61000    0.11500    0.06300   -3.63800   29.12400
 8836.00000   71.98600    9.50100    2.58900    0.11500    0.06300   -3.61500   29.35600
 8836.50000   69.00400    9.50600    2.65900    0.11700    0.06600   -3.59200   28.81800
 8837.00000   68.56200    9.51100    2.73300    0.11900    0.06800   -3.57000   27.34100
 8837.50000   71.28000    9.51600    2.79100    0.12200    0.07100   -3.54700   25.94100
 8838.00000   75.17200    9.52100    2.70100    0.12900    0.07300   -3.52400   24.61200
 8838.50000   78.95000    9.52600    2.60200    0.13200    0.07500   -3.50100   23.55200
 8839.00000   78.85500    9.53200    2.50200    0.13600    0.07500   -3.47800   22.97700
 8839.50000   77.47700    9.53700    2.46900    0.13700    0.07700   -3.45500   22.41500
