~Version Information Block
 VERS.                2.00:     CWLS LOG ASCII STANDARD - VERSION 2.000000
 WRAP.                  NO:     One Line Per Depth Step
#
~Well Information Block
#MNEM.UNIT                     Data                         Information
#----------   ------------------------------------------   ----------------
 STRT.FT                                    12600.0000:     START DEPTH
 STOP.FT                                    13950.0000:     STOP DEPTH
 STEP.FT                                        0.1000:     STEP
 NULL.                                       -999.2500:     NULL VALUE
 COMP.                        PRESIDIO EXPLORATION INC:     COMPANY
 WELL.                          PICKETLAKE UNIT #40-13:     WELL
 FLD .                                         WILDCAT:     FIELD
 LOC .                           1320' FSL & 1320' FEL:     LOCATION
 CNTY.                                      SWEETWATER:     COUNTY
 STAT.                                         WYOMING:     STATE
 CTRY.                                             USA:     COUNTRY
 SRVC.                                                :     SERVICE COMPANY
 DATE.                                      15/05/1995:     DATE
 API .                                      4903723472:     API NUMBER
 UWI .                                         3723472:     UWI NUMBER
 TVD .                                              NO:     TVD flag
 WSTA.                                             LOC:     Well status
 USGS.                                            F042:     USGS Number
 LATI.DEG                                     42.22387:     LATITUDE
 LONG.DEG                                   -108.34765:     LONGITUDE
 UTM-N.                                     4678038.95:     Northing
 UTM-E.                                       718897.4:     Easting
 CORE.                                              +5:     Core/Log Offset
#
~Curve Information Block
#MNEM.UNIT       API CODE      Curve Description
#----------    -------------   -------------------
 DEPT.FT                   :   Depth in Feet
 DTCO.US/F     60 520 08 01:   DTCO
 SPHI.V/V      61 890 01 01:   Sonic Porosity
 GR  .GAPI     35 310 01 01:   Gamma Ray
 CALI.IN       70 280 01 01:   Caliper
 ILD .OHMM     05 120 46 01:   Deep Induction Standard Processed Resistivity
 SP  .MV       01 010 01 01:   Spontaneous Potential
 PEF .b/e                  :   Photo-Electric Factor
 RHOB.G/C3     42 350 01 01:   Bulk Density
 DPHI.V/V      45 890 01 01:   Density Porosity
 NPHI.V/V      42 890 03 01:   Neutron Porosity
#
~Parameter Information Block
#MNEM.UNIT            Value               Description
#----------    --------------------    -------------------
 DATE.                  15-05-1995:    Date As Month-Day-Year
 RUN .                         ONE:    Run Number
 PDAT.                         UNK:    Permanent Datum
 EPD .FT                 7224.0000:    Elevation Of Perm. Datum
 LMF .                          KB:    Log Measured From
 FAPD.FT                   15.0000:    Feet Above Perm. Datum
 DMF .                          KB:    Drilling Measured From
 EKB .FT                 7240.0000:    Elevation Of Kelly Bushing
 EDF .FT                 7239.0000:    Elevation Of Derrick Floor
 EGL .FT                 7224.0000:    Elevation Of Ground Level
 TD  .FT                13950.0000:    Total Depth
 DD  .FT                13957.0000:    Depth Driller
 DL  .FT                13952.0000:    Depth Logger
 BLI .FT                13925.0000:    Bottom Log Interval
 TLI .FT                10000.0000:    Top Log Interval
 CSIZ.IN                   9.625IN:    Casing Size
 CBD1.                        2520:    Casing Bottom (Driller) 1
 CBL1.                        2518:    Casing Bottom (Logger) 1
 BS  .IN                   7.875IN:    Bit Size
 DFT .                         WTD:    Drilling Fluid Type
 DFV .S                    74.0000:    Drilling Fluid Viscosity
 DFD .LB/G                 10.8000:    Drilling Fluid Density
 DFL .ML                    7.2000:    Drilling Fluid Loss
 DFPH.                      9.5000:    Drilling Fluid Ph
 MSS .                     MUDTANK:    Mud Sample Source
 RMS .OHMM                  4.3300:    Resistivity Of Mud Sample
 MST .DEGF                 65.0000:    Mud Sample Temperature
 RMF .OHMM                  3.3800:    Mud Filtrate Resistivity
 MFST.DEGF                 65.0000:    Mud Filtrate Sample Temperature
 RMC .OHMM                  4.5000:    Mud Cake Resistivity
 MCST.DEGF                 65.0000:    Mud Cake Sample Temperature
 RMB .OHMM                  1.3760:    Mud Resistivity At Bht
 BHT .DEGF                219.0000:    Bottom Hole Temperature
 MRT .DEGF                219.0000:    Maximum Recorded Temperature
 LUN .                        8415:    Logging Unit Number
 LUL .                      CASPER:    Logging Unit Location
 ENGI.               T.CHRISTENSEN:    Engineer'S Name
 WITN.                STEVE HEFNER:    Witness' Name
 DGBY.                         R2V:    
 WSTA.                         LOC:    
#
~Other Information Block
<DescLogPlotStart>   NEURALOG PLOT DEFINITION
PLOTDEFVERSION: 3
LASFILE: C:\nds\projects\mf-nov-13\las\3723472C.las
DEPTHSCALE: 240.000000
RESOLUTION: 200
DEPTHLABELFREQ: 100.000000
HEAVYGRIDFREQ: 100.000000
MEDIUMGRIDFREQ: 50.000000
LIGHTGRIDFREQ: 10.000000
#
#   TRACK 1
#
STARTTRACK: 
 LEFTX: 0.500000 inch
 RIGHTX: 3.000000 inch
 SCALETYPE: Linear
 NUMCHARTDIVISIONS: 10
CURVE: DTCO  140.000000 40.000000  (0,0,255)      Solid             2     N    
CURVE: SPHI  0.300000   -0.100000  (0,131,131)    Dot               2     N    
ENDTRACK: 
#
#   TRACK 2
#
STARTTRACK: 
 LEFTX: 3.500000 inch
 RIGHTX: 6.000000 inch
 SCALETYPE: Linear
 NUMCHARTDIVISIONS: 10
CURVE: GR    0.000000   150.000000 (255,0,255)    Solid             2     Y    
BACKUP: 150.000000 300.000000 (255,0,255)    Solid             2    
CURVE: CALI  6.000000   16.000000  (255,0,0)      Dot               2     N    
ENDTRACK: 
#
#   TRACK 3
#
STARTTRACK: 
 LEFTX: 6.000000 inch
 RIGHTX: 11.000000 inch
 SCALETYPE: Log
 NUMCYCLES: 4
 STARTCYCLE: 2
CURVE: ILD   0.200000   2000.000000 (255,131,0)    Solid             2     N   
ENDTRACK: 
#
#   TRACK 4
#
STARTTRACK: 
 LEFTX: 11.000000 inch
 RIGHTX: 13.500000 inch
 SCALETYPE: Linear
 NUMCHARTDIVISIONS: 10
CURVE: SP    -80.000000 20.000000  (255,255,0)    Solid             2     N    
ENDTRACK: 
#
#   TRACK 5
#
STARTTRACK: 
 LEFTX: 13.500000 inch
 RIGHTX: 18.500000 inch
 SCALETYPE: Linear
 NUMCHARTDIVISIONS: 10
CURVE: PEF   0.000000   10.000000  (0,0,255)      Solid             2     N    
CURVE: RHOB  2.000000   3.000000   (0,131,131)    Dot               2     Y    
BACKUP: 1.000000   2.000000   (0,131,131)    Dot               2    
ENDTRACK: 
#
#   TRACK 6
#
STARTTRACK: 
 LEFTX: 18.500000 inch
 RIGHTX: 23.500000 inch
 SCALETYPE: Linear
 NUMCHARTDIVISIONS: 10
CURVE: DPHI  0.300000   -0.100000  (255,0,255)    Solid             2     N    
CURVE: NPHI  0.300000   -0.100000  (255,0,0)      Dot               2     Y    
BACKUP: 0.700000   0.300000   (255,0,0)      Dot               2    
ENDTRACK: 
<DescLogPlotEnd>
~A DEPTH     DTCO             SPHI             GR               CALI             ILD              SP               PEF              RHOB             DPHI             NPHI            
# ...
   12780.400 64.84939759      0.09804217       98.49959518      9.71830394       40.63924812      -34.92735256     3.27337496       2.68412607       -0.02223426      0.13038229      
   12780.500 64.84939759      0.09914659       97.12329782      9.71934796       40.63138277      -34.92179992     3.28379683       2.68520141       -0.02285405      0.12957746      
   12780.600 65.03012048      0.10025100       96.62152224      9.72127669       40.63619824      -34.91624729     3.29154732       2.68626118       -0.02347384      0.12899799      
   12780.700 65.15060241      0.10135542       96.88358933      9.72286085       40.63325551      -34.91069465     3.29869185       2.68749965       -0.02409362      0.12857216      
   12780.800 65.27108434      0.10301205       97.57804636      9.72438405       40.63425870      -34.90514202     3.30691661       2.68884094       -0.02454728      0.12814633      
   12780.900 65.45180723      0.10321285       98.58143210      9.72609035       40.63393740      -34.89958938     3.31522994       2.68991664       -0.02479477      0.12772050      
   12781.000 65.45180723      0.10341365       99.68002454      9.72774875       40.63340528      -34.89403674     3.32270814       2.69045448       -0.02498994      0.12729468      
   12781.100 65.37650602      0.10341365       100.76207793     9.72934590       40.63377135      -34.88848411     3.33045082       2.69051939       -0.02518511      0.12686885      
   12781.200 65.32630522      0.10341365       101.95179595     9.73099120       40.63309936      -34.88293147     3.33858823       2.69027731       -0.02538028      0.12644302      
   12781.300 65.27610442      0.10349977       102.97889937     9.73263803       40.63334774      -34.87737884     3.34571080       2.69002162       -0.02568013      0.12601719      
   12781.400 65.22590361      0.10346151       103.64047100     9.73428485       40.63283065      -34.87182620     3.35183747       2.69003245       -0.02575584      0.12559137      
   12781.500 65.15060241      0.10350778       104.05776238     9.73593167       40.63283065      -34.86627357     3.36042069       2.68992158       -0.02525645      0.12516554      
   12781.600 65.15060241      0.10357369       104.48007524     9.73757849       40.63283065      -34.86072093     3.37050211       2.68843179       -0.02453298      0.12474849      
   12781.700 65.15060241      0.10346532       105.00568593     9.73922531       40.63283065      -34.85516829     3.37613023       2.68488042       -0.02411249      0.12586398      
   12781.800 65.37650602      0.10377535       105.53645092     9.74087213       40.63283065      -34.84961566     3.37907348       2.68049505       -0.02334797      0.12695694      
   12781.900 65.52710843      0.10332150       105.99634641     9.74251895       40.63283065      -34.84406302     3.39609330       2.67715797       -0.02040467      0.12804990      
   12782.000 65.67771084      0.10408739       106.45341246     9.74416577       40.63283065      -34.83851039     3.43855347       2.67440594       -0.01700523      0.12914286      
   12782.100 65.82831325      0.10309333       106.97994156     9.74581260       40.63283065      -34.83295775     3.48879115       2.67046892       -0.01390030      0.13038229      
   12782.200 66.05421687      0.10444908       107.50809539     9.74745942       40.63283065      -34.82740512     3.52271730       2.66605122       -0.01054780      0.13038229      
   12782.300 66.05421687      0.10556516       107.93356313     9.74910624       40.63283065      -34.82185360     3.55209871       2.66363127       -0.00736960      0.13038229      
   12782.400 66.98795181      0.10752219       108.36006875     9.75075306       40.63283065      -34.81628608     3.60407149       2.66157793       -0.00338475      0.13038229      
   12782.500 67.61044177      0.11436286       109.08028715     9.75239988       40.63254256      -34.81071588     3.65501170       2.65375573       0.00332985       0.13038229      
   12782.600 68.23293173      0.12277793       110.25484796     9.75404670       40.63221927      -34.80517334     3.66593059       2.63814362       0.01173644       0.13038229      
   12782.700 69.16666667      0.12935808       111.71969379     9.75569352       40.63239362      -34.79963651     3.68706465       2.62048327       0.02061811       0.13038229      
   12782.800 69.16666667      0.13072289       113.19090235     9.75734035       40.63283065      -34.79403631     3.73995984       2.60498243       0.02918310       0.13038229      
   12782.900 72.17871486      0.15108434       114.56598891     9.75898717       40.63283065      -34.78842390     4.19587441       2.58979669       0.03777062       0.13139638      
   12783.000 74.18674699      0.16465863       115.92642397     9.76063399       40.63283065      -34.78294420     4.49981745       2.57461094       0.04635815       0.13295775      
   12783.100 76.19477912      0.17823293       117.35146835     9.76228081       40.63283065      -34.77748827     4.80376050       2.55942520       0.05494567       0.13451911      
   12783.200 78.20281124      0.19180723       118.80298151     9.76392763       40.63283065      -34.77178011     5.10770354       2.53664659       0.06760563       0.13608048      
   12783.300 80.21084337      0.20538153       120.19137179     9.76557445       40.63283065      -34.76602799     5.41164659       2.53664659       0.07745674       0.13764185      
   12783.400 82.21887550      0.21895582       121.53121656     9.76722127       40.63283065      -34.76073821     5.71558963       2.47974039       0.09619316       0.13920322      
   12783.500 84.22690763      0.23253012       122.95911715     9.76886810       40.63283065      -34.75553360     6.01953268       2.44180293       0.11492958       0.14076459      
   12783.600 87.23895582      0.24610442       124.48329087     9.77051492       40.63283065      -34.74941616     6.32347572       2.40386546       0.13366600       0.14164990      
   12783.700 87.23895582      0.26646586       125.81410656     9.77216174       40.63283065      -34.74304862     6.62741877       2.36592800       0.15240241       0.14603152      
   12783.800 88.98594378      0.26646586       126.64298446     9.77380856       40.63283065      -34.73932274     7.08333333       2.32799053       0.17113883       0.14908920      
   12783.900 90.15060241      0.29939759       126.98364769     9.77545538       40.63283065      -34.74024089     7.08333333       2.29005307       0.18987525       0.15214688      
   12784.000 91.31526104      0.29939759       126.97739887     9.77710220       40.80260991      -34.74434745     8.53413655       2.25211561       0.20861167       0.15520456      
   12784.100 93.06224900      0.29939759       126.54200683     9.77874902       40.99398487      -34.74865432     9.98493976       2.21417814       0.22734809       0.15826224      
   12784.200 93.06224900      0.29939759       125.56927452     9.78039585       41.18625743      -34.75204836     9.98493976       2.17624068       0.24608451       0.16131992      
   12784.300 93.06224900      0.29939759       124.32653225     9.78204267       41.37943180      -34.75536813     9.98493976       2.13830321       0.26482093       0.16437760      
   12784.400 93.07512907      0.29939759       123.25988959     9.78368949       41.57351220      -34.75915024     9.99610712       2.10036575       0.28355734       0.16747418      
   12784.500 92.62853909      0.29939759       122.45638206     9.78533631       41.76850289      -34.76297124     9.97628756       2.06242828       0.29939638       0.16993855      
   12784.600 92.26893752      0.29919679       121.66401259     9.78698313       41.96440814      -34.76654001     9.98304032       2.00552209       0.29939638       0.17360990      
   12784.700 91.82431890      0.29297189       120.79174141     9.78862995       42.16123224      -34.77008792     9.96094058       2.00552209       0.29937847       0.17591201      
