~Version Information Block
 VERS.                2.00:     CWLS LOG ASCII STANDARD - VERSION 2.000000
 WRAP.                  NO:     One Line Per Depth Step
#
~Well Information Block
#MNEM.UNIT                     Data                         Information
#----------   ------------------------------------------   ----------------
 STRT.FT                                     8200.0000:     START DEPTH
 STOP.FT                                     9700.0000:     STOP DEPTH
 STEP.FT                                        0.1000:     STEP
 NULL.                                       -999.2500:     NULL VALUE
 COMP.                        PRESIDIO EXPLORATION INC:     COMPANY
 WELL.                                   HAY DAM 34-12:     WELL
 FLD .                                          HAYDAM:     FIELD
 LOC .                                   SEC12-23N-97W:     LOCATION
 CNTY.                                      SWEETWATER:     COUNTY
 STAT.                                         WYOMING:     STATE
 CTRY.                                             USA:     COUNTRY
 SRVC.                                    SCHLUMBERGER:     SERVICE COMPANY
 DATE.                                      26/07/1994:     DATE
 API .                                      4903723385:     API NUMBER
 UWI .                                         3723385:     UWI NUMBER
 TVD .                                              NO:     TVD flag
 WSTA.                                             LOC:     Well status
 USGS.                                            F041:     USGS Number
 LATI.DEG                                     41.97739:     LATITUDE
 LONG.DEG                                   -108.32133:     LONGITUDE
 UTM-N.                                        4650736:     Northing
 UTM-E.                                      721928.25:     Easting
 CORE.                                              -5:     Core/Log Offset
#
~Curve Information Block
#MNEM.UNIT       API CODE      Curve Description
#----------    -------------   -------------------
 DEPT.FT                   :   Depth in Feet
 ILD .OHMM     05 120 46 01:   Deep Induction Standard Processed Resistivity
 SP  .MV       01 010 01 01:   Spontaneous Potential
 RHOB.G/C3     42 350 01 01:   Bulk Density
 PEF .b/e                  :   Photo-Electric Factor
 GR  .GAPI     35 310 01 01:   Gamma Ray
 CALI.IN       70 280 01 01:   Caliper
 DPHI.V/V      45 890 01 01:   Density Porosity
 NPHI.V/V      42 890 03 01:   Neutron Porosity
 DTCO.US/F                 :   Delta-T Compressional
#
~Parameter Information Block
#MNEM.UNIT            Value               Description
#----------    --------------------    -------------------
 DATE.                  26-07-1994:    Date As Month-Day-Year
 RUN .                         ONE:    Run Number
 PDAT.                         UNK:    Permanent Datum
 EPD .FT                 6611.0000:    Elevation Of Perm. Datum
 LMF .                          KB:    Log Measured From
 FAPD.FT                   15.0000:    Feet Above Perm. Datum
 DMF .                          KB:    Drilling Measured From
 EKB .FT                 6627.0000:    Elevation Of Kelly Bushing
 EDF .FT                 6626.0000:    Elevation Of Derrick Floor
 EGL .FT                 6611.0000:    Elevation Of Ground Level
 TD  .FT                 9700.0000:    Total Depth
 DD  .FT                 9735.0000:    Depth Driller
 DL  .FT                 9729.0000:    Depth Logger
 BLI .FT                 9719.0000:    Bottom Log Interval
 TLI .FT                 1716.0000:    Top Log Interval
 CSIZ.IN                  9.625 IN:    Casing Size
 CBD1.                        1715:    Casing Bottom (Driller) 1
 CBL1.                        1716:    Casing Bottom (Logger) 1
 BS  .IN                   7.675IN:    Bit Size
 DFT .                    GEL-CHEM:    Drilling Fluid Type
 DFV .S                    45.0000:    Drilling Fluid Viscosity
 DFD .LB/G                 10.1000:    Drilling Fluid Density
 DFL .ML                    8.0000:    Drilling Fluid Loss
 DFPH.                     10.0000:    Drilling Fluid Ph
 MSS .                     MUDTANK:    Mud Sample Source
 RMS .OHMM                  1.4400:    Resistivity Of Mud Sample
 MST .DEGF                 85.0000:    Mud Sample Temperature
 RMF .OHMM                  1.1700:    Mud Filtrate Resistivity
 MFST.DEGF                 80.0000:    Mud Filtrate Sample Temperature
 RMC .OHMM                  1.3300:    Mud Cake Resistivity
 MCST.DEGF                 80.0000:    Mud Cake Sample Temperature
 RMB .OHMM                  0.7480:    Mud Resistivity At Bht
 BHT .DEGF                170.0000:    Bottom Hole Temperature
 MRT .DEGF                170.0000:    Maximum Recorded Temperature
 LUN .                        8415:    Logging Unit Number
 LUL .                      CASPER:    Logging Unit Location
 ENGI.                 CHRISTENSEN:    Engineer'S Name
 WITN.                       LYNON:    Witness' Name
 DGBY.                         R2V:    
 WSTA.                         LOC:    
#
~Other Information Block
<DescLogPlotStart>   NEURALOG PLOT DEFINITION
PLOTDEFVERSION: 3
LASFILE: C:\nds\projects\mf-nov-13\las\3723385A.las
DEPTHSCALE: 240.000000
RESOLUTION: 200
DEPTHLABELFREQ: 100.000000
HEAVYGRIDFREQ: 100.000000
MEDIUMGRIDFREQ: 50.000000
LIGHTGRIDFREQ: 10.000000
#
#   TRACK 1
#
STARTTRACK: 
 LEFTX: 0.500000 inch
 RIGHTX: 3.000000 inch
 SCALETYPE: Log
 NUMCYCLES: 4
 STARTCYCLE: 2
CURVE: ILD   0.200000   2000.000000 (0,0,255)      Solid             2     N   
ENDTRACK: 
#
#   TRACK 2
#
STARTTRACK: 
 LEFTX: 3.500000 inch
 RIGHTX: 6.000000 inch
 SCALETYPE: Linear
 NUMCHARTDIVISIONS: 10
CURVE: SP    -80.000000 20.000000  (0,131,131)    Solid             2     Y    
BACKUP: 20.000000  120.000000 (0,131,131)    Solid             2    
BACKUP: -180.000000 -80.000000 (0,131,131)    Solid             2    
ENDTRACK: 
#
#   TRACK 3
#
STARTTRACK: 
 LEFTX: 6.000000 inch
 RIGHTX: 11.000000 inch
 SCALETYPE: Linear
 NUMCHARTDIVISIONS: 10
CURVE: RHOB  2.000000   3.000000   (255,0,255)    Solid             2     Y    
BACKUP: 1.000000   2.000000   (255,0,255)    Solid             2    
CURVE: PEF   0.000000   10.000000  (255,0,0)      Dot               2     N    
ENDTRACK: 
#
#   TRACK 4
#
STARTTRACK: 
 LEFTX: 11.000000 inch
 RIGHTX: 13.500000 inch
 SCALETYPE: Linear
 NUMCHARTDIVISIONS: 10
CURVE: GR    0.000000   150.000000 (255,131,0)    Solid             2     Y    
BACKUP: 150.000000 300.000000 (255,131,0)    Solid             2    
CURVE: CALI  6.000000   16.000000  (255,255,0)    Dot               2     Y    
BACKUP: 16.000000  26.000000  (255,255,0)    Dot               2    
ENDTRACK: 
#
#   TRACK 5
#
STARTTRACK: 
 LEFTX: 13.500000 inch
 RIGHTX: 18.500000 inch
 SCALETYPE: Linear
 NUMCHARTDIVISIONS: 10
CURVE: DPHI  0.300000   -0.100000  (0,0,255)      Solid             2     N    
CURVE: NPHI  0.300000   -0.100000  (0,131,131)    Dot               2     Y    
BACKUP: 0.700000   0.300000   (0,131,131)    Dot               2    
ENDTRACK: 
#
#   TRACK 6
#
STARTTRACK: 
 LEFTX: 13.500000 inch
 RIGHTX: 18.500000 inch
 SCALETYPE: Linear
 NUMCHARTDIVISIONS: 10
CURVE: DTCO  240.000000 40.000000  (255,0,255)    Solid             2     N    
ENDTRACK: 
<DescLogPlotEnd>
~A DEPTH     ILD              SP               RHOB             PEF              GR               CALI             DPHI             NPHI             DTCO            
# ...
    8298.000 23.68904732      -37.43385857     2.61349082       2.79606592       68.07191488      8.87878788       0.01034911       0.11969789       -999.25000000   
    8298.100 23.04139941      -37.44101588     2.60437409       2.80446493       71.02876085      8.87878788       0.01450352       0.12263041       -999.25000000   
    8298.200 22.41145790      -37.44727990     2.59484640       2.81465944       73.69060126      8.87878788       0.01865794       0.12556294       -999.25000000   
    8298.300 21.79873871      -37.45304228     2.58663188       2.82374643       76.49843546      8.87878788       0.02281235       0.12849547       -999.25000000   
    8298.400 21.20277099      -37.46063548     2.58194432       2.83249916       79.49129104      8.87878788       0.02696677       0.13142800       -999.25000000   
    8298.500 20.62309676      -37.46917475     2.58075605       2.84185947       82.25487060      8.87878788       0.03152064       0.13464250       -999.25000000   
    8298.600 20.05927056      -37.47221650     2.58083378       2.85130841       84.73515882      8.87878788       0.03386828       0.13568379       -999.25000000   
    8298.700 19.51085912      -37.46465990     2.58056032       2.86038630       87.38518693      8.87878788       0.03646566       0.13683585       -999.25000000   
    8298.800 18.97744100      -37.44947186     2.58004268       2.86953739       90.48121581      8.87878788       0.03906304       0.13798792       -999.25000000   
    8298.900 18.48814972      -37.43357485     2.57963001       2.87898515       93.81277278      8.87878788       0.04166042       0.13907351       -999.25000000   
    8299.000 18.22672791      -37.41961760     2.57926666       2.88760441       96.98678470      8.87878788       0.04400806       0.13947633       -999.25000000   
    8299.100 17.98296591      -37.40573708     2.57924049       2.89301242       99.55283229      8.87878788       0.04400806       0.13947633       -999.25000000   
    8299.200 17.74246395      -37.39087161     2.57988247       2.89271881       101.40371520     8.87878788       0.04400806       0.13947633       -999.25000000   
    8299.300 17.50517843      -37.37604082     2.58062080       2.88591167       101.87621393     8.87878788       0.04400806       0.13947633       -999.25000000   
    8299.400 17.32929918      -37.36174453     2.58062474       2.87444487       101.55293027     8.87878788       0.04400806       0.13907351       -999.25000000   
    8299.500 17.32929918      -37.34739276     2.58006273       2.86146709       100.74109682     8.87878788       0.04322256       0.13850852       -999.25000000   
    8299.600 17.32929918      -37.33276324     2.57968621       2.84889017       99.22845928      8.87878788       0.04259416       0.13805653       -999.25000000   
    8299.700 17.24238411      -37.31817895     2.57963799       2.83665813       97.48514161      8.87878788       0.04196576       0.13760453       -999.25000000   
    8299.800 17.17717106      -37.30372483     2.57953115       2.82419624       96.06852769      8.87878845       0.04159114       0.13715254       -999.25000000   
    8299.900 17.11220466      -37.28924444     2.57925285       2.81157173       94.73914454      8.87878958       0.04159114       0.13670054       -999.25000000   
    8300.000 17.04748397      -37.27451178     2.57900061       2.79910603       93.25551005      8.87878966       0.04159114       0.13624855       -999.25000000   
    8300.100 16.98300807      -37.25958504     2.57883718       2.78672187       91.78685660      8.87878868       0.04159114       0.13579655       -999.25000000   
    8300.200 16.91877602      -37.24503847     2.57866218       2.77417629       90.39025371      8.87879024       0.04174306       0.13534455       -999.25000000   
    8300.300 16.85478690      -37.23089644     2.57842799       2.76156336       88.97039247      8.87879382       0.04199166       0.13489256       -999.25000000   
    8300.400 16.79103980      -37.21589054     2.57817707       2.74915892       87.50816871      8.87879180       0.04224025       0.13444056       -999.25000000   
    8300.500 16.72753381      -37.20011415     2.57799360       2.73680837       86.05486979      8.87878651       0.04248885       0.13398857       -999.25000000   
    8300.600 16.66426799      -37.18624775     2.57794296       2.72411870       84.67394706      8.87879227       0.04273745       0.13353657       -999.25000000   
    8300.700 16.60124146      -37.17366580     2.57797208       2.71139408       83.19488219      8.87880269       0.04296204       0.13308458       -999.25000000   
    8300.800 16.53845331      -37.15729223     2.57795379       2.69927863       81.63114308      8.87879225       0.04323480       0.13263258       -999.25000000   
    8300.900 16.47590262      -37.13901987     2.57790585       2.68717243       80.32340718      8.87877584       0.04357774       0.13218059       -999.25000000   
    8301.000 16.41358852      -37.12793853     2.57802659       2.67389603       79.50006220      8.87880143       0.04364158       0.13172859       -999.25000000   
    8301.100 16.35151009      -37.11946118     2.57843076       2.66087347       78.97240743      8.87883416       0.04358283       0.13127660       -999.25000000   
    8301.200 16.28966645      -37.09642714     2.57899590       2.65214640       78.43018581      8.87872871       0.04305346       0.13101712       -999.25000000   
    8301.300 16.22805671      -37.06971537     2.57954972       2.64944078       77.81256420      8.87839428       0.04261515       0.13025362       -999.25000000   
    8301.400 16.16667999      -37.09061080     2.58006121       2.65001529       77.18586542      8.87791712       0.04232453       0.12971818       -999.25000000   
    8301.500 16.09357342      -37.19392546     2.58057395       2.65192107       76.55451397      8.87744356       0.04194500       0.12918274       -999.25000000   
    8301.600 15.94543683      -37.35159531     2.58109758       2.65834299       75.96050405      8.87701223       0.04164717       0.12864730       -999.25000000   
    8301.700 15.91793607      -37.51082102     2.58163255       2.67311106       75.43802944      8.87657616       0.04126759       0.12811186       -999.25000000   
    8301.800 15.88460604      -37.65514557     2.58217401       2.69424206       74.81601033      8.87611905       0.04097932       0.12757642       -999.25000000   
    8301.900 15.85134580      -37.80024515     2.58267996       2.71585476       74.04481117      8.87566596       0.04057901       0.12704098       -999.25000000   
    8302.000 15.81815520      -37.95282560     2.58318940       2.73506017       73.71765838      8.87522407       0.04032125       0.12650554       -999.25000000   
    8302.100 15.78503410      -38.10443734     2.58395195       2.75343968       74.62315765      8.87477923       0.03993966       0.12597010       -999.25000000   
    8302.200 15.75198235      -38.25203693     2.58526542       2.77271665       76.70128162      8.87432870       0.03955324       0.12539772       -999.25000000   
    8302.300 15.71899981      -38.40043499     2.58717489       2.79235505       79.05995511      8.87388003       0.03897957       0.12488848       -999.25000000   
    8302.400 15.68608633      -38.55089198     2.58941307       2.81143358       81.08377258      8.87343396       0.03869739       0.12453085       -999.25000000   
    8302.500 15.65324176      -38.70081636     2.59160900       2.83032356       82.93488937      8.87298689       0.03830514       0.12456296       -999.25000000   
    8302.600 15.62046597      -38.84978935     2.59359149       2.84967462       84.92759712      8.87253875       0.03609714       0.12493407       -999.25000000   
    8302.700 15.58775880      -38.99905834     2.59562263       2.86911572       87.00888277      8.87209114       0.03433001       0.12537112       -999.25000000   
    8302.800 15.55512012      -39.14872505     2.59823962       2.88802951       89.00006570      8.87164410       0.03284837       0.12678271       -999.25000000   
