~Version Information Block
 VERS.                2.00:     CWLS LOG ASCII STANDARD - VERSION 2.000000
 WRAP.                  NO:     One Line Per Depth Step
#
~Well Information Block
#MNEM.UNIT                     Data                         Information
#----------   ------------------------------------------   ----------------
 STRT.FT                                     8200.0000:     START DEPTH
 STOP.FT                                     9700.0000:     STOP DEPTH
 STEP.FT                                        0.1000:     STEP
 NULL.                                       -999.2500:     NULL VALUE
 COMP.                        PRESIDIO EXPLORATION INC:     COMPANY
 WELL.                                   HAY DAM 34-12:     WELL
 FLD .                                          HAYDAM:     FIELD
 LOC .                                   SEC12-23N-97W:     LOCATION
 CNTY.                                      SWEETWATER:     COUNTY
 STAT.                                         WYOMING:     STATE
 CTRY.                                             USA:     COUNTRY
 SRVC.                                    SCHLUMBERGER:     SERVICE COMPANY
 DATE.                                      26/07/1994:     DATE
 API .                                      4903723385:     API NUMBER
 UWI .                                         3723385:     UWI NUMBER
 TVD .                                              NO:     TVD flag
 WSTA.                                             LOC:     Well status
 USGS.                                            F041:     USGS Number
 LATI.DEG                                     41.97739:     LATITUDE
 LONG.DEG                                   -108.32133:     LONGITUDE
 UTM-N.                                        4650736:     Northing
 UTM-E.                                      721928.25:     Easting
 CORE.                                              -5:     Core/Log Offset
#
~Curve Information Block
#MNEM.UNIT       API CODE      Curve Description
#----------    -------------   -------------------
 DEPT.FT                   :   Depth in Feet
 ILD .OHMM     05 120 46 01:   Deep Induction Standard Processed Resistivity
 SP  .MV       01 010 01 01:   Spontaneous Potential
 RHOB.G/C3     42 350 01 01:   Bulk Density
 PEF .b/e                  :   Photo-Electric Factor
 GR  .GAPI     35 310 01 01:   Gamma Ray
 CALI.IN       70 280 01 01:   Caliper
 DPHI.V/V      45 890 01 01:   Density Porosity
 NPHI.V/V      42 890 03 01:   Neutron Porosity
 DTCO.US/F                 :   Delta-T Compressional
#
~Parameter Information Block
#MNEM.UNIT            Value               Description
#----------    --------------------    -------------------
 DATE.                  26-07-1994:    Date As Month-Day-Year
 RUN .                         ONE:    Run Number
 PDAT.                         UNK:    Permanent Datum
 EPD .FT                 6611.0000:    Elevation Of Perm. Datum
 LMF .                          KB:    Log Measured From
 FAPD.FT                   15.0000:    Feet Above Perm. Datum
 DMF .                          KB:    Drilling Measured From
 EKB .FT                 6627.0000:    Elevation Of Kelly Bushing
 EDF .FT                 6626.0000:    Elevation Of Derrick Floor
 EGL .FT                 6611.0000:    Elevation Of Ground Level
 TD  .FT                 9700.0000:    Total Depth
 DD  .FT                 9735.0000:    Depth Driller
 DL  .FT                 9729.0000:    Depth Logger
 BLI .FT                 9719.0000:    Bottom Log Interval
 TLI .FT                 1716.0000:    Top Log Interval
 CSIZ.IN                  9.625 IN:    Casing Size
 CBD1.                        1715:    Casing Bottom (Driller) 1
 CBL1.                        1716:    Casing Bottom (Logger) 1
 BS  .IN                   7.675IN:    Bit Size
 DFT .                    GEL-CHEM:    Drilling Fluid Type
 DFV .S                    45.0000:    Drilling Fluid Viscosity
 DFD .LB/G                 10.1000:    Drilling Fluid Density
 DFL .ML                    8.0000:    Drilling Fluid Loss
 DFPH.                     10.0000:    Drilling Fluid Ph
 MSS .                     MUDTANK:    Mud Sample Source
 RMS .OHMM                  1.4400:    Resistivity Of Mud Sample
 MST .DEGF                 85.0000:    Mud Sample Temperature
 RMF .OHMM                  1.1700:    Mud Filtrate Resistivity
 MFST.DEGF                 80.0000:    Mud Filtrate Sample Temperature
 RMC .OHMM                  1.3300:    Mud Cake Resistivity
 MCST.DEGF                 80.0000:    Mud Cake Sample Temperature
 RMB .OHMM                  0.7480:    Mud Resistivity At Bht
 BHT .DEGF                170.0000:    Bottom Hole Temperature
 MRT .DEGF                170.0000:    Maximum Recorded Temperature
 LUN .                        8415:    Logging Unit Number
 LUL .                      CASPER:    Logging Unit Location
 ENGI.                 CHRISTENSEN:    Engineer'S Name
 WITN.                       LYNON:    Witness' Name
 DGBY.                         R2V:    
 WSTA.                         LOC:    
#
~Other Information Block
<DescLogPlotStart>   NEURALOG PLOT DEFINITION
PLOTDEFVERSION: 3
LASFILE: C:\nds\projects\mf-nov-13\las\3723385A.las
DEPTHSCALE: 240.000000
RESOLUTION: 200
DEPTHLABELFREQ: 100.000000
HEAVYGRIDFREQ: 100.000000
MEDIUMGRIDFREQ: 50.000000
LIGHTGRIDFREQ: 10.000000
#
#   TRACK 1
#
STARTTRACK: 
 LEFTX: 0.500000 inch
 RIGHTX: 3.000000 inch
 SCALETYPE: Log
 NUMCYCLES: 4
 STARTCYCLE: 2
CURVE: ILD   0.200000   2000.000000 (0,0,255)      Solid             2     N   
ENDTRACK: 
#
#   TRACK 2
#
STARTTRACK: 
 LEFTX: 3.500000 inch
 RIGHTX: 6.000000 inch
 SCALETYPE: Linear
 NUMCHARTDIVISIONS: 10
CURVE: SP    -80.000000 20.000000  (0,131,131)    Solid             2     Y    
BACKUP: 20.000000  120.000000 (0,131,131)    Solid             2    
BACKUP: -180.000000 -80.000000 (0,131,131)    Solid             2    
ENDTRACK: 
#
#   TRACK 3
#
STARTTRACK: 
 LEFTX: 6.000000 inch
 RIGHTX: 11.000000 inch
 SCALETYPE: Linear
 NUMCHARTDIVISIONS: 10
CURVE: RHOB  2.000000   3.000000   (255,0,255)    Solid             2     Y    
BACKUP: 1.000000   2.000000   (255,0,255)    Solid             2    
CURVE: PEF   0.000000   10.000000  (255,0,0)      Dot               2     N    
ENDTRACK: 
#
#   TRACK 4
#
STARTTRACK: 
 LEFTX: 11.000000 inch
 RIGHTX: 13.500000 inch
 SCALETYPE: Linear
 NUMCHARTDIVISIONS: 10
CURVE: GR    0.000000   150.000000 (255,131,0)    Solid             2     Y    
BACKUP: 150.000000 300.000000 (255,131,0)    Solid             2    
CURVE: CALI  6.000000   16.000000  (255,255,0)    Dot               2     Y    
BACKUP: 16.000000  26.000000  (255,255,0)    Dot               2    
ENDTRACK: 
#
#   TRACK 5
#
STARTTRACK: 
 LEFTX: 13.500000 inch
 RIGHTX: 18.500000 inch
 SCALETYPE: Linear
 NUMCHARTDIVISIONS: 10
CURVE: DPHI  0.300000   -0.100000  (0,0,255)      Solid             2     N    
CURVE: NPHI  0.300000   -0.100000  (0,131,131)    Dot               2     Y    
BACKUP: 0.700000   0.300000   (0,131,131)    Dot               2    
ENDTRACK: 
#
#   TRACK 6
#
STARTTRACK: 
 LEFTX: 13.500000 inch
 RIGHTX: 18.500000 inch
 SCALETYPE: Linear
 NUMCHARTDIVISIONS: 10
CURVE: DTCO  240.000000 40.000000  (255,0,255)    Solid             2     N    
ENDTRACK: 
<DescLogPlotEnd>
~A DEPTH     ILD              SP               RHOB             PEF              GR               CALI             DPHI             NPHI             DTCO            
# ...
    8400.900 20.97056318      -33.50462060     2.49601234       2.35811175       71.87249680      8.96867508       0.09440081       0.12578046       -999.25000000   
    8401.000 20.89378180      -33.57544798     2.49669139       2.35584801       71.84780880      8.96899129       0.09403517       0.12578046       -999.25000000   
    8401.100 20.81728156      -33.64602391     2.49740309       2.35357560       71.82312080      8.96930751       0.09338446       0.12604385       -999.25000000   
    8401.200 20.74106141      -33.71692222     2.49808051       2.35131288       71.79843280      8.96962373       0.09273375       0.12657061       -999.25000000   
    8401.300 20.66512033      -33.78831709     2.49875110       2.34909178       71.77374480      8.96993995       0.09208304       0.12709737       -999.25000000   
    8401.400 20.58945731      -33.85895875     2.49943932       2.34692803       71.74905680      8.97025617       0.09143233       0.12762414       -999.25000000   
    8401.500 20.51407131      -33.92874155     2.50012916       2.34482434       71.72435640      8.97057239       0.09078163       0.12815090       -999.25000000   
    8401.600 20.43896133      -34.00007621     2.50080910       2.34275740       71.69954795      8.97088860       0.09013092       0.12867767       -999.25000000   
    8401.700 20.36412636      -34.07278694     2.50148858       2.34065002       71.67469065      8.97120482       0.08948021       0.12920443       -999.25000000   
    8401.800 20.28956539      -34.14248058     2.50217295       2.33848104       71.65005544      8.97152104       0.08882950       0.12973120       -999.25000000   
    8401.900 20.21527742      -34.20988802     2.50285673       2.33639087       71.62550179      8.97183726       0.08817879       0.13025796       -999.25000000   
    8402.000 20.14126144      -34.28350673     2.50353792       2.33441279       71.60043162      8.97215348       0.08752808       0.13078472       -999.25000000   
    8402.100 20.06751646      -34.36338958     2.50421951       2.33227708       71.57524828      8.97246970       0.08687737       0.13131149       -999.25000000   
    8402.200 19.99404150      -34.43231903     2.50490226       2.32995212       71.55116189      8.97278591       0.08622666       0.13183825       -999.25000000   
    8402.300 19.92083555      -34.47606607     2.50558482       2.32795203       71.52715569      8.97310213       0.08581499       0.13236502       -999.25000000   
    8402.400 19.84789764      -34.50333242     2.50626671       2.32628234       71.50105205      8.97341835       0.08564235       0.13262840       -999.25000000   
    8402.500 19.77522678      -34.53257609     2.50694819       2.32393191       71.47507479      8.97373457       0.08546972       0.13262840       -999.25000000   
    8402.600 19.70282200      -34.56831319     2.50762989       2.32089592       71.45293021      8.97405079       0.08529708       0.13251854       -999.25000000   
    8402.700 19.63068232      -34.60326218     2.50831071       2.31975481       71.43001538      8.97436701       0.08512444       0.13229882       -999.25000000   
    8402.800 19.55880677      -34.63495666     2.50899041       2.32310594       71.39962890      8.97468322       0.08495181       0.13207910       -999.25000000   
    8402.900 19.48719439      -34.66726538     2.50969634       2.33014637       71.37278454      8.97499937       0.08477917       0.13185938       -999.25000000   
    8403.000 19.41584421      -34.70130662     2.51050822       2.33800407       71.37452945      8.97531558       0.08433031       0.13163983       -999.25000000   
    8403.100 19.34475527      -34.73488705     2.51151441       2.34540795       71.41237564      8.97563197       0.08360524       0.13141849       -999.25000000   
    8403.200 19.27392661      -34.76759226     2.51271783       2.35270471       71.46495572      8.97594818       0.08288016       0.13119800       -999.25000000   
    8403.300 19.20335728      -34.80059920     2.51401827       2.35982126       71.51033198      8.97626396       0.08215509       0.13097558       -999.25000000   
    8403.400 19.13304634      -34.83400020     2.51531293       2.36686547       71.54894388      8.97658022       0.08143001       0.13075582       -999.25000000   
    8403.500 19.06299283      -34.86723574     2.51658197       2.37484514       71.59054085      8.97689730       0.08070493       0.13053317       -999.25000000   
    8403.600 19.00822842      -34.90030891     2.51785515       2.38299707       71.63537698      8.97721324       0.07997986       0.13031311       -999.25000000   
    8403.700 18.95546266      -34.93346236     2.51914066       2.38753782       71.67806926      8.97752780       0.07925478       0.13045344       -999.25000000   
    8403.800 18.91216838      -34.96669016     2.52042307       2.38594199       71.71877371      8.97784474       0.07852971       0.13095675       -999.25000000   
    8403.900 18.86897298      -34.99990604     2.52169888       2.38046394       71.76123763      8.97816387       0.07780463       0.13146052       -999.25000000   
    8404.000 18.82587625      -35.03312192     2.52297687       2.37502931       71.80514725      8.97847836       0.07688822       0.13196315       -999.25000000   
    8404.100 18.78287794      -35.06633780     2.52425789       2.37075359       71.84687256      8.97878904       0.07578046       0.13246822       -999.25000000   
    8404.200 18.73997785      -35.09955368     2.52553947       2.36650194       71.88656262      8.97910920       0.07467271       0.13297047       -999.25000000   
    8404.300 18.69717574      -35.13276956     2.52682255       2.36167426       71.92964629      8.97944269       0.07356495       0.13347600       -999.25000000   
    8404.400 18.65447138      -35.16598544     2.52810287       2.35663044       71.97580735      8.97977252       0.07268572       0.13397820       -999.25000000   
    8404.500 18.61186457      -35.19920132     2.52937750       2.35209240       72.01576110      8.98008666       0.07203501       0.13464907       -999.25000000   
    8404.600 18.56935507      -35.23241720     2.53066372       2.34929749       72.05050527      8.98039840       0.07138431       0.13548162       -999.25000000   
    8404.700 18.52694266      -35.26563307     2.53196541       2.34921889       72.09670763      8.98072444       0.07073360       0.13631784       -999.25000000   
    8404.800 18.48462712      -35.29884895     2.53324106       2.35113753       72.15192685      8.98105989       0.07008289       0.13715133       -999.25000000   
    8404.900 18.44240823      -35.33206483     2.53448840       2.35332197       72.18516645      8.98139119       0.06943218       0.13798710       -999.25000000   
    8405.000 18.40028577      -35.36528710     2.53579126       2.35507045       72.20464154      8.98171791       0.06878147       0.13882148       -999.25000000   
    8405.100 18.35825951      -35.39848719     2.53714157       2.35683725       72.30344126      8.98204699       0.06813076       0.13965581       -999.25000000   
    8405.200 18.31632924      -35.43165623     2.53838055       2.35895492       72.56301812      8.98237841       0.06748005       0.14049219       -999.25000000   
    8405.300 18.27449475      -35.46487439     2.53954223       2.36164953       72.92152364      8.98270835       0.06682934       0.14132346       -999.25000000   
    8405.400 18.23275580      -35.49815822     2.54092997       2.36537986       73.23294511      8.98303719       0.06617864       0.14216185       -999.25000000   
    8405.500 18.19111218      -35.53132039     2.54247976       2.36972541       73.48366862      8.98336689       0.06552793       0.14299081       -999.25000000   
    8405.600 18.14956368      -35.56435867     2.54351573       2.37338955       73.84667789      8.98369705       0.06487722       0.14383079       -999.25000000   
    8405.700 18.10811007      -35.59767237     2.54366633       2.37667168       74.43123106      8.98402676       0.06468614       0.14465923       -999.25000000   
