~Version ---------------------------------------------------
VERS.   2.0 : CWLS log ASCII Standard -VERSION 2.0
WRAP.    NO : One line per depth step
DLM . SPACE : Column Data Section Delimiter
~Well ------------------------------------------------------
STRT.FT   8950.0     : START DEPTH
STOP.FT  10550.0     : STOP DEPTH
STEP.FT      0.5     : STEP
NULL.    -999.25     : NULL VALUE
COMP.        HRM     : COMPANY
WELL.57 Hay Reservoir: WELL
FLD .  Hay Reservoir : FIELD
LOC .     24N 97W    : LOCATION
CNTY.     Sweetwater : COUNTY
STAT.         WY     : STATE
CTRY.          USA   : COUNTRY
SRVC.           SLB? : SERVICE COMPANY
DATE. 11/14/2019     : DATE
API . 4903723193     : API NUMBER
UWI .   3723193A     : UWI NUMBER
TVD .         NO     : TVD flag
WSTA.        LOC     : Well status
USGS.            E952: USGS Number
LATI.DEG     42.04063: LATITUDE
LONG.DEG   -108.36672: LONGITUDE
UTM-N.     4657642.54: Northing
UTM-E.      717951.25: Easting
CORE.              -4: Core/Log Offset
~Curve Information -----------------------------------------
DEPT.FT                : Depth in Feet
DPHI.V/V  45 890 01 01 : Density Porosity
NPHI.V/V  42 890 03 01 : Neutron Porosity
GR  .API  35 310 01 01 : Gamma Ray
CALI.IN   70 280 01 01 : Caliper
RHOB.G/CC 42 350 01 01 : Bulk Density
PEF .BARN              : Photoelectric Effect
ILD .                  : Deep Induction
SP  .                  : Spontaneous Potential
~Params ----------------------------------------------------
~Other -----------------------------------------------------
~ASCII -----------------------------------------------------
# ...
 9350.00000   -0.01000    0.13200  101.52000    9.33900    2.66600    3.73100   22.24900    1.05000
 9350.50000   -0.00400    0.13100  100.34400    9.30200    2.65900    3.74500   22.31100    1.12100
 9351.00000   -0.00300    0.13300  101.08000    9.30300    2.65300    3.74800   22.43100    1.19200
 9351.50000   -0.00500    0.13500  101.77800    9.31200    2.65200    3.75600   22.55100    1.26400
 9352.00000   -0.00800    0.13700  102.47900    9.32200    2.65800    3.75300   22.66500    1.33600
 9352.50000   -0.01300    0.13900  103.20800    9.31000    2.66600    3.73200   22.19700    1.39800
 9353.00000   -0.01800    0.14000  104.73900    9.28200    2.67400    3.64500   21.63900    1.43300
 9353.50000   -0.02200    0.14100  106.40100    9.24800    2.68200    3.57700   21.63900    1.46700
 9354.00000   -0.02300    0.14100  108.32700    9.22600    2.68800    3.50600   21.63900    1.50200
 9354.50000   -0.01900    0.13500  109.45800    9.20800    2.68500    3.52700   21.63600    1.53700
 9355.00000   -0.01600    0.12600  110.73700    9.18900    2.67800    3.55800   21.63000    1.57100
 9355.50000   -0.01800    0.11800  111.92800    9.17000    2.67600    3.55400   21.62800    1.60600
 9356.00000   -0.02300    0.10800  111.66000    9.16200    2.68300    3.45700   22.21200    1.64100
 9356.50000   -0.02500    0.10900  107.13600    9.16200    2.69000    3.37400   22.71700    1.67600
 9357.00000   -0.02100    0.11400   99.85800    9.16200    2.68400    3.28900   23.23300    1.71100
 9357.50000   -0.01500    0.11900   94.13900    9.16200    2.67200    3.20500   23.76200    1.74500
 9358.00000   -0.00800    0.12400   92.40700    9.16200    2.66100    3.12700   24.30200    1.78400
 9358.50000   -0.00500    0.12900   96.12200    9.16200    2.65700    3.18000   24.86600    1.54800
 9359.00000   -0.00400    0.13400   99.23900    9.16200    2.65500    3.28100   24.86600    1.20600
 9359.50000   -0.00500    0.13300  100.42500    9.16200    2.65700    3.38300   24.71600    0.85700
 9360.00000   -0.00600    0.12800   98.91400    9.16200    2.66100    3.43400   24.53600    0.51000
 9360.50000   -0.00700    0.12300   97.20200    9.16200    2.66100    3.39000   24.35800    0.16200
 9361.00000   -0.00700    0.12200   95.32900    9.16200    2.66000    3.35000   24.18000   -0.18200
 9361.50000   -0.00800    0.12200   93.40700    9.16200    2.66100    3.36000   24.00500   -0.47900
 9362.00000   -0.00800    0.12500   92.33800    9.16200    2.66100    3.45700   23.83000   -0.65000
 9362.50000   -0.00500    0.13100   92.49500    9.16200    2.65500    3.59500   23.74000   -0.82700
 9363.00000   -0.00400    0.13700   94.49100    9.15700    2.65300    3.64700   24.75400   -1.04800
 9363.50000   -0.00700    0.14300   96.86600    9.13600    2.66100    3.51600   25.46300   -1.27100
 9364.00000   -0.01100    0.14300   96.73000    9.12100    2.67200    3.38700   26.19200   -1.43200
 9364.50000   -0.01900    0.13800   93.17200    9.12100    2.68300    3.28800   26.94300   -1.42900
 9365.00000   -0.02600    0.13100   89.55700    9.12100    2.69400    3.28100   27.79000   -1.42900
 9365.50000   -0.03200    0.12400   86.91100    9.12900    2.70500    3.51900   27.78300   -1.42900
 9366.00000   -0.03700    0.11800   85.63300    9.15200    2.71100    3.80100   27.80600   -1.42900
 9366.50000   -0.03600    0.11600   85.58000    9.17300    2.69900    4.08200   27.42000   -1.42900
 9367.00000   -0.02800    0.11500   90.52000    9.23000    2.68700    4.11400   26.64600   -1.42900
 9367.50000   -0.01900    0.11600   98.13000    9.30400    2.67800    3.92400   25.26700   -1.42800
 9368.00000   -0.01800    0.13100  103.92400    9.34700    2.68400    3.67900   23.96000   -1.42900
 9368.50000   -0.02300    0.14300  108.50900    9.35500    2.69100    3.47300   22.72100   -1.42700
 9369.00000   -0.02600    0.14400  106.47500    9.36300    2.69100    3.48900   21.54500   -1.54500
 9369.50000   -0.02400    0.14100  103.88500    9.37100    2.68400    3.50600   20.43000   -1.81500
 9370.00000   -0.02000    0.13800  105.21800    9.37900    2.67700    3.52400   19.37300   -2.19100
 9370.50000   -0.01500    0.14000  106.09400    9.38700    2.67200    3.53600   18.31500   -2.46300
 9371.00000   -0.01300    0.14500  106.67600    9.39500    2.67100    3.47700   17.90800   -2.53200
 9371.50000   -0.01300    0.15100  105.20300    9.40300    2.67000    3.48000   17.34200   -2.60500
 9372.00000   -0.01400    0.15500  103.13000    9.40400    2.66400    3.53900   16.84300   -2.67600
 9372.50000   -0.01200    0.15700  102.05500    9.40400    2.65800    3.59800   16.35700   -2.74800
 9373.00000   -0.00700    0.16000  104.36000    9.40000    2.65700    3.57100   15.88500   -2.82000
 9373.50000   -0.00500    0.16300  107.39900    9.39100    2.66000    3.53300   15.42800   -2.90900
 9374.00000   -0.00700    0.16600  110.40700    9.38600    2.66500    3.50100   15.07300   -3.00400
 9374.50000   -0.01000    0.16900  113.19900    9.40400    2.66900    3.55000   15.08100   -3.09900
 9375.00000   -0.01300    0.16700  114.70200    9.42100    2.67400    3.59900   14.79000   -3.19400
 9375.50000   -0.01600    0.16400  115.88800    9.43900    2.67700    3.64800   14.78700   -3.28800
 9376.00000   -0.01800    0.16500  115.59900    9.45800    2.67300    3.70800   15.36900   -3.38300
 9376.50000   -0.01100    0.16500  115.26000    9.47400    2.65200    3.79400   16.43600   -3.47600
 9377.00000    0.00100    0.15300  112.14700    9.48700    2.62700    3.76400   17.61200   -3.57200
 9377.50000    0.01900    0.14000  102.03100    9.50200    2.60300    3.55200   18.87300   -3.80000
 9378.00000    0.03700    0.12700   92.20100    9.51100    2.58600    3.34400   20.22400   -4.49900
 9378.50000    0.04200    0.12800   82.15400    9.51900    2.57600    3.13500   21.37200   -5.17400
 9379.00000    0.04700    0.13100   76.23000    9.52500    2.56900    3.01500   22.33700   -5.85000
 9379.50000    0.05200    0.13200   73.42100    9.52500    2.55900    3.06300   23.31500   -6.45800
 9380.00000    0.05900    0.13000   71.36300    9.52500    2.54500    3.13000   23.30000   -7.06700
 9380.50000    0.06600    0.12900   69.99400    9.52500    2.53300    3.19400   23.30600   -7.56800
 9381.00000    0.07200    0.13200   71.05300    9.52500    2.53000    3.11300   22.75300   -7.48200
 9381.50000    0.07100    0.13500   74.76200    9.52500    2.53300    3.02200   22.27900   -7.22300
 9382.00000    0.06500    0.13500   78.89600    9.52500    2.54100    2.93900   21.81400   -6.96200
 9382.50000    0.05600    0.13400   78.93100    9.52500    2.55400    2.94900   21.35800   -6.59100
 9383.00000    0.04700    0.13300   77.17400    9.52500    2.56900    2.97900   20.91100   -6.15900
 9383.50000    0.04000    0.13500   76.22300    9.52500    2.58200    3.01000   20.45800   -5.72400
 9384.00000    0.03300    0.13700   76.55000    9.52500    2.59500    3.01500   20.47800   -5.28900
 9384.50000    0.02300    0.13800   78.93400    9.52500    2.60700    3.01200   20.65900   -4.85600
 9385.00000    0.01800    0.13800   81.01100    9.52500    2.61700    3.00900   20.75500   -4.55100
 9385.50000    0.01600    0.13800   82.90600    9.52500    2.62300    3.00800   20.85200   -4.58100
 9386.00000    0.02100    0.13800   83.03700    9.52500    2.61300    3.04500   21.73700   -4.78600
 9386.50000    0.03200    0.13500   79.99000    9.51800    2.59700    3.02200   22.31000   -4.99400
 9387.00000    0.04200    0.13000   76.82100    9.51000    2.58000    2.91900   22.89900   -5.43500
 9387.50000    0.04700    0.12600   75.24400    9.50400    2.57100    2.81600   23.50300   -5.95600
 9388.00000    0.04600    0.12200   74.28700    9.50000    2.57100    2.72300   24.12300   -6.47600
 9388.50000    0.04100    0.12500   71.86300    9.49500    2.57700    2.73500   24.76000   -6.90900
 9389.00000    0.03700    0.12700   70.03700    9.49100    2.58400    2.74800   25.41300   -7.08200
 9389.50000    0.03100    0.12600   70.86700    9.48700    2.59200    2.76100   26.04500   -7.25700
