~Version ---------------------------------------------------
VERS. 2.0 : CWLS log ASCII Standard -VERSION 2.0
WRAP.  NO : One Line Per Depth Step
~Well ------------------------------------------------------
STRT .FT              12000.0 : START DEPTH
STOP .FT              13400.0 : STOP DEPTH
STEP .FT   0.1000000000003638 : STEP
NULL .                -999.25 : NULL VALUE
COMP . ENRON OIL &GAS COMPANY : COMPANY
WELL .       CEPO-LEWIS 21-38 : WELL
FLD  .             CEPO-LEWIS : FIELD
LOC  .   1205' FWL &1300' FSL : LOCATION
CNTY .             SWEETWATER : COUNTY
STAT .                WYOMING : STATE
CTRY .                    USA : COUNTRY
SRVC .                        : SERVICE COMPANY
DATE .             25/05/1998 : DATE
API  .             4903724185 : API NUMBER
UWI  .                3724185 : UWI NUMBER
TVD  .                     NO : TVD flag
WSTA .                    LOC : Well status
USGS .                   CEPO : USGS Number
LATI .DEG            41.18194 : LATITUDE
LONG .DEG          -108.14139 : LONGITUDE
UTM-N.             4562894.53 : Northing
UTM-E.              739764.57 : Easting
CORE .FT                 -3.9 : Core/Log Offset
~Curve Information -----------------------------------------
DEPT .FT                : Depth in Feet
GR   .GAPI 35 310 01 01 : Gamma Ray
SP   .MV   01 010 01 01 : Spontaneous Potential
CALI .IN   70 280 01 01 : Caliper
AHT90.OHMM              : 
ILD  .OHMM 05 120 46 01 : Deep Induction Standard Processed Resistivity
HCAL .IN                : 
DPHI .V/V  45 890 01 01 : Density Porosity
NPOR .V/V               : Neutron Porosity Output From An Application Program
RHOB .G/C3 42 350 01 01 : Bulk Density
PEF  .b/e               : Photo-Electric Factor
DT   .US/F 60 520 08 01 : Delta-T
SPHI .V/V  61 890 01 01 : Sonic Porosity
RESD .OHMM              : Deep Resistivity - Merged AHT90 & ILD
~Params ----------------------------------------------------
DATE.  25-05-1998 : Date As Month-Day-Year
RUN .         ONE : Run Number
PDAT.         UNK : Permanent Datum
EPD .FT    6416.0 : Elevation Of Perm. Datum
LMF .          KB : Log Measured From
FAPD.FT      21.0 : Feet Above Perm. Datum
DMF .          KB : Drilling Measured From
EKB .FT    6437.0 : Elevation Of Kelly Bushing
EDF .FT    6436.0 : Elevation Of Derrick Floor
EGL .FT    6416.0 : Elevation Of Ground Level
TD  .FT   13400.0 : Total Depth
DD  .FT   12587.0 : Depth Driller
DL  .FT   12616.0 : Depth Logger
BLI .FT   12602.0 : Bottom Log Interval
TLI .FT    2346.0 : Top Log Interval
DFT .    GEL-CHEM : Drilling Fluid Type
LUN .        8269 : Logging Unit Number
LUL . ROCK SPRING : Logging Unit Location
DGBY.         R2V : 
WSTA.         LOC : 
~Other -----------------------------------------------------
<DescLogPlotStart>   NEURALOG PLOT DEFINITION
PLOTDEFVERSION: 3
LASFILE: C:\nds\projects\mf-nov-13\las\3724185G.las
DEPTHSCALE: 240.000000
RESOLUTION: 200
DEPTHLABELFREQ: 100.000000
HEAVYGRIDFREQ: 100.000000
MEDIUMGRIDFREQ: 50.000000
LIGHTGRIDFREQ: 10.000000
#
#   TRACK 1
#
STARTTRACK:
LEFTX: 0.500000 inch
RIGHTX: 3.000000 inch
SCALETYPE: Linear
NUMCHARTDIVISIONS: 10
CURVE: GR    0.000000   150.000000 (0,0,255)      Solid             2     N
CURVE: SP    -100.000000 0.000000   (0,131,131)    Dot               2     Y
BACKUP: 0.000000   100.000000 (0,131,131)    Dot               2
BACKUP: 100.000000 200.000000 (0,131,131)    Dot               2
BACKUP: 200.000000 300.000000 (0,131,131)    Dot               2
BACKUP: 300.000000 400.000000 (0,131,131)    Dot               2
CURVE: CALI  4.000000   14.000000  (255,0,255)    Short_Dash        2     N
CURVE: HCAL  4.000000   14.000000  (255,0,0)      Medium_Dash       2     Y
BACKUP: -6.000000  4.000000   (255,0,0)      Medium_Dash       2
ENDTRACK:
#
#   TRACK 2
#
STARTTRACK:
LEFTX: 3.500000 inch
RIGHTX: 8.500000 inch
SCALETYPE: Log
NUMCYCLES: 4
STARTCYCLE: 2
CURVE: AHT90 0.200000   2000.000000 (255,131,0)    Solid             2     N
CURVE: ILD   0.200000   2000.000000 (255,255,0)    Dot               2     N
ENDTRACK:
#
#   TRACK 3
#
STARTTRACK:
LEFTX: 3.500000 inch
RIGHTX: 8.500000 inch
SCALETYPE: Linear
NUMCHARTDIVISIONS: 10
CURVE: DPHI  0.300000   -0.100000  (0,0,255)      Solid             2     Y
BACKUP: 0.700000   0.300000   (0,0,255)      Solid             2
CURVE: NPOR  0.300000   -0.100000  (0,131,131)    Dot               2     Y
BACKUP: 0.700000   0.300000   (0,131,131)    Dot               2
ENDTRACK:
#
#   TRACK 4
#
STARTTRACK:
LEFTX: 3.500000 inch
RIGHTX: 8.500000 inch
SCALETYPE: Linear
NUMCHARTDIVISIONS: 10
CURVE: RHOB  2.000000   3.000000   (255,0,255)    Solid             2     Y
BACKUP: 1.000000   2.000000   (255,0,255)    Solid             2
BACKUP: 3.000000   4.000000   (255,0,255)    Solid             2
CURVE: PEF   0.000000   20.000000  (255,0,0)      Dot               2     N
ENDTRACK:
#
#   TRACK 5
#
STARTTRACK:
LEFTX: 3.500000 inch
RIGHTX: 8.500000 inch
SCALETYPE: Linear
NUMCHARTDIVISIONS: 10
CURVE: DT    140.000000 40.000000  (255,131,0)    Solid             2     Y
BACKUP: 240.000000 140.000000 (255,131,0)    Solid             2
ENDTRACK:
<DescLogPlotEnd>
~ASCII -----------------------------------------------------
# ...
 13289.60000  -60.84510   42.09561    -999.25    -999.25   14.15224    6.28190    0.08076    0.06898    2.54693    6.29999    -999.25    -999.25   14.15224
 13289.70000  -61.00292   42.34828    -999.25    -999.25   13.59257    6.28191    0.07993    0.06898    2.54832    6.32669    -999.25    -999.25   13.59257
 13289.80000  -60.94686   42.62957    -999.25    -999.25   13.05505    6.28197    0.07946    0.06898    2.54961    6.34504    -999.25    -999.25   13.05505
 13289.90000  -60.55087   42.88732    -999.25    -999.25   12.53877    6.28194    0.07837    0.06898    2.55082    6.36490    -999.25    -999.25   12.53877
 13290.00000  -60.22769   43.12226    -999.25    -999.25   12.04292    6.28182    0.07762    0.06918    2.55198    6.39200    -999.25    -999.25   12.04292
 13290.10000  -60.26215   43.36413    -999.25    -999.25   11.56667    6.28199    0.07686    0.07462    2.55314    6.41605    -999.25    -999.25   11.56667
 13290.20000  -60.02477   43.61758    -999.25    -999.25   11.10926    6.28294    0.07610    0.07672    2.55433    6.41560    -999.25    -999.25   11.10926
 13290.30000  -58.65191   43.86700    -999.25    -999.25   10.66567    6.28464    0.07534    0.08079    2.55551    6.38113    -999.25    -999.25   10.66567
 13290.40000  -56.34538   44.10985    -999.25    -999.25   10.24978    6.28663    0.07458    0.08485    2.55669    6.32353    -999.25    -999.25   10.24978
 13290.50000  -54.14406   44.35603    -999.25    -999.25    9.83807    6.28852    0.07382    0.08892    2.55787    6.25525    -999.25    -999.25    9.83807
 13290.60000  -52.49298   44.60635    -999.25    -999.25    9.45618    6.29032    0.07307    0.09299    2.55905    6.17502    -999.25    -999.25    9.45618
 13290.70000  -50.90849   44.85290    -999.25    -999.25    9.07215    6.29218    0.07231    0.09706    2.56026    6.07436    -999.25    -999.25    9.07215
 13290.80000  -49.00558   45.09632    -999.25    -999.25    8.72597    6.29407    0.07155    0.10113    2.56158    5.94713    -999.25    -999.25    8.72597
 13290.90000  -47.01591   45.34525    -999.25    -999.25    8.36503    6.29594    0.07079    0.10520    2.56300    5.79498    -999.25    -999.25    8.36503
 13291.00000  -45.20695   45.59760    -999.25    -999.25    8.05179    6.29779    0.07003    0.10926    2.56439    5.63848    -999.25    -999.25    8.05179
 13291.10000  -43.45503   45.84060    -999.25    -999.25    7.71400    6.29965    0.06898    0.11333    2.56581    5.51567    -999.25    -999.25    7.71400
 13291.20000  -41.57353   46.07784    -999.25    -999.25    7.35222    6.30152    0.06773    0.11893    2.56782    5.45002    -999.25    -999.25    7.35222
 13291.30000  -39.64855   46.33361    -999.25    -999.25    7.24996    6.30339    0.06570    0.11990    2.57090    5.42389    -999.25    -999.25    7.24996
 13291.40000  -37.85102   46.61003    -999.25    -999.25    7.15757    6.30525    0.06367    0.12144    2.57470    5.39941    -999.25    -999.25    7.15757
 13291.50000  -36.10741   46.86968    -999.25    -999.25    7.03338    6.30711    0.06163    0.12299    2.57836    5.36009    -999.25    -999.25    7.03338
 13291.60000  -34.18107   47.08534    -999.25    -999.25    6.93948    6.30898    0.05960    0.12453    2.58187    5.31844    -999.25    -999.25    6.93948
 13291.70000  -32.09403   47.28155    -999.25    -999.25    6.82415    6.31084    0.05756    0.12659    2.58626    5.28997    -999.25    -999.25    6.82415
 13291.80000  -30.24775   47.49551    -999.25    -999.25    6.72771    6.31271    0.05488    0.12659    2.59219    5.27515    -999.25    -999.25    6.72771
 13291.90000  -28.93181   47.72500    -999.25    -999.25    6.62391    6.31457    0.05202    0.12659    2.59906    5.26674    -999.25    -999.25    6.62391
 13292.00000  -27.91985   47.94894    -999.25    -999.25    6.52322    6.31643    0.04783    0.12602    2.60589    5.26484    -999.25    -999.25    6.52322
 13292.10000  -26.83229   48.16878    -999.25    -999.25    6.42406    6.31829    0.04364    0.12521    2.61242    5.27895    -999.25    -999.25    6.42406
 13292.20000  -25.62770   48.39323    -999.25    -999.25    6.32641    6.32015    0.03945    0.12439    2.61892    5.31439    -999.25    -999.25    6.32641
 13292.30000  -24.45351   48.61347    -999.25    -999.25    6.23025    6.32202    0.03526    0.12358    2.62560    5.36207    -999.25    -999.25    6.23025
 13292.40000  -23.27575   48.82791    -999.25    -999.25    6.13554    6.32388    0.03107    0.12256    2.63237    5.40819    -999.25    -999.25    6.13554
 13292.50000  -22.06313   49.05806    -999.25    -999.25    6.04228    6.32574    0.02688    0.12256    2.63902    5.45030    -999.25    -999.25    6.04228
 13292.60000  -20.89891   49.30345    -999.25    -999.25    5.95043    6.32760    0.02269    0.12327    2.64519    5.49380    -999.25    -999.25    5.95043
 13292.70000  -19.79760   49.51519    -999.25    -999.25    5.85998    6.32947    0.01850    0.12422    2.65054    5.53821    -999.25    -999.25    5.85998
 13292.80000  -18.31256   49.65236    -999.25    -999.25    5.77090    6.33133    0.01339    0.12538    2.65500    5.58048    -999.25    -999.25    5.77090
 13292.90000  -15.34603   49.73786    -999.25    -999.25    5.68318    6.33319    0.01244    0.13100    2.65869    5.62424    -999.25    -999.25    5.68318
 13293.00000  -11.40546   49.82627    -999.25    -999.25    5.59679    6.33505    0.01122    0.13819    2.66168    5.66955    -999.25    -999.25    5.59679
 13293.10000   -7.60163   49.93695    -999.25    -999.25    5.51172    6.33692    0.01000    0.14537    2.66389    5.69752    -999.25    -999.25    5.51172
 13293.20000   -3.67298   50.04799    -999.25    -999.25    5.42794    6.33879    0.00878    0.15256    2.66538    5.68568    -999.25    -999.25    5.42794
 13293.30000    0.18821   50.14358    -999.25    -999.25    5.35829    6.34065    0.00756    0.15975    2.66638    5.63759    -999.25    -999.25    5.35829
 13293.40000    3.99339   50.23775    -999.25    -999.25    5.28548    6.34251    0.00614    0.16694    2.66699    5.57951    -999.25    -999.25    5.28548
 13293.50000    8.04560   50.34891    -999.25    -999.25    5.22334    6.34438    0.00614    0.17413    2.66704    5.52688    -999.25    -999.25    5.22334
 13293.60000   11.61864   50.46457    -999.25    -999.25    5.16193    6.34626    0.00614    0.18131    2.66633    5.47081    -999.25    -999.25    5.16193
 13293.70000   15.89641   50.54650    -999.25    -999.25    5.10125    6.34811    0.00614    0.18943    2.66484    5.40113    -999.25    -999.25    5.10125
 13293.80000   19.76672   50.57441    -999.25    -999.25    5.04128    6.34994    0.00655    0.19374    2.66277    5.32607    -999.25    -999.25    5.04128
 13293.90000   20.22847   50.56929    -999.25    -999.25    4.98201    6.35185    0.00788    0.19869    2.66047    5.25856    -999.25    -999.25    4.98201
 13294.00000   19.82660   50.56316    -999.25    -999.25    4.92344    6.35376    0.00939    0.20364    2.65829    5.19493    -999.25    -999.25    4.92344
 13294.10000   20.12798   50.56334    -999.25    -999.25    4.88364    6.35556    0.01090    0.20859    2.65619    5.12212    -999.25    -999.25    4.88364
 13294.20000   20.02197   50.56428    -999.25    -999.25    4.91070    6.35733    0.01240    0.21347    2.65389    5.04354    -999.25    -999.25    4.91070
 13294.30000   20.20585   50.57437    -999.25    -999.25    4.93139    6.35935    0.01391    0.21917    2.65144    4.98220    -999.25    -999.25    4.93139
 13294.40000   19.93386   50.60740    -999.25    -999.25    4.95217    6.36141    0.01543    0.22514    2.64949    4.95347    -999.25    -999.25    4.95217
 13294.50000   19.25150   50.66137    -999.25    -999.25    4.97303    6.36271    0.01701    0.22367    2.64853    4.94630    -999.25    -999.25    4.97303
 13294.60000   18.36480   50.72009    -999.25    -999.25    4.99399    6.36271    0.01863    0.22094    2.64824    4.93914    -999.25    -999.25    4.99399
 13294.70000   17.42649   50.77047    -999.25    -999.25    5.01503    6.36189    0.01943    0.21938    2.64795    4.92492    -999.25    -999.25    5.01503
