~Version ---------------------------------------------------
VERS.   2.0 : CWLS log ASCII Standard -VERSION 2.0
WRAP.    NO : One line per depth step
DLM . SPACE : Column Data Section Delimiter
~Well ------------------------------------------------------
STRT.FT   8950.0     : START DEPTH
STOP.FT  10550.0     : STOP DEPTH
STEP.FT      0.5     : STEP
NULL.    -999.25     : NULL VALUE
COMP.        HRM     : COMPANY
WELL.57 Hay Reservoir: WELL
FLD .  Hay Reservoir : FIELD
LOC .     24N 97W    : LOCATION
CNTY.     Sweetwater : COUNTY
STAT.         WY     : STATE
CTRY.          USA   : COUNTRY
SRVC.           SLB? : SERVICE COMPANY
DATE. 11/14/2019     : DATE
API . 4903723193     : API NUMBER
UWI .   3723193A     : UWI NUMBER
TVD .         NO     : TVD flag
WSTA.        LOC     : Well status
USGS.            E952: USGS Number
LATI.DEG     42.04063: LATITUDE
LONG.DEG   -108.36672: LONGITUDE
UTM-N.     4657642.54: Northing
UTM-E.      717951.25: Easting
CORE.              -4: Core/Log Offset
~Curve Information -----------------------------------------
DEPT.FT                : Depth in Feet
DPHI.V/V  45 890 01 01 : Density Porosity
NPHI.V/V  42 890 03 01 : Neutron Porosity
GR  .API  35 310 01 01 : Gamma Ray
CALI.IN   70 280 01 01 : Caliper
RHOB.G/CC 42 350 01 01 : Bulk Density
PEF .BARN              : Photoelectric Effect
ILD .                  : Deep Induction
SP  .                  : Spontaneous Potential
~Params ----------------------------------------------------
~Other -----------------------------------------------------
~ASCII -----------------------------------------------------
# ...
 9790.00000    0.05000    0.11600   56.73900   10.09100    2.57100    3.16700   12.15100  -12.98600
 9790.50000    0.04400    0.12400   61.35500   10.09100    2.57800    3.11700   11.98200  -12.61600
 9791.00000    0.04100    0.13200   66.13500   10.09100    2.58200    3.13400   11.81500  -12.25300
 9791.50000    0.03800    0.13900   70.38300   10.09100    2.58800    3.23600   11.66800  -11.88900
 9792.00000    0.03400    0.14200   73.03900   10.09100    2.59600    3.30800   11.53500  -11.53200
 9792.50000    0.02900    0.13900   73.68400   10.07600    2.60400    3.45600   11.40500  -11.36100
 9793.00000    0.02600    0.13600   71.26000   10.01200    2.60400    3.60300   11.27600  -11.21900
 9793.50000    0.02900    0.13700   70.65500    9.94900    2.59800    3.80700   11.14800  -11.07600
 9794.00000    0.03300    0.14600   73.53700    9.84600    2.59200    4.11500   11.02200  -10.93700
 9794.50000    0.03600    0.15600   79.05400    9.74800    2.59900    4.12000   10.89700  -10.60800
 9795.00000    0.02400    0.16500   84.53000    9.71300    2.61100    3.71900   10.77400  -10.17800
 9795.50000    0.01900    0.17500   89.70000    9.68100    2.62000    3.38300   10.70000  -10.08100
 9796.00000    0.01800    0.17700   91.59700    9.65400    2.61700    3.20000   10.70000  -10.07900
 9796.50000    0.02200    0.17100   88.54600    9.63100    2.61100    3.30900   10.96100  -10.08000
 9797.00000    0.02500    0.16000   82.38900    9.60900    2.60700    3.50000   11.27700  -10.08000
 9797.50000    0.02400    0.15000   77.02800    9.61200    2.60700    3.68800   11.60200  -10.07200
 9798.00000    0.02000    0.14500   74.64800    9.62000    2.61500    3.62400   11.93600  -10.84700
 9798.50000    0.01400    0.14200   75.32700    9.62600    2.62400    3.54900   12.28000  -11.00000
 9799.00000    0.01000    0.14300   77.35400    9.62600    2.63000    3.52100   12.63300  -11.11100
 9799.50000    0.00700    0.14500   79.07800    9.63000    2.63500    3.48800   12.87900  -11.22700
 9800.00000    0.00300    0.14600   79.54500    9.64500    2.64200    3.44000   13.12000  -11.34300
 9800.50000   -0.00000    0.14700   80.01100    9.66000    2.64900    3.38900   13.12000  -11.46500
 9801.00000   -0.00300    0.14900   81.76600    9.68000    2.65200    3.40600   13.12500  -11.37300
 9801.50000   -0.00100    0.15200   83.91700    9.70400    2.65100    3.52000   13.00300  -11.21400
 9802.00000    0.00100    0.15500   85.31800    9.72700    2.64800    3.65700   12.36000  -11.05500
 9802.50000    0.00500    0.15600   84.62200    9.73500    2.64000    3.70500   11.85100  -10.89600
 9803.00000    0.01000    0.15500   83.20600    9.74300    2.63300    3.72100   11.34600  -10.73500
 9803.50000    0.01300    0.15500   83.30500    9.75800    2.62700    3.79300   10.72800  -10.75400
 9804.00000    0.01500    0.15600   88.16000    9.78900    2.62400    3.87700   10.14400  -10.85500
 9804.50000    0.01800    0.16800   94.49200    9.81800    2.62200    3.89900    9.59100  -10.95900
 9805.00000    0.02500    0.17900  101.08400    9.85400    2.61400    3.91900    9.06700  -11.06200
 9805.50000    0.03500    0.19100  105.43100    9.89200    2.59700    3.97700    8.77500  -11.16500
 9806.00000    0.04300    0.20600  106.54700    9.92300    2.58000    4.11400    8.72700  -11.25700
 9806.50000    0.04700    0.19000  104.11000    9.95000    2.57000    4.62800   10.06700  -11.80200
 9807.00000    0.04000    0.16500   93.23400    9.97700    2.57500    5.00800   12.41000  -12.43300
 9807.50000    0.03200    0.13900   82.94800   10.01000    2.59000    4.71100   11.95900  -13.05800
 9808.00000    0.02900    0.11800   72.97100   10.04200    2.59900    4.15900   13.15900  -13.61000
 9808.50000    0.03800    0.11000   64.39200   10.07500    2.59700    3.67700   14.73600  -13.95100
 9809.00000    0.04800    0.10600   63.93100   10.10700    2.58200    3.64400   16.34800  -14.29200
 9809.50000    0.05600    0.10300   63.86700   10.14500    2.56500    3.66900   17.15200  -14.40700
 9810.00000    0.05900    0.10100   63.81600   10.20500    2.55300    3.63200   17.48600  -14.13100
 9810.50000    0.05300    0.09900   62.59100   10.26400    2.55500    3.43800   17.48600  -13.86000
 9811.00000    0.04400    0.09600   60.21700   10.32300    2.56400    3.26600   17.42500  -13.58800
 9811.50000    0.03400    0.09500   58.68800   10.38100    2.58200    3.19100   17.35600  -13.31600
 9812.00000    0.02400    0.09700   56.30600   10.42800    2.59800    3.33300   17.18600  -13.04400
 9812.50000    0.02500    0.10000   54.81300   10.46000    2.60700    3.65400   16.93500  -12.77000
 9813.00000    0.02600    0.10500   54.16700   10.48700    2.60800    3.74100   16.69200  -12.50600
 9813.50000    0.02300    0.10900   53.52200   10.51000    2.60700    3.70200   16.23000  -12.59300
 9814.00000    0.01800    0.11200   52.87200   10.53400    2.61300    3.59300   15.79400  -12.69500
 9814.50000    0.01500    0.11500   52.29900   10.55700    2.62200    3.48500   15.36900  -12.74500
 9815.00000    0.01900    0.11900   52.74300   10.58000    2.62300    3.40200   14.95600  -12.79100
 9815.50000    0.02400    0.12200   53.78100   10.59800    2.61300    3.41000   14.55400  -12.83800
 9816.00000    0.03000    0.12200   55.06600   10.60200    2.60000    3.48700   14.16300  -12.88300
 9816.50000    0.02800    0.12000   55.14000   10.60700    2.60000    3.46300   13.78100  -13.05800
 9817.00000    0.02500    0.11500   54.24700   10.61200    2.60600    3.42000   13.69500  -13.27500
 9817.50000    0.03900    0.11000   53.36700   10.61700    2.60000    3.43100   13.61600  -13.49500
 9818.00000    0.05400    0.10400   52.46700   10.62800    2.57500    3.30500   13.81100  -13.69100
 9818.50000    0.06700    0.09800   52.06200   10.63500    2.54700    3.13100   13.98300  -13.49100
 9819.00000    0.07000    0.09300   52.31400   10.62500    2.53800    2.95500   14.15800  -13.28300
 9819.50000    0.05900    0.09300   53.87400   10.61600    2.54900    2.91700   14.33400  -13.07700
 9820.00000    0.05200    0.09600   55.43800   10.61600    2.56300    2.98700   14.51300  -12.81400
 9820.50000    0.04700    0.10400   56.53200   10.61600    2.56900    3.11200   14.66300  -12.21300
 9821.00000    0.05400    0.11300   56.52300   10.61600    2.55900    3.23800   14.66300  -12.04500
 9821.50000    0.06000    0.11700   56.17000   10.61600    2.54800    3.32600   14.71600  -11.98300
 9822.00000    0.06600    0.11400   54.63100   10.61600    2.53900    3.39200   14.76800  -11.92600
 9822.50000    0.06800    0.11000   53.61600   10.61600    2.53800    3.38400   14.82100  -11.98500
 9823.00000    0.06800    0.10900   52.19800   10.61600    2.53700    3.27500   14.87400  -12.19200
 9823.50000    0.07000    0.11700   51.13200   10.61600    2.53400    3.16700   14.92400  -12.39800
 9824.00000    0.07300    0.12700   51.69700   10.61600    2.53000    3.16200   15.25900  -12.57800
 9824.50000    0.07100    0.12600   53.00400   10.61600    2.53400    3.23700   15.67100  -12.73900
 9825.00000    0.06300    0.12200   53.18600   10.61600    2.54800    3.31300   16.09500  -12.89700
 9825.50000    0.05300    0.11200   53.18500   10.61600    2.56100    3.31300   16.38700  -13.05600
 9826.00000    0.04100    0.10300   53.18100   10.61000    2.57500    3.24800   16.38700  -13.21600
 9826.50000    0.04100    0.09800   53.17600   10.60300    2.57900    3.18200   16.20300  -13.38800
 9827.00000    0.04500    0.10000   53.17100   10.59600    2.57300    3.11600   15.74300  -13.57300
 9827.50000    0.04700    0.10200   53.75200   10.59600    2.57200    3.07900   15.29600  -13.64100
 9828.00000    0.04200    0.10800   59.26700   10.59600    2.58300    3.08200   14.86200  -13.42900
 9828.50000    0.03300    0.11100   67.92200   10.59600    2.60000    3.21000   14.44000  -13.12900
 9829.00000    0.02400    0.12900   77.48300   10.59600    2.61700    3.40300   14.03000  -12.66200
 9829.50000    0.01500    0.14600   87.23600   10.59600    2.62200    3.59900   13.61500  -12.19700
