~Version Information Block
 VERS.                2.00:     CWLS LOG ASCII STANDARD - VERSION 2.000000
 WRAP.                  NO:     One Line Per Depth Step
#
~Well Information Block
#MNEM.UNIT                     Data                         Information
#----------   ------------------------------------------   ----------------
 STRT.FT                                    12600.0000:     START DEPTH
 STOP.FT                                    13950.0000:     STOP DEPTH
 STEP.FT                                        0.1000:     STEP
 NULL.                                       -999.2500:     NULL VALUE
 COMP.                        PRESIDIO EXPLORATION INC:     COMPANY
 WELL.                          PICKETLAKE UNIT #40-13:     WELL
 FLD .                                         WILDCAT:     FIELD
 LOC .                           1320' FSL & 1320' FEL:     LOCATION
 CNTY.                                      SWEETWATER:     COUNTY
 STAT.                                         WYOMING:     STATE
 CTRY.                                             USA:     COUNTRY
 SRVC.                                                :     SERVICE COMPANY
 DATE.                                      15/05/1995:     DATE
 API .                                      4903723472:     API NUMBER
 UWI .                                         3723472:     UWI NUMBER
 TVD .                                              NO:     TVD flag
 WSTA.                                             LOC:     Well status
 USGS.                                            F042:     USGS Number
 LATI.DEG                                     42.22387:     LATITUDE
 LONG.DEG                                   -108.34765:     LONGITUDE
 UTM-N.                                     4678038.95:     Northing
 UTM-E.                                       718897.4:     Easting
 CORE.                                              +5:     Core/Log Offset
#
~Curve Information Block
#MNEM.UNIT       API CODE      Curve Description
#----------    -------------   -------------------
 DEPT.FT                   :   Depth in Feet
 DTCO.US/F     60 520 08 01:   DTCO
 SPHI.V/V      61 890 01 01:   Sonic Porosity
 GR  .GAPI     35 310 01 01:   Gamma Ray
 CALI.IN       70 280 01 01:   Caliper
 ILD .OHMM     05 120 46 01:   Deep Induction Standard Processed Resistivity
 SP  .MV       01 010 01 01:   Spontaneous Potential
 PEF .b/e                  :   Photo-Electric Factor
 RHOB.G/C3     42 350 01 01:   Bulk Density
 DPHI.V/V      45 890 01 01:   Density Porosity
 NPHI.V/V      42 890 03 01:   Neutron Porosity
#
~Parameter Information Block
#MNEM.UNIT            Value               Description
#----------    --------------------    -------------------
 DATE.                  15-05-1995:    Date As Month-Day-Year
 RUN .                         ONE:    Run Number
 PDAT.                         UNK:    Permanent Datum
 EPD .FT                 7224.0000:    Elevation Of Perm. Datum
 LMF .                          KB:    Log Measured From
 FAPD.FT                   15.0000:    Feet Above Perm. Datum
 DMF .                          KB:    Drilling Measured From
 EKB .FT                 7240.0000:    Elevation Of Kelly Bushing
 EDF .FT                 7239.0000:    Elevation Of Derrick Floor
 EGL .FT                 7224.0000:    Elevation Of Ground Level
 TD  .FT                13950.0000:    Total Depth
 DD  .FT                13957.0000:    Depth Driller
 DL  .FT                13952.0000:    Depth Logger
 BLI .FT                13925.0000:    Bottom Log Interval
 TLI .FT                10000.0000:    Top Log Interval
 CSIZ.IN                   9.625IN:    Casing Size
 CBD1.                        2520:    Casing Bottom (Driller) 1
 CBL1.                        2518:    Casing Bottom (Logger) 1
 BS  .IN                   7.875IN:    Bit Size
 DFT .                         WTD:    Drilling Fluid Type
 DFV .S                    74.0000:    Drilling Fluid Viscosity
 DFD .LB/G                 10.8000:    Drilling Fluid Density
 DFL .ML                    7.2000:    Drilling Fluid Loss
 DFPH.                      9.5000:    Drilling Fluid Ph
 MSS .                     MUDTANK:    Mud Sample Source
 RMS .OHMM                  4.3300:    Resistivity Of Mud Sample
 MST .DEGF                 65.0000:    Mud Sample Temperature
 RMF .OHMM                  3.3800:    Mud Filtrate Resistivity
 MFST.DEGF                 65.0000:    Mud Filtrate Sample Temperature
 RMC .OHMM                  4.5000:    Mud Cake Resistivity
 MCST.DEGF                 65.0000:    Mud Cake Sample Temperature
 RMB .OHMM                  1.3760:    Mud Resistivity At Bht
 BHT .DEGF                219.0000:    Bottom Hole Temperature
 MRT .DEGF                219.0000:    Maximum Recorded Temperature
 LUN .                        8415:    Logging Unit Number
 LUL .                      CASPER:    Logging Unit Location
 ENGI.               T.CHRISTENSEN:    Engineer'S Name
 WITN.                STEVE HEFNER:    Witness' Name
 DGBY.                         R2V:    
 WSTA.                         LOC:    
#
~Other Information Block
<DescLogPlotStart>   NEURALOG PLOT DEFINITION
PLOTDEFVERSION: 3
LASFILE: C:\nds\projects\mf-nov-13\las\3723472C.las
DEPTHSCALE: 240.000000
RESOLUTION: 200
DEPTHLABELFREQ: 100.000000
HEAVYGRIDFREQ: 100.000000
MEDIUMGRIDFREQ: 50.000000
LIGHTGRIDFREQ: 10.000000
#
#   TRACK 1
#
STARTTRACK: 
 LEFTX: 0.500000 inch
 RIGHTX: 3.000000 inch
 SCALETYPE: Linear
 NUMCHARTDIVISIONS: 10
CURVE: DTCO  140.000000 40.000000  (0,0,255)      Solid             2     N    
CURVE: SPHI  0.300000   -0.100000  (0,131,131)    Dot               2     N    
ENDTRACK: 
#
#   TRACK 2
#
STARTTRACK: 
 LEFTX: 3.500000 inch
 RIGHTX: 6.000000 inch
 SCALETYPE: Linear
 NUMCHARTDIVISIONS: 10
CURVE: GR    0.000000   150.000000 (255,0,255)    Solid             2     Y    
BACKUP: 150.000000 300.000000 (255,0,255)    Solid             2    
CURVE: CALI  6.000000   16.000000  (255,0,0)      Dot               2     N    
ENDTRACK: 
#
#   TRACK 3
#
STARTTRACK: 
 LEFTX: 6.000000 inch
 RIGHTX: 11.000000 inch
 SCALETYPE: Log
 NUMCYCLES: 4
 STARTCYCLE: 2
CURVE: ILD   0.200000   2000.000000 (255,131,0)    Solid             2     N   
ENDTRACK: 
#
#   TRACK 4
#
STARTTRACK: 
 LEFTX: 11.000000 inch
 RIGHTX: 13.500000 inch
 SCALETYPE: Linear
 NUMCHARTDIVISIONS: 10
CURVE: SP    -80.000000 20.000000  (255,255,0)    Solid             2     N    
ENDTRACK: 
#
#   TRACK 5
#
STARTTRACK: 
 LEFTX: 13.500000 inch
 RIGHTX: 18.500000 inch
 SCALETYPE: Linear
 NUMCHARTDIVISIONS: 10
CURVE: PEF   0.000000   10.000000  (0,0,255)      Solid             2     N    
CURVE: RHOB  2.000000   3.000000   (0,131,131)    Dot               2     Y    
BACKUP: 1.000000   2.000000   (0,131,131)    Dot               2    
ENDTRACK: 
#
#   TRACK 6
#
STARTTRACK: 
 LEFTX: 18.500000 inch
 RIGHTX: 23.500000 inch
 SCALETYPE: Linear
 NUMCHARTDIVISIONS: 10
CURVE: DPHI  0.300000   -0.100000  (255,0,255)    Solid             2     N    
CURVE: NPHI  0.300000   -0.100000  (255,0,0)      Dot               2     Y    
BACKUP: 0.700000   0.300000   (255,0,0)      Dot               2    
ENDTRACK: 
<DescLogPlotEnd>
~A DEPTH     DTCO             SPHI             GR               CALI             ILD              SP               PEF              RHOB             DPHI             NPHI            
# ...
   13585.600 65.66654543      0.10660909       131.37994006     8.98602547       13.93356779      1.87427962       3.09801584       2.63528250       0.01058261       0.10498805      
   13585.700 65.55902180      0.10601782       132.38969602     8.98708918       13.89143030      1.84375743       3.11967364       2.63357712       0.01156378       0.10646134      
   13585.800 65.45037292      0.10542521       133.38779413     8.98815173       13.84859079      1.81378914       3.13916203       2.63184490       0.01252341       0.10791879      
   13585.900 65.35140562      0.10483220       134.38907012     8.98922765       13.80588339      1.78409246       3.15916999       2.63007782       0.01352333       0.10941697      
   13586.000 65.30722892      0.10424343       135.43044666     8.99030604       13.76330770      1.75406365       3.17995032       2.62833541       0.01446735       0.11088475      
   13586.100 65.26666667      0.10364715       136.50517074     8.99135646       13.72086330      1.72402438       3.19988182       2.62665154       0.01548395       0.11237657      
   13586.200 65.22610442      0.10306255       137.38181832     8.99240203       13.67854980      1.69429440       3.21999828       2.62493300       0.01641091       0.11384095      
   13586.300 65.18554217      0.10246154       137.66138345     8.99350076       13.61532409      1.66431088       3.24173624       2.62310146       0.01744123       0.11534614      
   13586.400 65.14497992      0.10188154       137.19867535     8.99460849       13.61532409      1.63389773       3.26185332       2.62136407       0.01849290       0.11678681      
   13586.500 65.10441767      0.10127473       136.31273733     8.99561876       13.63636679      1.60418061       3.27509767       2.62011433       0.01878657       0.11832465      
   13586.600 65.06385542      0.10069875       135.41410938     8.99661168       13.65041332      1.57526927       3.28053287       2.61947369       0.01898637       0.11972677      
   13586.700 65.02329317      0.10018906       134.59814439     8.99779701       13.66447432      1.54502263       3.28033802       2.61917695       0.01931781       0.12130482      
   13586.800 64.98273092      0.09957381       133.74084974     8.99903217       13.67854980      1.51327159       3.27410171       2.61899690       0.01952235       0.12267043      
   13586.900 64.94979920      0.09901615       132.80454030     8.99970367       13.69263978      1.48397736       3.26001748       2.61894793       0.01984538       0.12427447      
   13587.000 64.85122307      0.09848858       131.86890893     8.99938733       13.70674428      1.45754442       3.24068068       2.61897989       0.02011422       0.12591836      
   13587.100 64.76825484      0.09793721       130.98265599     8.99839153       13.72086330      1.42629717       3.22196092       2.61890506       0.01990949       0.12526359      
   13587.200 64.68528660      0.09740055       130.11548063     8.99735019       13.74206911      1.38754549       3.20558887       2.61882749       0.01956360       0.12415643      
   13587.300 64.60231836      0.09686479       129.20766507     8.99650125       13.74206911      1.35638554       3.18843451       2.61922591       0.01925374       0.12321189      
   13587.400 64.51935013      0.09632396       128.25106667     8.99566873       13.89720727      1.35203644       3.17022595       2.62034380       0.01894389       0.12223123      
   13587.500 64.43638189      0.09578313       127.34174247     8.99473875       14.00160448      1.37321746       3.15623939       2.62182969       0.01863403       0.12125058      
   13587.600 64.35341365      0.09524230       126.61443987     8.99380022       14.10678595      1.40012681       3.14960653       2.62321489       0.01832417       0.12026993      
   13587.700 64.27044542      0.09470147       126.11043266     8.99291486       14.21275754      1.41966413       3.14664296       2.62444058       0.01801431       0.11928927      
   13587.800 64.18747718      0.09416064       125.80018313     8.99203409       14.31952520      1.43567732       3.14469921       2.62569770       0.01770445       0.11830862      
   13587.900 64.10450894      0.09377510       125.73451950     8.99112535       14.42709492      1.45482057       3.14958779       2.62703371       0.01730382       0.11732797      
   13588.000 64.04618474      0.09417671       126.03239618     8.99021428       14.53547270      1.47577741       3.16858542       2.62835653       0.01645875       0.11634731      
   13588.100 64.04618474      0.09443976       126.63959607     8.98931656       14.64466464      1.49506301       3.19883719       2.62963968       0.01526358       0.11536666      
   13588.200 64.04618474      0.09464257       127.25570782     8.98841992       14.75467683      1.51336698       3.22993444       2.63092421       0.01406841       0.11438601      
   13588.300 64.09754402      0.09484538       127.66308061     8.98751746       14.86551544      1.53255945       3.25659724       2.63222144       0.01287324       0.11307847      
   13588.400 64.13654618      0.09504819       128.05592570     8.98661447       14.97718669      1.55225819       3.28186910       2.63352777       0.01126761       0.11307847      
   13588.500 64.17554835      0.09525100       128.85454784     8.98571485       15.08969682      1.57152015       3.30877167       2.63484168       0.01079678       0.11348089      
   13588.600 64.21455051      0.09545382       130.19472296     8.98481542       15.20305214      1.59054448       3.33615531       2.63613243       0.01007968       0.11388330      
   13588.700 64.25355267      0.09565663       131.78296253     8.98391598       15.31725900      1.60976500       3.36286500       2.63739433       0.00936258       0.11468813      
   13588.800 64.29299517      0.09585944       133.28755460     8.98301655       15.43253901      1.62909548       3.38982268       2.63870512       0.00864547       0.11509054      
   13588.900 64.33068811      0.09606225       134.67716695     8.98211711       15.54850038      1.64832159       3.41673716       2.64007937       0.00792837       0.11637107      
   13589.000 64.37099442      0.09618474       136.09705910     8.98121768       15.66411444      1.66749875       3.44117537       2.64129055       0.00721127       0.11844929      
   13589.100 64.40909796      0.09618474       137.57396201     8.98031824       15.78468863      1.68669222       3.46217668       2.64202289       0.00649416       0.12052751      
   13589.200 64.44933983      0.09618474       139.02610608     8.97941881       15.89793287      1.70588569       3.48191823       2.64223946       0.00577706       0.12260574      
   13589.300 64.48718026      0.09618474       140.44649759     8.97851937       16.02576316      1.72507916       3.50221609       2.64222800       0.00505996       0.12468396      
   13589.400 64.52772521      0.09618474       141.90007824     8.97761994       16.13421135      1.74427264       3.52032711       2.64225958       0.00402414       0.12676219      
   13589.500 64.54780896      0.09618474       143.37337242     8.97672050       16.27105637      1.76346611       3.52997097       2.64235732       0.00404648       0.12884041      
   13589.600 64.52689169      0.09612610       144.79359147     8.97582107       16.37413372      1.78265958       3.52748955       2.64243167       0.00408667       0.13091863      
   13589.700 64.50957509      0.09608554       146.20317039     8.97492163       16.51921822      1.80185305       3.51618772       2.64247252       0.00412687       0.13299686      
   13589.800 64.49536881      0.09604498       147.70842838     8.97402219       16.68163821      1.82104652       3.50313796       2.64252622       0.00416707       0.13507508      
   13589.900 64.47849468      0.09600442       149.12509063     8.97312276       16.70624799      1.84024000       3.49230802       2.64259820       0.00420727       0.13715331      
