~Version ---------------------------------------------------
VERS.   2.0 : CWLS log ASCII Standard -VERSION 2.0
WRAP.    NO : One line per depth step
DLM . SPACE : Column Data Section Delimiter
~Well ------------------------------------------------------
STRT.FT       8390.0 : START DEPTH
STOP.FT       9710.0 : STOP DEPTH
STEP.FT          0.5 : STEP
NULL.        -999.25 : NULL VALUE
COMP.  HRM Resources : COMPANY
WELL.  23-12 Hay Dam : WELL
FLD .        Hay Dam : FIELD
LOC . 23N R97W Sec12 : LOCATION
CNTY.     Sweetwater : COUNTY
STAT.             WY : STATE
CTRY.            USA : COUNTRY
SRVC.            SLB : SERVICE COMPANY
DATE.     11/14/2019 : DATE
API .     4903723253 : API NUMBER
UWI .       3723253A : UWI NUMBER
TVD .             NO : TVD flag
WSTA.            LOC : Well status
USGS.           E974 : USGS Number
LATI.DEG     41.97803: LATITUDE
LONG.DEG    -108.3282: LONGITUDE
UTM-N.     4650790.25: Northing
UTM-E.       721356.8: Easting
CORE.             -13: Core/Log Offset
~Curve Information -----------------------------------------
DEPT.FT               : Depth in Feet
GR  .API 35 310 01 01 : Gamma Ray
CALI.IN  70 280 01 01 : Caliper
PEF .BARN             : Photoelectric Effect
NPHI.V/V 42 890 03 01 : Neutron Porosity
DPHI.V/V 45 890 01 01 : Density Porosity
SP  .                 : 
ILD .                 : 
~Params ----------------------------------------------------
~Other -----------------------------------------------------
~ASCII -----------------------------------------------------
# ...
 9560.00000  126.66300    8.95400    3.07600    0.18500    0.01100    4.96700   12.39400
 9560.50000  123.76300    8.95800    3.10300    0.18300    0.01500    5.17800   12.30900
 9561.00000  121.01500    8.96300    3.13000    0.18000    0.01900    5.38900   12.22500
 9561.50000  121.98200    8.96700    3.13800    0.17900    0.02300    5.60000   12.14100
 9562.00000  125.40100    8.97100    3.10400    0.18100    0.02500    5.78000   12.05700
 9562.50000  128.60300    8.97600    3.07300    0.18700    0.02400    5.65900   11.97200
 9563.00000  129.26700    8.98000    3.03900    0.18700    0.02300    5.54100   11.95700
 9563.50000  125.29700    8.98400    2.99700    0.18700    0.01800    5.42400   11.94300
 9564.00000  121.24700    8.98700    2.99900    0.18600    0.01300    5.30700   11.92900
 9564.50000  119.40500    8.97900    3.02300    0.18500    0.00700    5.19000   11.91400
 9565.00000  121.06200    8.97200    3.04000    0.18400    0.00400    5.07400   11.90000
 9565.50000  122.80200    8.96500    3.05300    0.18200    0.00600    4.98800   11.88600
 9566.00000  124.52800    8.95800    3.06700    0.18400    0.00800    5.05600   11.86400
 9566.50000  126.25000    8.95100    3.13300    0.18800    0.00700    5.11900   11.86600
 9567.00000  127.97200    8.92500    3.26000    0.19200    0.00500    5.18300   11.65100
 9567.50000  129.69900    8.88500    3.34900    0.19500    0.00300    5.24700   11.48800
 9568.00000  131.42200    8.84800    3.31100    0.19900    0.00000    5.31100   11.32800
 9568.50000  133.00200    8.84200    3.24900    0.20200    0.00000    5.37900   11.17000
 9569.00000  131.45300    8.83700    3.15500    0.20300    0.00100    5.23400   11.01400
 9569.50000  129.30400    8.83300    3.11200    0.20000    0.00200    5.05800   10.86000
 9570.00000  126.98700    8.82800    3.11200    0.19600    0.00400    4.88200   10.70800
 9570.50000  126.55500    8.82300    3.13900    0.19200    0.00500    4.70700   10.55900
 9571.00000  126.80600    8.81900    3.20900    0.18900    0.00400    4.57400   10.42100
 9571.50000  128.05600    8.81400    3.27200    0.18900    0.00200    4.57600   10.47100
 9572.00000  127.19100    8.80900    3.26100    0.19400   -0.00100    4.57600   10.51800
 9572.50000  126.07700    8.80400    3.24900    0.19800   -0.00300    4.59700   10.56600
 9573.00000  125.58100    8.80000    3.23700    0.20000   -0.00200    4.72300   10.61400
 9573.50000  126.80400    8.79500    3.26200    0.19600    0.00000    4.84900   10.66200
 9574.00000  130.38000    8.79000    3.31100    0.18900    0.00200    4.97000   10.71300
 9574.50000  133.29800    8.78500    3.36000    0.18200   -0.00000    4.62300   10.78300
 9575.00000  134.07500    8.78100    3.40900    0.18000   -0.00400    4.37800   10.85900
 9575.50000  132.80700    8.77600    3.41200    0.18100   -0.00300    4.39200   10.93600
 9576.00000  131.51000    8.77100    3.40300    0.18100    0.00100    4.40400   11.01300
 9576.50000  130.21700    8.76700    3.39300    0.18100    0.00400    4.41700   11.09100
 9577.00000  129.00400    8.77000    3.51100    0.18200    0.00400    4.42900   11.16900
 9577.50000  128.99300    8.77300    3.51400    0.18200   -0.00100    4.44200   11.24800
 9578.00000  128.82400    8.77600    3.43800    0.18100   -0.00600    4.45400   11.32700
 9578.50000  125.67500    8.77900    3.27000    0.18000   -0.01100    4.46600   11.40700
 9579.00000  122.60200    8.78300    3.23300    0.18000   -0.01300    4.47900   11.44600
 9579.50000  120.08800    8.78600    3.23200    0.18100   -0.01200    4.49100   11.49400
 9580.00000  120.39700    8.78900    3.23300    0.18000   -0.01000    4.50300   11.54200
 9580.50000  121.27800    8.79200    3.23200    0.17600   -0.00600    4.51600   11.59100
 9581.00000  123.09600    8.79500    3.21900    0.17300   -0.00200    4.52800   11.64300
 9581.50000  126.63000    8.79900    3.19100    0.17800   -0.00000    4.54000   11.64400
 9582.00000  129.21900    8.80200    3.17100    0.18600    0.00000    4.55300   11.64400
 9582.50000  129.70100    8.80500    3.19500    0.19300   -0.00200    4.56700   11.64400
 9583.00000  127.51000    8.80800    3.21300    0.19600   -0.00400    4.56800   11.58900
 9583.50000  125.65800    8.81100    3.21200    0.19300   -0.00500    4.36700   11.38100
 9584.00000  124.50500    8.81500    3.21300    0.18300   -0.00500    4.16700   11.17800
 9584.50000  123.33600    8.81800    3.23300    0.17300   -0.00300    3.97900   10.97700
 9585.00000  122.17400    8.82100    3.27500    0.17200   -0.00200    4.02800   10.78100
 9585.50000  122.97700    8.82400    3.31600    0.17400    0.00000    4.08800   10.71400
 9586.00000  126.74600    8.82700    3.31300    0.18400    0.00400    4.14700   10.75600
 9586.50000  130.70100    8.83000    3.19600    0.19500    0.00900    4.14600   10.80300
 9587.00000  134.63400    8.83400    3.09600    0.20000    0.01200    4.09600   10.89200
 9587.50000  137.74800    8.83700    3.06800    0.20100    0.01400    4.04600   11.28400
 9588.00000  138.48000    8.84000    3.12300    0.19800    0.01500    3.99600   11.75600
 9588.50000  136.98800    8.84300    3.18500    0.19000    0.01700    4.08000   12.08200
 9589.00000  135.50800    8.84700    3.24700    0.18800    0.01700    4.28900   11.90700
 9589.50000  134.01300    8.84200    3.30800    0.19200    0.01700    4.50100   11.75500
 9590.00000  133.88200    8.83600    3.37000    0.19700    0.01900    4.61000   11.60400
 9590.50000  135.77400    8.83000    3.41500    0.20300    0.02500    4.66500   11.45500
 9591.00000  137.47700    8.84100    3.41500    0.20600    0.03000    4.71900   11.30700
 9591.50000  137.21100    8.87000    3.38600    0.20800    0.03400    4.77200   11.16200
 9592.00000  135.65100    8.89800    3.34100    0.20800    0.03800    4.82600   11.01900
 9592.50000  137.03900    8.92600    3.29400    0.21200    0.04200    4.88000   10.91400
 9593.00000  140.77900    8.94900    3.24800    0.21600    0.04600    4.93300   10.79300
 9593.50000  145.27900    8.95000    3.25700    0.22000    0.04500    5.01800   10.72500
 9594.00000  150.08400    8.95200    3.36500    0.22000    0.04100    5.28100   10.65800
 9594.50000  150.57800    8.95500    3.43000    0.21800    0.03800    5.54500   10.59100
 9595.00000  149.23900    8.95700    3.37800    0.21700    0.04000    5.80300   10.52500
 9595.50000  147.12000    8.95900    3.32900    0.21900    0.04100    5.94700   10.49800
 9596.00000  144.48200    8.96100    3.28000    0.22300    0.04300    5.78700   10.47700
 9596.50000  141.83400    8.96300    3.23200    0.22800    0.04300    5.54800   10.45500
 9597.00000  139.22700    8.96500    3.18300    0.23300    0.04400    5.30000   10.43300
 9597.50000  137.28000    8.96700    3.13400    0.23800    0.04400    5.04900   10.41200
 9598.00000  138.05200    8.95300    3.13200    0.24300    0.04400    5.03100   10.39000
 9598.50000  141.81800    8.94400    3.13200    0.24100    0.04400    5.10200   10.36900
 9599.00000  145.66900    8.85300    3.13200    0.24000    0.04000    5.17600   10.34800
 9599.50000  146.56000    8.75800    3.13200    0.23600    0.03200    5.24900   10.32600
 9600.00000  146.41500    8.75000    3.13800    0.23200    0.02500    5.32200   10.30500
 9600.50000  146.55400    8.75400    3.19400    0.23100    0.01800    5.35900   10.28400
 9601.00000  148.65200    8.75900    3.25100    0.23000    0.02100    5.15900   10.26200
 9601.50000  151.57400    8.76300    3.30700    0.23000    0.02400    4.96000   10.23500
 9602.00000  154.97900    8.76500    3.36400    0.22800    0.02500    4.78200   10.22000
 9602.50000  158.37200    8.75800    3.41600    0.22300    0.02200    4.81900   10.41300
 9603.00000  160.38100    8.75100    3.38800    0.21600    0.01900    4.85900   10.51800
 9603.50000  156.91400    8.74400    3.34100    0.20800    0.01500    4.89800   10.71400
 9604.00000  149.28300    8.73700    3.29400    0.20200    0.01200    4.93800   11.07400
 9604.50000  141.36000    8.73000    3.24500    0.19800    0.00900    4.97600   11.60700
