~Version ---------------------------------------------------
VERS. 2.0 : CWLS log ASCII Standard -VERSION 2.0
WRAP.  NO : One Line Per Depth Step
~Well ------------------------------------------------------
STRT .FT              12000.0 : START DEPTH
STOP .FT              13400.0 : STOP DEPTH
STEP .FT   0.1000000000003638 : STEP
NULL .                -999.25 : NULL VALUE
COMP . ENRON OIL &GAS COMPANY : COMPANY
WELL .       CEPO-LEWIS 21-38 : WELL
FLD  .             CEPO-LEWIS : FIELD
LOC  .   1205' FWL &1300' FSL : LOCATION
CNTY .             SWEETWATER : COUNTY
STAT .                WYOMING : STATE
CTRY .                    USA : COUNTRY
SRVC .                        : SERVICE COMPANY
DATE .             25/05/1998 : DATE
API  .             4903724185 : API NUMBER
UWI  .                3724185 : UWI NUMBER
TVD  .                     NO : TVD flag
WSTA .                    LOC : Well status
USGS .                   CEPO : USGS Number
LATI .DEG            41.18194 : LATITUDE
LONG .DEG          -108.14139 : LONGITUDE
UTM-N.             4562894.53 : Northing
UTM-E.              739764.57 : Easting
CORE .FT                 -3.9 : Core/Log Offset
~Curve Information -----------------------------------------
DEPT .FT                : Depth in Feet
GR   .GAPI 35 310 01 01 : Gamma Ray
SP   .MV   01 010 01 01 : Spontaneous Potential
CALI .IN   70 280 01 01 : Caliper
AHT90.OHMM              : 
ILD  .OHMM 05 120 46 01 : Deep Induction Standard Processed Resistivity
HCAL .IN                : 
DPHI .V/V  45 890 01 01 : Density Porosity
NPOR .V/V               : Neutron Porosity Output From An Application Program
RHOB .G/C3 42 350 01 01 : Bulk Density
PEF  .b/e               : Photo-Electric Factor
DT   .US/F 60 520 08 01 : Delta-T
SPHI .V/V  61 890 01 01 : Sonic Porosity
RESD .OHMM              : Deep Resistivity - Merged AHT90 & ILD
~Params ----------------------------------------------------
DATE.  25-05-1998 : Date As Month-Day-Year
RUN .         ONE : Run Number
PDAT.         UNK : Permanent Datum
EPD .FT    6416.0 : Elevation Of Perm. Datum
LMF .          KB : Log Measured From
FAPD.FT      21.0 : Feet Above Perm. Datum
DMF .          KB : Drilling Measured From
EKB .FT    6437.0 : Elevation Of Kelly Bushing
EDF .FT    6436.0 : Elevation Of Derrick Floor
EGL .FT    6416.0 : Elevation Of Ground Level
TD  .FT   13400.0 : Total Depth
DD  .FT   12587.0 : Depth Driller
DL  .FT   12616.0 : Depth Logger
BLI .FT   12602.0 : Bottom Log Interval
TLI .FT    2346.0 : Top Log Interval
DFT .    GEL-CHEM : Drilling Fluid Type
LUN .        8269 : Logging Unit Number
LUL . ROCK SPRING : Logging Unit Location
DGBY.         R2V : 
WSTA.         LOC : 
~Other -----------------------------------------------------
<DescLogPlotStart>   NEURALOG PLOT DEFINITION
PLOTDEFVERSION: 3
LASFILE: C:\nds\projects\mf-nov-13\las\3724185G.las
DEPTHSCALE: 240.000000
RESOLUTION: 200
DEPTHLABELFREQ: 100.000000
HEAVYGRIDFREQ: 100.000000
MEDIUMGRIDFREQ: 50.000000
LIGHTGRIDFREQ: 10.000000
#
#   TRACK 1
#
STARTTRACK:
LEFTX: 0.500000 inch
RIGHTX: 3.000000 inch
SCALETYPE: Linear
NUMCHARTDIVISIONS: 10
CURVE: GR    0.000000   150.000000 (0,0,255)      Solid             2     N
CURVE: SP    -100.000000 0.000000   (0,131,131)    Dot               2     Y
BACKUP: 0.000000   100.000000 (0,131,131)    Dot               2
BACKUP: 100.000000 200.000000 (0,131,131)    Dot               2
BACKUP: 200.000000 300.000000 (0,131,131)    Dot               2
BACKUP: 300.000000 400.000000 (0,131,131)    Dot               2
CURVE: CALI  4.000000   14.000000  (255,0,255)    Short_Dash        2     N
CURVE: HCAL  4.000000   14.000000  (255,0,0)      Medium_Dash       2     Y
BACKUP: -6.000000  4.000000   (255,0,0)      Medium_Dash       2
ENDTRACK:
#
#   TRACK 2
#
STARTTRACK:
LEFTX: 3.500000 inch
RIGHTX: 8.500000 inch
SCALETYPE: Log
NUMCYCLES: 4
STARTCYCLE: 2
CURVE: AHT90 0.200000   2000.000000 (255,131,0)    Solid             2     N
CURVE: ILD   0.200000   2000.000000 (255,255,0)    Dot               2     N
ENDTRACK:
#
#   TRACK 3
#
STARTTRACK:
LEFTX: 3.500000 inch
RIGHTX: 8.500000 inch
SCALETYPE: Linear
NUMCHARTDIVISIONS: 10
CURVE: DPHI  0.300000   -0.100000  (0,0,255)      Solid             2     Y
BACKUP: 0.700000   0.300000   (0,0,255)      Solid             2
CURVE: NPOR  0.300000   -0.100000  (0,131,131)    Dot               2     Y
BACKUP: 0.700000   0.300000   (0,131,131)    Dot               2
ENDTRACK:
#
#   TRACK 4
#
STARTTRACK:
LEFTX: 3.500000 inch
RIGHTX: 8.500000 inch
SCALETYPE: Linear
NUMCHARTDIVISIONS: 10
CURVE: RHOB  2.000000   3.000000   (255,0,255)    Solid             2     Y
BACKUP: 1.000000   2.000000   (255,0,255)    Solid             2
BACKUP: 3.000000   4.000000   (255,0,255)    Solid             2
CURVE: PEF   0.000000   20.000000  (255,0,0)      Dot               2     N
ENDTRACK:
#
#   TRACK 5
#
STARTTRACK:
LEFTX: 3.500000 inch
RIGHTX: 8.500000 inch
SCALETYPE: Linear
NUMCHARTDIVISIONS: 10
CURVE: DT    140.000000 40.000000  (255,131,0)    Solid             2     Y
BACKUP: 240.000000 140.000000 (255,131,0)    Solid             2
ENDTRACK:
<DescLogPlotEnd>
~ASCII -----------------------------------------------------
# ...
 12832.00000  -24.62691  -22.33600    -999.25    -999.25   10.94521    7.24571    0.24215    0.11826    2.27413    2.45158    -999.25    -999.25   10.94521
 12832.10000  -24.49590  -22.19298    -999.25    -999.25   10.90136    7.24703    0.24314    0.11718    2.27043    2.43938    -999.25    -999.25   10.90136
 12832.20000  -24.32669  -22.04831    -999.25    -999.25   10.85483    7.24832    0.24338    0.11609    2.26904    2.42750    -999.25    -999.25   10.85483
 12832.30000  -24.17113  -21.89670    -999.25    -999.25   10.81209    7.24960    0.24340    0.11545    2.26914    2.41560    -999.25    -999.25   10.81209
 12832.40000  -24.07724  -21.75413    -999.25    -999.25   10.76531    7.25092    0.24340    0.11949    2.26960    2.40318    -999.25    -999.25   10.76531
 12832.50000  -23.97833  -21.65452    -999.25    -999.25   10.74386    7.25228    0.24340    0.12320    2.26955    2.39081    -999.25    -999.25   10.74386
 12832.60000  -23.70714  -21.61057    -999.25    -999.25   10.77654    7.25354    0.24340    0.12634    2.26946    2.38024    -999.25    -999.25   10.77654
 12832.70000  -23.19352  -21.59612    -999.25    -999.25   10.80285    7.25468    0.24340    0.13001    2.27017    2.37245    -999.25    -999.25   10.80285
 12832.80000  -22.56932  -21.57833    -999.25    -999.25   10.82496    7.25581    0.24340    0.13320    2.27175    2.36639    -999.25    -999.25   10.82496
 12832.90000  -21.99972  -21.55217    -999.25    -999.25   10.85066    7.25707    0.24300    0.13683    2.27364    2.36032    -999.25    -999.25   10.85066
 12833.00000  -21.48929  -21.52973    -999.25    -999.25   10.87382    7.25836    0.24228    0.14006    2.27551    2.35374    -999.25    -999.25   10.87382
 12833.10000  -20.94951  -21.51189    -999.25    -999.25   10.89906    7.25954    0.24179    0.14365    2.27759    2.34718    -999.25    -999.25   10.89906
 12833.20000  -20.37798  -21.48871    -999.25    -999.25   10.92335    7.26064    0.23894    0.14628    2.28020    2.34086    -999.25    -999.25   10.92335
 12833.30000  -19.84077  -21.46211    -999.25    -999.25   10.94453    7.26176    0.23655    0.14645    2.28294    2.33454    -999.25    -999.25   10.94453
 12833.40000  -19.32309  -21.44919    -999.25    -999.25   10.94453    7.26293    0.23416    0.14629    2.28511    2.32812    -999.25    -999.25   10.94453
 12833.50000  -18.74885  -21.46054    -999.25    -999.25   10.94453    7.26408    0.23176    0.14646    2.28713    2.32166    -999.25    -999.25   10.94453
 12833.60000  -18.16734  -21.48736    -999.25    -999.25   10.94453    7.26521    0.22937    0.14589    2.29057    2.31522    -999.25    -999.25   10.94453
 12833.70000  -17.77676  -21.51464    -999.25    -999.25   10.94453    7.26634    0.22698    0.14409    2.29618    2.30887    -999.25    -999.25   10.94453
 12833.80000  -17.67699  -21.53764    -999.25    -999.25   10.94453    7.26749    0.22458    0.14222    2.30308    2.30260    -999.25    -999.25   10.94453
 12833.90000  -17.71714  -21.56047    -999.25    -999.25   10.94453    7.26864    0.22246    0.14049    2.30898    2.29613    -999.25    -999.25   10.94453
 12834.00000  -17.70673  -21.58543    -999.25    -999.25   10.94453    7.26978    0.21837    0.13876    2.31469    2.28946    -999.25    -999.25   10.94453
 12834.10000  -17.67791  -21.61078    -999.25    -999.25   10.99504    7.27092    0.21469    0.13704    2.32080    2.28346    -999.25    -999.25   10.99504
 12834.20000  -17.81352  -21.63497    -999.25    -999.25   11.06535    7.27206    0.21102    0.13545    2.32683    2.27946    -999.25    -999.25   11.06535
 12834.30000  -18.22075  -21.65812    -999.25    -999.25   11.13611    7.27320    0.20734    0.13219    2.33268    2.27827    -999.25    -999.25   11.13611
 12834.40000  -18.93697  -21.68185    -999.25    -999.25   11.20733    7.27435    0.20366    0.12918    2.33867    2.27973    -999.25    -999.25   11.20733
 12834.50000  -20.04816  -21.70756    -999.25    -999.25   11.27900    7.27549    0.19998    0.12617    2.34468    2.28286    -999.25    -999.25   11.27900
 12834.60000  -21.58785  -21.73305    -999.25    -999.25   11.35113    7.27663    0.19630    0.12315    2.35061    2.28623    -999.25    -999.25   11.35113
 12834.70000  -23.36765  -21.75492    -999.25    -999.25   11.42372    7.27777    0.19263    0.12014    2.35658    2.28896    -999.25    -999.25   11.42372
 12834.80000  -25.11746  -21.77694    -999.25    -999.25   11.49677    7.27892    0.18895    0.11713    2.36256    2.29169    -999.25    -999.25   11.49677
 12834.90000  -26.77851  -21.80611    -999.25    -999.25   11.57029    7.28005    0.18527    0.11411    2.36851    2.29542    -999.25    -999.25   11.57029
 12835.00000  -28.45233  -21.83475    -999.25    -999.25   11.67870    7.28119    0.18159    0.11110    2.37450    2.29904    -999.25    -999.25   11.67870
 12835.10000  -30.06882  -21.83927    -999.25    -999.25   11.66823    7.28233    0.17792    0.10806    2.38047    2.29930    -999.25    -999.25   11.66823
 12835.20000  -31.33930  -21.80686    -999.25    -999.25   11.64877    7.28348    0.17424    0.10473    2.38639    2.29411    -999.25    -999.25   11.64877
 12835.30000  -32.11001  -21.75266    -999.25    -999.25   11.62934    7.28461    0.17056    0.10137    2.39241    2.28491    -999.25    -999.25   11.62934
 12835.40000  -32.57983  -21.70002    -999.25    -999.25   11.60994    7.28574    0.16692    0.09801    2.39844    2.27475    -999.25    -999.25   11.60994
 12835.50000  -33.05466  -21.65465    -999.25    -999.25   11.59057    7.28690    0.16322    0.09452    2.40426    2.26512    -999.25    -999.25   11.59057
 12835.60000  -33.58878  -21.60857    -999.25    -999.25   11.57088    7.28806    0.15957    0.09128    2.41021    2.25572    -999.25    -999.25   11.57088
 12835.70000  -33.95227  -21.55866    -999.25    -999.25   11.57088    7.28917    0.15561    0.08778    2.41669    2.24606    -999.25    -999.25   11.57088
 12835.80000  -33.88074  -21.50715    -999.25    -999.25   11.45590    7.29027    0.15042    0.08425    2.42362    2.23622    -999.25    -999.25   11.45590
 12835.90000  -33.26708  -21.44989    -999.25    -999.25   11.34803    7.29147    0.14477    0.08416    2.43136    2.22650    -999.25    -999.25   11.34803
 12836.00000  -32.16556  -21.37746    -999.25    -999.25   11.24118    7.29268    0.13919    0.08422    2.44054    2.21701    -999.25    -999.25   11.24118
 12836.10000  -30.70364  -21.28778    -999.25    -999.25   11.13533    7.29369    0.13353    0.08420    2.45058    2.20752    -999.25    -999.25   11.13533
 12836.20000  -29.01078  -21.18935    -999.25    -999.25   11.03410    7.29470    0.12796    0.08623    2.46054    2.19762    -999.25    -999.25   11.03410
 12836.30000  -27.20117  -21.09131    -999.25    -999.25   10.92679    7.29640    0.12228    0.08857    2.47072    2.18763    -999.25    -999.25   10.92679
 12836.40000  -25.37732  -20.99561    -999.25    -999.25   10.82611    7.29928    0.11673    0.09081    2.48196    2.17836    -999.25    -999.25   10.82611
 12836.50000  -23.59753  -20.89971    -999.25    -999.25   10.72342    7.30298    0.11104    0.09351    2.49474    2.16930    -999.25    -999.25   10.72342
 12836.60000  -21.82589  -20.80265    -999.25    -999.25   10.62135    7.30674    0.10548    0.09857    2.50909    2.15884    -999.25    -999.25   10.62135
 12836.70000  -20.00407  -20.70574    -999.25    -999.25   10.52481    7.31031    0.09982    0.10453    2.52433    2.14785    -999.25    -999.25   10.52481
 12836.80000  -18.18139  -20.60949    -999.25    -999.25   10.41971    7.31386    0.09318    0.11065    2.53947    2.14077    -999.25    -999.25   10.41971
 12836.90000  -16.36852  -20.51320    -999.25    -999.25   10.33077    7.31751    0.08565    0.11641    2.55442    2.14078    -999.25    -999.25   10.33077
 12837.00000  -14.68478  -20.41649    -999.25    -999.25   10.22126    7.32117    0.07648    0.12274    2.56946    2.14566    -999.25    -999.25   10.22126
 12837.10000  -12.89930  -20.31966    -999.25    -999.25   10.14051    7.32477    0.06730    0.12830    2.58451    2.15079    -999.25    -999.25   10.14051
