~Version Information Block
 VERS.                2.00:     CWLS LOG ASCII STANDARD - VERSION 2.000000
 WRAP.                  NO:     One Line Per Depth Step
#
~Well Information Block
#MNEM.UNIT                     Data                         Information
#----------   ------------------------------------------   ----------------
 STRT.FT                                     9000.0000:     START DEPTH
 STOP.FT                                    10600.0000:     STOP DEPTH
 STEP.FT                                        0.1000:     STEP
 NULL.                                       -999.2500:     NULL VALUE
 COMP.                            PRESIDIO OIL COMPANY:     COMPANY
 WELL.                          HAY RESERVIOR UNIT #58:     WELL
 FLD .                              HAY RESERVIOR UNIT:     FIELD
 LOC .                               1500' FSL 10' FWL:     LOCATION
 CNTY.                                      SWEETWATER:     COUNTY
 STAT.                                         WYOMING:     STATE
 CTRY.                                             USA:     COUNTRY
 SRVC.                                    SCHLUMBERGER:     SERVICE COMPANY
 DATE.                                      22/02/1994:     DATE
 API .                                      4903723301:     API NUMBER
 UWI .                                         3723301:     UWI NUMBER
 TVD .                                              NO:     TVD flag
 WSTA.                                             LOC:     Well status
 USGS.                                            E945:     USGS Number
 LATI.DEG                                     42.05082:     LATITUDE
 LONG.DEG                                   -108.37861:     LONGITUDE
 UTM-N.                                     4658743.82:     Northing
 UTM-E.                                      716932.37:     Easting
 CORE.FT                                          -9.2:     Core/Log Offset
#
~Curve Information Block
#MNEM.UNIT       API CODE      Curve Description
#----------    -------------   -------------------
 DEPT.FT                   :   Depth in Feet
 ILD .OHMM     05 120 46 01:   Deep Induction Standard Processed Resistivity
 SP  .MV       01 010 01 01:   Spontaneous Potential
 DPHI.DEC      42 890 03 01:   DPHI
 NPHI.DEC      42 890 03 01:   Neutron Porosity
 CALI.IN       70 280 01 01:   Caliper
 GR  .GAPI     35 310 01 01:   Gamma Ray
 RHOB.G/C3     42 350 01 01:   Bulk Density
 PEF .B/E                  :   Photo-Electric Factor
 DT4P.US/F                 :   
#
~Parameter Information Block
#MNEM.UNIT            Value               Description
#----------    --------------------    -------------------
 DATE.                  22-02-1994:    Date As Month-Day-Year
 RUN .                         ONE:    Run Number
 PDAT.                         UNK:    Permanent Datum
 EPD .FT                 6799.0000:    Elevation Of Perm. Datum
 LMF .                          KB:    Log Measured From
 FAPD.FT                   14.0000:    Feet Above Perm. Datum
 DMF .                          KB:    Drilling Measured From
 EKB .FT                 6813.0000:    Elevation Of Kelly Bushing
 EDF .FT                 6812.0000:    Elevation Of Derrick Floor
 EGL .FT                 6799.0000:    Elevation Of Ground Level
 TD  .FT                10600.0000:    Total Depth
 DD  .FT                10625.0000:    Depth Driller
 DL  .FT                10623.0000:    Depth Logger
 BLI .FT                 1061.0000:    Bottom Log Interval
 CSIZ.IN                     9.625:    Casing Size
 CBD1.                        1702:    Casing Bottom (Driller) 1
 CBL1.                        1700:    Casing Bottom (Logger) 1
 BS  .IN                     7.875:    Bit Size
 DFV .S                    45.0000:    Drilling Fluid Viscosity
 DFD .LB/G                 10.5000:    Drilling Fluid Density
 DFL .ML                    7.2000:    Drilling Fluid Loss
 DFPH.                      9.5000:    Drilling Fluid Ph
 MSS .                    MUD TANK:    Mud Sample Source
 RMS .OHMM                  4.6200:    Resistivity Of Mud Sample
 MST .DEGF                 50.0000:    Mud Sample Temperature
 RMF .OHMM                  3.0700:    Mud Filtrate Resistivity
 MFST.DEGF                 50.0000:    Mud Filtrate Sample Temperature
 RMC .OHMM                  7.1400:    Mud Cake Resistivity
 MCST.DEGF                 50.0000:    Mud Cake Sample Temperature
 RMB .OHMM                  1.0990:    Mud Resistivity At Bht
 BHT .DEGF                212.0000:    Bottom Hole Temperature
 MRT .DEGF                212.0000:    Maximum Recorded Temperature
 LUN .                        8415:    Logging Unit Number
 LUL .                      CASPER:    Logging Unit Location
 ENGI.               CHRIS PRESMYK:    Engineer'S Name
 WITN.                STEVE HEFNER:    Witness' Name
 DGBY.                         R2V:    
 WSTA.                         LOC:    
#
~Other Information Block
<DescLogPlotStart>   NEURALOG PLOT DEFINITION
PLOTDEFVERSION: 3
LASFILE: C:\nds\projects\mf-nov-13\las\3723301A.las
DEPTHSCALE: 240.000000
RESOLUTION: 200
DEPTHLABELFREQ: 100.000000
HEAVYGRIDFREQ: 100.000000
MEDIUMGRIDFREQ: 50.000000
LIGHTGRIDFREQ: 10.000000
#
#   TRACK 1
#
STARTTRACK: 
 LEFTX: 0.500000 inch
 RIGHTX: 3.000000 inch
 SCALETYPE: Log
 NUMCYCLES: 4
 STARTCYCLE: 2
CURVE: ILD   0.200000   2000.000000 (0,0,255)      Solid             2     N   
ENDTRACK: 
#
#   TRACK 2
#
STARTTRACK: 
 LEFTX: 3.500000 inch
 RIGHTX: 6.000000 inch
 SCALETYPE: Linear
 NUMCHARTDIVISIONS: 10
CURVE: SP    -80.000000 20.000000  (0,131,131)    Solid             2     Y    
BACKUP: -180.000000 -80.000000 (0,131,131)    Solid             2    
ENDTRACK: 
#
#   TRACK 3
#
STARTTRACK: 
 LEFTX: 6.000000 inch
 RIGHTX: 11.000000 inch
 SCALETYPE: Linear
 NUMCHARTDIVISIONS: 10
CURVE: DPHI  0.300000   -0.100000  (255,0,255)    Solid             2     N    
CURVE: NPHI  0.300000   -0.100000  (255,0,0)      Dot               2     Y    
BACKUP: 0.700000   0.300000   (255,0,0)      Dot               2    
ENDTRACK: 
#
#   TRACK 4
#
STARTTRACK: 
 LEFTX: 11.000000 inch
 RIGHTX: 13.500000 inch
 SCALETYPE: Linear
 NUMCHARTDIVISIONS: 10
CURVE: CALI  6.000000   16.000000  (255,131,0)    Solid             2     N    
CURVE: GR    0.000000   150.000000 (255,255,0)    Dot               2     Y    
BACKUP: 150.000000 300.000000 (255,255,0)    Dot               2    
ENDTRACK: 
#
#   TRACK 5
#
STARTTRACK: 
 LEFTX: 13.500000 inch
 RIGHTX: 18.500000 inch
 SCALETYPE: Linear
 NUMCHARTDIVISIONS: 10
CURVE: RHOB  2.000000   3.000000   (0,0,255)      Solid             2     Y    
BACKUP: 1.000000   2.000000   (0,0,255)      Solid             2    
CURVE: PEF   0.000000   10.000000  (0,131,131)    Dot               2     N    
ENDTRACK: 
#
#   TRACK 6
#
STARTTRACK: 
 LEFTX: 13.500000 inch
 RIGHTX: 18.500000 inch
 SCALETYPE: Linear
 NUMCHARTDIVISIONS: 10
CURVE: DT4P  240.000000 40.000000  (255,0,255)    Solid             2     N    
ENDTRACK: 
<DescLogPlotEnd>
~A DEPTH     ILD              SP               DPHI             NPHI             CALI             GR               RHOB             PEF              DT4P            
# ...
    9318.500 21.14401413      -68.24571724     -0.03079238      0.12373979       8.76550962       107.26864231     2.70157824       3.22810016       -999.25000000   
    9318.600 21.10767791      -68.26304113     -0.03107322      0.12424531       8.76567947       108.36185370     2.70224544       3.22967326       -999.25000000   
    9318.700 21.07140413      -68.28069919     -0.03135406      0.12475082       8.76584932       109.37518412     2.70310655       3.23032717       -999.25000000   
    9318.800 21.03519269      -68.29549633     -0.03163490      0.12525634       8.76601916       110.25865803     2.70440495       3.23068390       -999.25000000   
    9318.900 20.99904348      -68.31009195     -0.03199599      0.12576186       8.76618901       111.06838819     2.70541834       3.23167919       -999.25000000   
    9319.000 20.96295639      -68.32624830     -0.03153962      0.12626737       8.76635886       111.85963533     2.70518090       3.23277519       -999.25000000   
    9319.100 20.92693132      -68.34250586     -0.03090070      0.12677289       8.76652871       112.60899362     2.70368684       3.23317769       -999.25000000   
    9319.200 20.89096816      -68.35794219     -0.03026179      0.12727841       8.76669856       113.23756888     2.70185033       3.23360453       -999.25000000   
    9319.300 20.85506680      -68.37333681     -0.02962287      0.12778392       8.76686840       113.65999785     2.70036214       3.23504590       -999.25000000   
    9319.400 20.81922714      -68.38912358     -0.02898395      0.12848546       8.76703825       113.83692312     2.69909974       3.23631399       -999.25000000   
    9319.500 20.78344906      -68.40492561     -0.02834504      0.12848546       8.76720810       113.81221717     2.69770653       3.23580049       -999.25000000   
    9319.600 20.74773248      -68.42055649     -0.02770612      0.12848546       8.76737795       113.68483619     2.69618803       3.23570749       -999.25000000   
    9319.700 20.71207727      -68.43617367     -0.02678034      0.12848546       8.76754780       113.51610855     2.69473295       3.24124801       -999.25000000   
    9319.800 20.65924770      -68.45188993     -0.02608219      0.12848546       8.76771764       113.27603718     2.69336956       3.25405876       -999.25000000   
    9319.900 20.67374839      -68.46759755     -0.02481516      0.12848546       8.76788749       112.89317674     2.69197761       3.26959460       -999.25000000   
    9320.000 20.70192585      -68.48330518     -0.02354814      0.12815265       8.76805734       112.35874206     2.69049991       3.28311306       -999.25000000   
    9320.100 20.73014172      -68.49901280     -0.02228112      0.12750036       8.76822719       111.76332449     2.68902547       3.29494920       -999.25000000   
    9320.200 20.75839605      -68.51472042     -0.02101410      0.12684807       8.76839704       111.23712012     2.68766124       3.30760165       -999.25000000   
    9320.300 20.78668889      -68.53042805     -0.01915747      0.12619578       8.76856689       110.83129669     2.68632236       3.32085844       -999.25000000   
    9320.400 20.81502028      -68.54613567     -0.01899498      0.12554348       8.76873673       110.46710708     2.68479103       3.33333032       -999.25000000   
    9320.500 20.84339030      -68.56184329     -0.01869107      0.12489119       8.76890658       110.03314674     2.68310614       3.34588124       -999.25000000   
    9320.600 20.87179897      -68.57755092     -0.01838716      0.12423890       8.76907643       109.53346606     2.68170149       3.35951877       -999.25000000   
    9320.700 20.90024637      -68.59325854     -0.01795386      0.12358660       8.76924628       109.07736803     2.68094504       3.37234167       -999.25000000   
    9320.800 20.92873255      -68.60896617     -0.01800040      0.12293431       8.76941613       108.71664559     2.68068367       3.38333903       -999.25000000   
    9320.900 20.95725754      -68.62467379     -0.01808144      0.12228202       8.76958590       108.39626159     2.68046649       3.39629179       -999.25000000   
    9321.000 20.98582142      -68.64038141     -0.01816249      0.12162973       8.76976032       108.09068078     2.68014746       3.41350409       -999.25000000   
    9321.100 21.01442423      -68.65608904     -0.01824353      0.12097743       8.76993636       107.86935227     2.68005264       3.42749889       -999.25000000   
    9321.200 21.04306602      -68.67179666     -0.01835507      0.12032514       8.77010436       107.76939662     2.68053984       3.42649896       -999.25000000   
    9321.300 21.07174685      -68.68750428     -0.01870893      0.11967285       8.77026951       107.70411428     2.68156600       3.40901929       -999.25000000   
    9321.400 21.10046677      -68.70321191     -0.01927623      0.11902056       8.77045305       107.57701264     2.68275787       3.38665314       -999.25000000   
    9321.500 21.12922583      -68.71891953     -0.01984353      0.11836826       8.77064309       107.40537044     2.68382863       3.37000539       -999.25000000   
    9321.600 21.15802409      -68.73462715     -0.02041083      0.11771597       8.77079461       107.25091328     2.68478642       3.35726068       -999.25000000   
    9321.700 21.18686160      -68.75033478     -0.02097813      0.11685055       8.77093263       107.10480858     2.68575716       3.34026475       -999.25000000   
    9321.800 21.21573842      -68.76604240     -0.02154544      0.11704897       8.77114388       106.93719275     2.68678197       3.31848659       -999.25000000   
    9321.900 21.24465460      -68.78175003     -0.02211274      0.11734367       8.77138068       106.78598068     2.68782834       3.30154694       -999.25000000   
    9322.000 21.27361018      -68.79745765     -0.02268004      0.11763837       8.77148325       106.66949477     2.68885052       3.29774243       -999.25000000   
    9322.100 21.30260523      -68.81316527     -0.02324734      0.11793307       8.77153949       106.49822091     2.68981295       3.30457242       -999.25000000   
    9322.200 21.33163980      -68.82887290     -0.02381464      0.11822777       8.77184820       106.22855672     2.69077214       3.31305270       -999.25000000   
    9322.300 21.36125393      -68.84458052     -0.02438195      0.11852248       8.77225306       106.01739405     2.69186169       3.31848720       -999.25000000   
    9322.400 21.39021224      -68.86028814     -0.02494925      0.11881718       8.77183865       106.04629109     2.69304609       3.32290552       -999.25000000   
    9322.500 21.41964883      -68.87599577     -0.02551655      0.11911188       8.76979804       106.26167300     2.69402988       3.32873476       -999.25000000   
    9322.600 21.44881043      -68.89170339     -0.02608385      0.11940658       8.76640747       106.49255968     2.69459593       3.33505566       -999.25000000   
    9322.700 21.47800278      -68.90741102     -0.02678034      0.11970129       8.76272648       106.74479886     2.69489233       3.34055071       -999.25000000   
    9322.800 21.50780211      -68.92311864     -0.02691942      0.12006018       8.75941440       107.16008375     2.69521505       3.34588162       -999.25000000   
    9322.900 21.53628641      -68.93882626     -0.02709952      0.12020933       8.75620972       107.73583245     2.69564601       3.35177706       -999.25000000   
    9323.000 21.56714033      -68.95453389     -0.02727962      0.12040002       8.75267334       108.31968766     2.69605433       3.35758179       -999.25000000   
    9323.100 21.59462772      -68.97022816     -0.02745971      0.12059071       8.74905441       108.84928876     2.69637311       3.36289051       -999.25000000   
    9323.200 21.64138812      -68.98596249     -0.02763981      0.12078140       8.74587745       109.39792176     2.69669376       3.36861081       -999.25000000   
    9323.300 21.63849629      -69.00171037     -0.02781990      0.12097209       8.74279827       109.99503151     2.69710603       3.37504838       -999.25000000   
