~Version Information Block
 VERS.                2.00:     CWLS LOG ASCII STANDARD - VERSION 2.000000
 WRAP.                  NO:     One Line Per Depth Step
#
~Well Information Block
#MNEM.UNIT                     Data                         Information
#----------   ------------------------------------------   ----------------
 STRT.FT                                     9000.0000:     START DEPTH
 STOP.FT                                    10600.0000:     STOP DEPTH
 STEP.FT                                        0.1000:     STEP
 NULL.                                       -999.2500:     NULL VALUE
 COMP.                            PRESIDIO OIL COMPANY:     COMPANY
 WELL.                          HAY RESERVIOR UNIT #58:     WELL
 FLD .                              HAY RESERVIOR UNIT:     FIELD
 LOC .                               1500' FSL 10' FWL:     LOCATION
 CNTY.                                      SWEETWATER:     COUNTY
 STAT.                                         WYOMING:     STATE
 CTRY.                                             USA:     COUNTRY
 SRVC.                                    SCHLUMBERGER:     SERVICE COMPANY
 DATE.                                      22/02/1994:     DATE
 API .                                      4903723301:     API NUMBER
 UWI .                                         3723301:     UWI NUMBER
 TVD .                                              NO:     TVD flag
 WSTA.                                             LOC:     Well status
 USGS.                                            E945:     USGS Number
 LATI.DEG                                     42.05082:     LATITUDE
 LONG.DEG                                   -108.37861:     LONGITUDE
 UTM-N.                                     4658743.82:     Northing
 UTM-E.                                      716932.37:     Easting
 CORE.FT                                          -9.2:     Core/Log Offset
#
~Curve Information Block
#MNEM.UNIT       API CODE      Curve Description
#----------    -------------   -------------------
 DEPT.FT                   :   Depth in Feet
 ILD .OHMM     05 120 46 01:   Deep Induction Standard Processed Resistivity
 SP  .MV       01 010 01 01:   Spontaneous Potential
 DPHI.DEC      42 890 03 01:   DPHI
 NPHI.DEC      42 890 03 01:   Neutron Porosity
 CALI.IN       70 280 01 01:   Caliper
 GR  .GAPI     35 310 01 01:   Gamma Ray
 RHOB.G/C3     42 350 01 01:   Bulk Density
 PEF .B/E                  :   Photo-Electric Factor
 DT4P.US/F                 :   
#
~Parameter Information Block
#MNEM.UNIT            Value               Description
#----------    --------------------    -------------------
 DATE.                  22-02-1994:    Date As Month-Day-Year
 RUN .                         ONE:    Run Number
 PDAT.                         UNK:    Permanent Datum
 EPD .FT                 6799.0000:    Elevation Of Perm. Datum
 LMF .                          KB:    Log Measured From
 FAPD.FT                   14.0000:    Feet Above Perm. Datum
 DMF .                          KB:    Drilling Measured From
 EKB .FT                 6813.0000:    Elevation Of Kelly Bushing
 EDF .FT                 6812.0000:    Elevation Of Derrick Floor
 EGL .FT                 6799.0000:    Elevation Of Ground Level
 TD  .FT                10600.0000:    Total Depth
 DD  .FT                10625.0000:    Depth Driller
 DL  .FT                10623.0000:    Depth Logger
 BLI .FT                 1061.0000:    Bottom Log Interval
 CSIZ.IN                     9.625:    Casing Size
 CBD1.                        1702:    Casing Bottom (Driller) 1
 CBL1.                        1700:    Casing Bottom (Logger) 1
 BS  .IN                     7.875:    Bit Size
 DFV .S                    45.0000:    Drilling Fluid Viscosity
 DFD .LB/G                 10.5000:    Drilling Fluid Density
 DFL .ML                    7.2000:    Drilling Fluid Loss
 DFPH.                      9.5000:    Drilling Fluid Ph
 MSS .                    MUD TANK:    Mud Sample Source
 RMS .OHMM                  4.6200:    Resistivity Of Mud Sample
 MST .DEGF                 50.0000:    Mud Sample Temperature
 RMF .OHMM                  3.0700:    Mud Filtrate Resistivity
 MFST.DEGF                 50.0000:    Mud Filtrate Sample Temperature
 RMC .OHMM                  7.1400:    Mud Cake Resistivity
 MCST.DEGF                 50.0000:    Mud Cake Sample Temperature
 RMB .OHMM                  1.0990:    Mud Resistivity At Bht
 BHT .DEGF                212.0000:    Bottom Hole Temperature
 MRT .DEGF                212.0000:    Maximum Recorded Temperature
 LUN .                        8415:    Logging Unit Number
 LUL .                      CASPER:    Logging Unit Location
 ENGI.               CHRIS PRESMYK:    Engineer'S Name
 WITN.                STEVE HEFNER:    Witness' Name
 DGBY.                         R2V:    
 WSTA.                         LOC:    
#
~Other Information Block
<DescLogPlotStart>   NEURALOG PLOT DEFINITION
PLOTDEFVERSION: 3
LASFILE: C:\nds\projects\mf-nov-13\las\3723301A.las
DEPTHSCALE: 240.000000
RESOLUTION: 200
DEPTHLABELFREQ: 100.000000
HEAVYGRIDFREQ: 100.000000
MEDIUMGRIDFREQ: 50.000000
LIGHTGRIDFREQ: 10.000000
#
#   TRACK 1
#
STARTTRACK: 
 LEFTX: 0.500000 inch
 RIGHTX: 3.000000 inch
 SCALETYPE: Log
 NUMCYCLES: 4
 STARTCYCLE: 2
CURVE: ILD   0.200000   2000.000000 (0,0,255)      Solid             2     N   
ENDTRACK: 
#
#   TRACK 2
#
STARTTRACK: 
 LEFTX: 3.500000 inch
 RIGHTX: 6.000000 inch
 SCALETYPE: Linear
 NUMCHARTDIVISIONS: 10
CURVE: SP    -80.000000 20.000000  (0,131,131)    Solid             2     Y    
BACKUP: -180.000000 -80.000000 (0,131,131)    Solid             2    
ENDTRACK: 
#
#   TRACK 3
#
STARTTRACK: 
 LEFTX: 6.000000 inch
 RIGHTX: 11.000000 inch
 SCALETYPE: Linear
 NUMCHARTDIVISIONS: 10
CURVE: DPHI  0.300000   -0.100000  (255,0,255)    Solid             2     N    
CURVE: NPHI  0.300000   -0.100000  (255,0,0)      Dot               2     Y    
BACKUP: 0.700000   0.300000   (255,0,0)      Dot               2    
ENDTRACK: 
#
#   TRACK 4
#
STARTTRACK: 
 LEFTX: 11.000000 inch
 RIGHTX: 13.500000 inch
 SCALETYPE: Linear
 NUMCHARTDIVISIONS: 10
CURVE: CALI  6.000000   16.000000  (255,131,0)    Solid             2     N    
CURVE: GR    0.000000   150.000000 (255,255,0)    Dot               2     Y    
BACKUP: 150.000000 300.000000 (255,255,0)    Dot               2    
ENDTRACK: 
#
#   TRACK 5
#
STARTTRACK: 
 LEFTX: 13.500000 inch
 RIGHTX: 18.500000 inch
 SCALETYPE: Linear
 NUMCHARTDIVISIONS: 10
CURVE: RHOB  2.000000   3.000000   (0,0,255)      Solid             2     Y    
BACKUP: 1.000000   2.000000   (0,0,255)      Solid             2    
CURVE: PEF   0.000000   10.000000  (0,131,131)    Dot               2     N    
ENDTRACK: 
#
#   TRACK 6
#
STARTTRACK: 
 LEFTX: 13.500000 inch
 RIGHTX: 18.500000 inch
 SCALETYPE: Linear
 NUMCHARTDIVISIONS: 10
CURVE: DT4P  240.000000 40.000000  (255,0,255)    Solid             2     N    
ENDTRACK: 
<DescLogPlotEnd>
~A DEPTH     ILD              SP               DPHI             NPHI             CALI             GR               RHOB             PEF              DT4P            
# ...
    9960.400 17.47207759      -23.24141167     0.00009796       0.12903985       8.48991935       80.28639157      2.64966663       3.30877069       66.65810136     
    9960.500 17.42716454      -23.23275409     0.00025273       0.12830309       8.48991935       78.97938113      2.64932577       3.26639021       66.77360790     
    9960.600 17.38236694      -23.22265334     0.00060079       0.12756634       8.48991935       77.80805116      2.64901149       3.22336855       66.88911444     
    9960.700 17.33768450      -23.21197366     0.00090110       0.12682958       8.48991935       76.81096224      2.64876188       3.18404072       67.06237425     
    9960.800 17.29311691      -23.20233645     0.00124964       0.12609282       8.48991935       75.92844973      2.64851420       3.14622646       67.06237425     
    9960.900 17.24784687      -23.19330266     0.00170512       0.12532634       8.48991935       74.98920263      2.64802910       3.10334513       67.00201207     
    9961.000 17.20321757      -23.18373019     0.00225534       0.12465169       8.48991935       73.89876565      2.64703963       3.05544893       66.96177062     
    9961.100 17.15963423      -23.17371128     0.00318154       0.12384595       8.48991935       72.74731545      2.64555048       3.01442883       66.92152918     
    9961.200 17.11393167      -23.16404873     0.00410775       0.12289694       8.48991935       71.74793580      2.64385711       2.99097628       66.86116700     
    9961.300 17.07235044      -23.15474884     0.00503396       0.12325013       8.48991935       71.10829356      2.64222316       2.97943984       66.65995976     
    9961.400 17.00282101      -23.14514603     0.00596017       0.12395786       8.48991935       70.87625641      2.64065398       2.96489240       66.45875252     
    9961.500 17.00790811      -23.13504388     0.00688637       0.12458994       8.48991935       70.89880456      2.63904407       2.94401397       66.15694165     
    9961.600 17.12008901      -23.12533845     0.00781258       0.12525940       8.48991935       70.97017703      2.63739724       2.92856795       65.95573441     
    9961.700 17.20795759      -23.11653400     0.00873879       0.12593316       8.48991935       71.03521233      2.63579071       2.92758135       65.75452716     
    9961.800 17.27832228      -23.10706668     0.00966499       0.12656282       8.48991935       71.22686310      2.63421600       2.93622741       65.55331992     
    9961.900 17.36964538      -23.09593229     0.01059120       0.12727194       8.48991935       71.69797791      2.63257635       2.94499986       65.25150905     
    9962.000 17.43862754      -23.08599904     0.01151741       0.12807183       8.48991935       72.40188166      2.63084227       2.95117841       65.25150905     
    9962.100 17.53201687      -23.07910530     0.01244362       0.12770793       8.48991935       73.12622151      2.62916138       2.95739233       65.07042254     
    9962.200 17.64230140      -23.06995478     0.01336982       0.12704061       8.48991935       73.77568592      2.62782555       2.96488156       64.94969819     
    9962.300 17.65374095      -23.05419076     0.01454363       0.12648832       8.48991935       74.46058176      2.62710140       2.97254944       64.82931899     
    9962.400 17.67843523      -23.04226739     0.01484052       0.12568019       8.48991935       75.20418009      2.62701959       2.97957759       64.64890312     
    9962.500 17.71088429      -23.05264095     0.01534604       0.12436875       8.48991935       75.82351982      2.62731762       2.98618372       64.64263610     
    9962.600 17.72688590      -23.08836627     0.01519358       0.12253588       8.48991935       76.25176762      2.62765855       2.99302859       64.51523745     
    9962.700 17.75633368      -23.13237689     0.01499097       0.12073421       8.48991935       76.69506561      2.62791812       3.00068937       64.41209556     
    9962.800 17.77514953      -23.16945820     0.01478837       0.11891935       8.48991935       77.26908369      2.62818100       3.00864509       64.33162909     
    9962.900 17.80260733      -23.20120538     0.01458576       0.11710286       8.48991935       77.76540169      2.62848644       3.01457317       64.23149346     
    9963.000 17.82258910      -23.23535911     0.01438315       0.11529352       8.48991935       77.96856645      2.62875682       3.01677794       64.14518553     
    9963.100 17.85005162      -23.27222376     0.01418054       0.11347900       8.48991935       77.92413579      2.62899608       3.01639089       64.05295643     
    9963.200 17.86873860      -23.30781208     0.01397793       0.11165680       8.48991935       77.69313095      2.62931972       3.01582268       63.95816271     
    9963.300 17.89839660      -23.34201344     0.01377533       0.10986224       8.48991935       77.12138369      2.62968076       3.01589977       63.87390790     
    9963.400 17.91451934      -23.37691435     0.01357272       0.10801145       8.48991935       76.12602534      2.62976507       3.01603569       63.77314028     
    9963.500 17.94696765      -23.41244251     0.01334002       0.10625200       8.48991935       74.98526258      2.62933681       3.01612090       63.64659687     
    9963.600 17.97270923      -23.44755097     0.01351254       0.10436245       8.48991935       74.04520137      2.62853738       3.01619467       63.63594988     
    9963.700 17.98296003      -23.48263123     0.01374122       0.10264285       8.48991935       73.23642180      2.62769297       3.01582228       63.58543241     
    9963.800 18.09793336      -23.51802195     0.01427081       0.10072109       8.48991935       72.16070268      2.62695351       3.01541801       63.53737310     
    9963.900 18.19207935      -23.55286636     0.01487864       0.09882674       8.48991935       70.65955995      2.62623353       3.01613181       63.50100604     
    9964.000 18.27235748      -23.58736817     0.01548646       0.09744317       8.48991935       69.05969914      2.62544791       3.01693241       63.44064386     
    9964.100 18.35720913      -23.62312165     0.01609428       0.09600652       8.48991935       67.72588472      2.62463701       3.01535884       63.44064386     
    9964.200 18.44245481      -23.65937998     0.01670211       0.09591180       8.48991935       66.55492323      2.62388424       3.01359867       63.44064386     
    9964.300 18.52809635      -23.69318455     0.01735206       0.09598662       8.48991935       65.17555464      2.62317309       3.01983690       63.44064386     
    9964.400 18.61413558      -23.72599671     0.01754062       0.09593727       8.48991935       63.56771653      2.62238015       3.03972712       63.44064386     
    9964.500 18.70057436      -23.76367162     0.01774323       0.09596247       8.48991935       62.16631335      2.62150930       3.06918554       63.44064386     
    9964.600 18.78741453      -23.80548383     0.01794584       0.09596142       8.48991935       61.31394929      2.62092371       3.09924589       63.44064386     
    9964.700 18.87465796      -23.83994142     0.01815446       0.09718519       8.48991935       60.90127867      2.62109690       3.12611352       63.44064386     
    9964.800 18.96230653      -23.85813767     0.01783992       0.09850679       8.48991935       60.67774900      2.62204815       3.15283235       63.23943662     
    9964.900 19.05036211      -23.86543105     0.01751575       0.09976317       8.48991935       60.60099053      2.62336098       3.18215145       63.03822938     
    9965.000 19.13882659      -23.87316613     0.01719157       0.10109051       8.48991935       60.75727939      2.62492630       3.21145878       63.03822938     
    9965.100 19.22770188      -23.88448457     0.01686740       0.10235219       8.48991935       61.14787430      2.62725301       3.23562111       62.93762575     
    9965.200 19.31698989      -23.89526780     0.01654965       0.10366629       8.48991935       61.71895732      2.63073429       3.25282164       62.83702213     
