~Version ---------------------------------------------------
VERS. 2.0 : CWLS log ASCII Standard -VERSION 2.0
WRAP.  NO : One Line Per Depth Step
~Well ------------------------------------------------------
STRT .FT              8400.0 : START DEPTH
STOP .FT              9700.0 : STOP DEPTH
STEP .FT  0.1000000000003638 : STEP
NULL .               -999.25 : NULL VALUE
COMP .  PRESIDIO OIL COMPANY : COMPANY
WELL .     J.T. FEDERAL NO.5 : WELL
FLD  .   SOUTH HAY RESOURCES : FIELD
LOC  . 1266' FNL & 1684' FEL : LOCATION
CNTY .            SWEETWATER : COUNTY
STAT .               WYOMING : STATE
CTRY .                   USA : COUNTRY
SRVC .                       : SERVICE COMPANY
DATE .            30/06/1993 : DATE
API  .            4903723152 : API NUMBER
UWI  .               3723152 : UWI NUMBER
TVD  .                    NO : TVD flag
WSTA .                   LOC : Well status
USGS .                  S179 : USGS Number
LATI .DEG           41.97079 : LATITUDE
LONG .DEG           -108.322 : LONGITUDE
UTM-N.            4650002.36 : Northing
UTM-E.             721895.66 : Easting
CORE .                   N/A : Core/Log Offset
~Curve Information -----------------------------------------
DEPT    .FT                : Depth in Feet
GR      .GAPI 35 310 01 01 : Gamma Ray
SP      .MV   01 010 01 01 : Spontaneous Potential
CALI    .IN   70 280 01 01 : Caliper
ILD     .OHMM 05 120 46 01 : Deep Induction Standard Processed Resistivity
DPHI    .V/V  45 890 01 01 : Density Porosity
NPHI    .V/V  42 890 03 01 : Neutron Porosity
PE      .B/E               : PE
DT      .US/F 60 520 08 01 : Delta-T
ACOUSTIC.DEC               : ACOUSTIC
~Params ----------------------------------------------------
DATE. 30-06-1993 : Date As Month-Day-Year
RUN .        ONE : Run Number
PDAT.        UNK : Permanent Datum
EPD .FT   6607.0 : Elevation Of Perm. Datum
LMF .         KB : Log Measured From
FAPD.FT     16.0 : Feet Above Perm. Datum
DMF .         KB : Drilling Measured From
EKB .FT   6623.0 : Elevation Of Kelly Bushing
EDF .FT   6622.0 : Elevation Of Derrick Floor
EGL .FT   6607.0 : Elevation Of Ground Level
TD  .FT   9700.0 : Total Depth
DD  .FT   9780.0 : Depth Driller
DL  .FT   9724.0 : Depth Logger
BLI .FT   9720.0 : Bottom Log Interval
CSIZ.IN  9.625IN : Casing Size
CBD1.       1698 : Casing Bottom (Driller) 1
CBL1.       1697 : Casing Bottom (Logger) 1
BS  .IN  7.875IN : Bit Size
DFT .        GEL : Drilling Fluid Type
DFV .S      55.0 : Drilling Fluid Viscosity
DFD .LB/G   10.2 : Drilling Fluid Density
DFL .ML      7.6 : Drilling Fluid Loss
DFPH.        9.5 : Drilling Fluid Ph
MSS .   FLOWLINE : Mud Sample Source
RMS .OHMM    1.5 : Resistivity Of Mud Sample
MST .DEGF   74.0 : Mud Sample Temperature
RMF .OHMM    1.8 : Mud Filtrate Resistivity
MFST.DEGF   66.0 : Mud Filtrate Sample Temperature
RMC .OHMM   2.44 : Mud Cake Resistivity
MCST.DEGF   69.0 : Mud Cake Sample Temperature
RMB .OHMM    0.6 : Mud Resistivity At Bht
BHT .DEGF  197.0 : Bottom Hole Temperature
MRT .DEGF  197.0 : Maximum Recorded Temperature
LUN .      52546 : Logging Unit Number
LUL .      VERNL : Logging Unit Location
ENGI.    K EVATT : Engineer'S Name
WITN.    HEFFNER : Witness' Name
DGBY.        R2V : 
WSTA.        LOC : 
~Other -----------------------------------------------------
<DescLogPlotStart>   NEURALOG PLOT DEFINITION
PLOTDEFVERSION: 3
LASFILE: C:\nds\projects\mf-nov-13\las\3723152A.las
DEPTHSCALE: 240.000000
RESOLUTION: 200
DEPTHLABELFREQ: 100.000000
HEAVYGRIDFREQ: 100.000000
MEDIUMGRIDFREQ: 50.000000
LIGHTGRIDFREQ: 10.000000
#
#   TRACK 1
#
STARTTRACK:
LEFTX: 0.500000 inch
RIGHTX: 3.000000 inch
SCALETYPE: Linear
NUMCHARTDIVISIONS: 10
CURVE: GR    0.000000   150.000000 (0,0,255)      Solid             2     N
CURVE: SP    -100.000000 0.000000   (0,131,131)    Dot               2     N
ENDTRACK:
#
#   TRACK 2
#
STARTTRACK:
LEFTX: 0.500000 inch
RIGHTX: 3.000000 inch
SCALETYPE: Linear
NUMCHARTDIVISIONS: 10
CURVE: CALI  6.000000   16.000000  (255,0,255)    Solid             2     Y
BACKUP: -4.000000  6.000000   (255,0,255)    Solid             2
ENDTRACK:
#
#   TRACK 3
#
STARTTRACK:
LEFTX: 3.500000 inch
RIGHTX: 8.500000 inch
SCALETYPE: Log
NUMCYCLES: 4
STARTCYCLE: 2
CURVE: ILD   0.200000   2000.000000 (255,0,0)      Solid             2     N
ENDTRACK:
#
#   TRACK 4
#
STARTTRACK:
LEFTX: 3.500000 inch
RIGHTX: 8.500000 inch
SCALETYPE: Linear
NUMCHARTDIVISIONS: 10
CURVE: DPHI  0.300000   -0.100000  (255,131,0)    Solid             2     Y
BACKUP: 0.700000   0.300000   (255,131,0)    Solid             2
CURVE: NPHI  0.300000   -0.100000  (255,255,0)    Dot               2     Y
BACKUP: 0.700000   0.300000   (255,255,0)    Dot               2
ENDTRACK:
#
#   TRACK 5
#
STARTTRACK:
LEFTX: 3.500000 inch
RIGHTX: 6.000000 inch
SCALETYPE: Linear
NUMCHARTDIVISIONS: 10
CURVE: PE    0.000000   10.000000  (0,0,255)      Solid             2     N
ENDTRACK:
#
#   TRACK 6
#
STARTTRACK:
LEFTX: 8.500000 inch
RIGHTX: 13.500000 inch
SCALETYPE: Linear
NUMCHARTDIVISIONS: 10
CURVE: DT    140.000000 40.000000  (0,131,131)    Solid             2     Y
BACKUP: 40.000000  -60.000000 (0,131,131)    Solid             2
CURVE: ACOUSTIC 0.300000   -0.100000  (255,0,255)    Dot               2     Y
BACKUP: 0.700000   0.300000   (255,0,255)    Dot               2
BACKUP: -0.100000  -0.500000  (255,0,255)    Dot               2
ENDTRACK:
<DescLogPlotEnd>
~ASCII -----------------------------------------------------
# ...
 9502.30000  111.96411  -13.71103    9.39111   12.53034   -0.02032    0.16931    3.51062   72.82732    0.15887
 9502.40000  112.98822  -13.54511    9.39052   12.40304   -0.01941    0.17059    3.50920   73.18513    0.16087
 9502.50000  113.67353  -13.39982    9.38994   12.27704   -0.01850    0.17151    3.50468   73.54293    0.16340
 9502.60000  114.22621  -13.25062    9.38936   12.15231   -0.01759    0.17243    3.49507   73.90074    0.16447
 9502.70000  114.89378  -13.08948    9.38878   12.02886   -0.01667    0.17334    3.48247   74.25855    0.16600
 9502.80000  115.69946  -12.92729    9.38819   11.90666   -0.01576    0.17426    3.47030   74.61636    0.16781
 9502.90000  116.47420  -12.77481    9.38761   11.78570   -0.01485    0.17517    3.45893   74.97417    0.16939
 9503.00000  117.05321  -12.62846    9.38703   11.66596   -0.01394    0.17609    3.44669   75.33198    0.17114
 9503.10000  117.44329  -12.47111    9.38644   11.54745   -0.01280    0.17701    3.43448   75.68979    0.17282
 9503.20000  117.76738  -12.30027    9.38586   11.43014   -0.01238    0.17792    3.42587   76.04760    0.17491
 9503.30000  118.07142  -12.14581    9.38528   11.31402   -0.01182    0.17884    3.42251   76.35903    0.17704
 9503.40000  118.33230  -12.01774    9.38469   11.19908   -0.01125    0.17975    3.42203   76.52400    0.17913
 9503.50000  118.64127  -11.86006    9.38411   11.08531   -0.01070    0.18067    3.42130   76.67005    0.18129
 9503.60000  119.09699  -11.63988    9.38353   10.97269   -0.01010    0.18159    3.41971   76.81609    0.18336
 9503.70000  119.45176  -11.46800    9.38294   10.86122   -0.00956    0.18250    3.41826   76.96214    0.18463
 9503.80000  119.22753  -11.51253    9.38236   10.75088   -0.00898    0.18342    3.41721   77.10818    0.18551
 9503.90000  118.33462  -11.78388    9.38178   10.64166   -0.00843    0.18433    3.41609   77.25423    0.18622
 9504.00000  117.22815  -12.11893    9.38119   10.53355   -0.00784    0.18525    3.41477   77.40027    0.18683
 9504.10000  116.30943  -12.39326    9.38060   10.42654   -0.00731    0.18617    3.41351   77.57606    0.18752
 9504.20000  115.52115  -12.63027    9.38003   10.32061   -0.00671    0.18708    3.41230   77.60778    0.18815
 9504.30000  114.65900  -12.88497    9.37946   10.21577   -0.00632    0.18800    3.41101   77.64761    0.18884
 9504.40000  113.74542  -13.15210    9.37886   10.11198   -0.00625    0.18891    3.40981   77.68744    0.18947
 9504.50000  112.87986  -13.41887    9.37823    9.95828   -0.00633    0.18983    3.40880   77.72727    0.19015
 9504.60000  112.01703  -13.69065    9.37763    9.95828   -0.00625    0.19045    3.40751   77.76710    0.19068
 9504.70000  111.11016  -13.94660    9.37712    9.91842   -0.00633    0.19094    3.40588   77.80693    0.19079
 9504.80000  110.24977  -14.17749    9.37665    9.89193   -0.00742    0.19131    3.40487   77.84676    0.19085
 9504.90000  109.44678  -14.44847    9.37616    9.86551   -0.00832    0.19168    3.40487   77.88659    0.19094
 9505.00000  108.52390  -14.79287    9.37564    9.83916   -0.00913    0.19205    3.40451   77.92642    0.19100
 9505.10000  107.44716  -15.06995    9.37512    9.81288   -0.00999    0.19242    3.40329   77.98174    0.19110
 9505.20000  106.56564  -15.07675    9.37462    9.78667   -0.01084    0.19279    3.40495   77.98174    0.19116
 9505.30000  106.24383  -14.80550    9.37411    9.76054   -0.01168    0.19329    3.41451   77.98174    0.19126
 9505.40000  106.39067  -14.45668    9.37360    9.73447   -0.01253    0.19365    3.43146   77.98174    0.19132
 9505.50000  106.60609  -14.19458    9.37308    9.70847   -0.01362    0.19421    3.44997   77.98174    0.19142
 9505.60000  106.68131  -13.99198    9.37258    9.68254   -0.01344    0.19478    3.46698   77.98553    0.19148
 9505.70000  106.70904  -13.74131    9.37207    9.65668   -0.01318    0.19534    3.48515   77.98049    0.19125
 9505.80000  106.80373  -13.43764    9.37156    9.63089   -0.01293    0.19591    3.50559   77.91435    0.19101
 9505.90000  106.93997  -13.18240    9.37105    9.59233   -0.01268    0.19647    3.52279   77.84324    0.19078
 9506.00000  107.04269  -12.99772    9.37054    9.59233   -0.01242    0.19703    3.53138   77.77946    0.19054
 9506.10000  107.09651  -12.74115    9.37003    9.62024   -0.01217    0.19760    3.53384   77.70968    0.19031
 9506.20000  107.16820  -12.34802    9.36952    9.63889   -0.01192    0.19816    3.53681   77.64449    0.19007
 9506.30000  107.36627  -12.06621    9.36901    9.65757   -0.01166    0.19872    3.54216   77.57591    0.18983
 9506.40000  107.73286  -12.21583    9.36849    9.67629   -0.01141    0.19929    3.54645   77.50959    0.18960
 9506.50000  108.18004  -12.75960    9.36798    9.69505   -0.01115    0.19980    3.54745   77.44186    0.18936
 9506.60000  108.58767  -13.39372    9.36747    9.71384   -0.01090    0.19938    3.54678   77.37506    0.18913
 9506.70000  108.93650  -13.99391    9.36696    9.73267   -0.01065    0.19901    3.54659   77.30739    0.18889
 9506.80000  109.29045  -14.62285    9.36645    9.75154   -0.01039    0.19863    3.54696   77.24098    0.18864
 9506.90000  109.68521  -15.15963    9.36594    9.77044   -0.01014    0.19826    3.54706   77.17267    0.18795
 9507.00000  110.08168  -15.31970    9.36543    9.78938   -0.00996    0.19788    3.54683   77.10712    0.18722
 9507.10000  110.43685  -15.06707    9.36492    9.80836   -0.00902    0.19751    3.54671   77.04091    0.18661
 9507.20000  110.78064  -14.68881    9.36441    9.82737   -0.00829    0.19713    3.54688   76.97397    0.18715
 9507.30000  111.18538  -14.42513    9.36390    9.84642   -0.00757    0.19675    3.54699   76.90703    0.18761
 9507.40000  111.63975  -14.25317    9.36339    9.86551   -0.00684    0.19654    3.54677   76.86613    0.18807
 9507.50000  112.00935  -14.03619    9.36288    9.88463   -0.00611    0.19673    3.54659   76.91684    0.18853
 9507.60000  112.18219  -13.72592    9.36238    9.90379   -0.00538    0.19685    3.54694   76.96755    0.18899
 9507.70000  112.20966  -13.37918    9.36187    9.92299   -0.00465    0.19698    3.54726   77.05274    0.18945
 9507.80000  112.22858  -13.02624    9.36136    9.94223   -0.00392    0.19711    3.54596   77.19214    0.18991
 9507.90000  112.29236  -12.60047    9.36084    9.96150   -0.00320    0.19723    3.54223   77.33155    0.19037
 9508.00000  112.36171  -12.09335    9.36034    9.98081   -0.00247    0.19736    3.53704   77.47096    0.19083
 9508.10000  112.40741  -11.72799    9.35984   10.00015   -0.00174    0.19749    3.53191   77.61036    0.19129
 9508.20000  112.44519  -11.80324    9.35932   10.01943   -0.00101    0.19762    3.52729   77.74977    0.19175
 9508.30000  112.49409  -12.36853    9.35880   10.03959   -0.00028    0.19776    3.52270   77.88918    0.19221
 9508.40000  112.55593  -13.19294    9.35831   10.05814    0.00044    0.19775    3.51782   78.02858    0.19267
 9508.50000  112.61642  -13.99264    9.35781   10.07878    0.00117    0.19773    3.51286   78.16799    0.19313
 9508.60000  112.65525  -14.54155    9.35714   10.09707    0.00190    0.19771    3.50811   78.30739    0.19359
 9508.70000  112.68901  -14.69684    9.35618   10.11801    0.00264    0.19769    3.50351   78.38742    0.19405
 9508.80000  112.78311  -14.51199    9.35495   10.14613    0.00248    0.19767    3.49870   78.41866    0.19451
 9508.90000  112.96540  -14.23080    9.35364   10.14741    0.00231    0.19765    3.49357   78.44057    0.19513
 9509.00000  113.16903  -14.02931    9.35235   10.13631    0.00214    0.19763    3.48896   78.46247    0.19495
 9509.10000  113.33367  -13.87702    9.35110   10.13064    0.00197    0.19761    3.48612   78.48884    0.19468
 9509.20000  113.50291  -13.70495    9.34982   10.12326    0.00183    0.19759    3.48539   78.42877    0.19441
 9509.30000  113.72681  -13.51866    9.34854   10.11718    0.00129    0.19756    3.48570   78.35332    0.19414
 9509.40000  113.91709  -13.31999    9.34726   10.11022    0.00083    0.19754    3.48587   78.27787    0.19386
 9509.50000  113.92867  -13.10550    9.34599   10.10379    0.00037    0.19752    3.48573   78.20242    0.19359
