~Version Information Block
 VERS.                2.00:     CWLS LOG ASCII STANDARD - VERSION 2.000000
 WRAP.                  NO:     One Line Per Depth Step
#
~Well Information Block
#MNEM.UNIT                     Data                         Information
#----------   ------------------------------------------   ----------------
 STRT.FT                                    12600.0000:     START DEPTH
 STOP.FT                                    13950.0000:     STOP DEPTH
 STEP.FT                                        0.1000:     STEP
 NULL.                                       -999.2500:     NULL VALUE
 COMP.                        PRESIDIO EXPLORATION INC:     COMPANY
 WELL.                          PICKETLAKE UNIT #40-13:     WELL
 FLD .                                         WILDCAT:     FIELD
 LOC .                           1320' FSL & 1320' FEL:     LOCATION
 CNTY.                                      SWEETWATER:     COUNTY
 STAT.                                         WYOMING:     STATE
 CTRY.                                             USA:     COUNTRY
 SRVC.                                                :     SERVICE COMPANY
 DATE.                                      15/05/1995:     DATE
 API .                                      4903723472:     API NUMBER
 UWI .                                         3723472:     UWI NUMBER
 TVD .                                              NO:     TVD flag
 WSTA.                                             LOC:     Well status
 USGS.                                            F042:     USGS Number
 LATI.DEG                                     42.22387:     LATITUDE
 LONG.DEG                                   -108.34765:     LONGITUDE
 UTM-N.                                     4678038.95:     Northing
 UTM-E.                                       718897.4:     Easting
 CORE.                                              +5:     Core/Log Offset
#
~Curve Information Block
#MNEM.UNIT       API CODE      Curve Description
#----------    -------------   -------------------
 DEPT.FT                   :   Depth in Feet
 DTCO.US/F     60 520 08 01:   DTCO
 SPHI.V/V      61 890 01 01:   Sonic Porosity
 GR  .GAPI     35 310 01 01:   Gamma Ray
 CALI.IN       70 280 01 01:   Caliper
 ILD .OHMM     05 120 46 01:   Deep Induction Standard Processed Resistivity
 SP  .MV       01 010 01 01:   Spontaneous Potential
 PEF .b/e                  :   Photo-Electric Factor
 RHOB.G/C3     42 350 01 01:   Bulk Density
 DPHI.V/V      45 890 01 01:   Density Porosity
 NPHI.V/V      42 890 03 01:   Neutron Porosity
#
~Parameter Information Block
#MNEM.UNIT            Value               Description
#----------    --------------------    -------------------
 DATE.                  15-05-1995:    Date As Month-Day-Year
 RUN .                         ONE:    Run Number
 PDAT.                         UNK:    Permanent Datum
 EPD .FT                 7224.0000:    Elevation Of Perm. Datum
 LMF .                          KB:    Log Measured From
 FAPD.FT                   15.0000:    Feet Above Perm. Datum
 DMF .                          KB:    Drilling Measured From
 EKB .FT                 7240.0000:    Elevation Of Kelly Bushing
 EDF .FT                 7239.0000:    Elevation Of Derrick Floor
 EGL .FT                 7224.0000:    Elevation Of Ground Level
 TD  .FT                13950.0000:    Total Depth
 DD  .FT                13957.0000:    Depth Driller
 DL  .FT                13952.0000:    Depth Logger
 BLI .FT                13925.0000:    Bottom Log Interval
 TLI .FT                10000.0000:    Top Log Interval
 CSIZ.IN                   9.625IN:    Casing Size
 CBD1.                        2520:    Casing Bottom (Driller) 1
 CBL1.                        2518:    Casing Bottom (Logger) 1
 BS  .IN                   7.875IN:    Bit Size
 DFT .                         WTD:    Drilling Fluid Type
 DFV .S                    74.0000:    Drilling Fluid Viscosity
 DFD .LB/G                 10.8000:    Drilling Fluid Density
 DFL .ML                    7.2000:    Drilling Fluid Loss
 DFPH.                      9.5000:    Drilling Fluid Ph
 MSS .                     MUDTANK:    Mud Sample Source
 RMS .OHMM                  4.3300:    Resistivity Of Mud Sample
 MST .DEGF                 65.0000:    Mud Sample Temperature
 RMF .OHMM                  3.3800:    Mud Filtrate Resistivity
 MFST.DEGF                 65.0000:    Mud Filtrate Sample Temperature
 RMC .OHMM                  4.5000:    Mud Cake Resistivity
 MCST.DEGF                 65.0000:    Mud Cake Sample Temperature
 RMB .OHMM                  1.3760:    Mud Resistivity At Bht
 BHT .DEGF                219.0000:    Bottom Hole Temperature
 MRT .DEGF                219.0000:    Maximum Recorded Temperature
 LUN .                        8415:    Logging Unit Number
 LUL .                      CASPER:    Logging Unit Location
 ENGI.               T.CHRISTENSEN:    Engineer'S Name
 WITN.                STEVE HEFNER:    Witness' Name
 DGBY.                         R2V:    
 WSTA.                         LOC:    
#
~Other Information Block
<DescLogPlotStart>   NEURALOG PLOT DEFINITION
PLOTDEFVERSION: 3
LASFILE: C:\nds\projects\mf-nov-13\las\3723472C.las
DEPTHSCALE: 240.000000
RESOLUTION: 200
DEPTHLABELFREQ: 100.000000
HEAVYGRIDFREQ: 100.000000
MEDIUMGRIDFREQ: 50.000000
LIGHTGRIDFREQ: 10.000000
#
#   TRACK 1
#
STARTTRACK: 
 LEFTX: 0.500000 inch
 RIGHTX: 3.000000 inch
 SCALETYPE: Linear
 NUMCHARTDIVISIONS: 10
CURVE: DTCO  140.000000 40.000000  (0,0,255)      Solid             2     N    
CURVE: SPHI  0.300000   -0.100000  (0,131,131)    Dot               2     N    
ENDTRACK: 
#
#   TRACK 2
#
STARTTRACK: 
 LEFTX: 3.500000 inch
 RIGHTX: 6.000000 inch
 SCALETYPE: Linear
 NUMCHARTDIVISIONS: 10
CURVE: GR    0.000000   150.000000 (255,0,255)    Solid             2     Y    
BACKUP: 150.000000 300.000000 (255,0,255)    Solid             2    
CURVE: CALI  6.000000   16.000000  (255,0,0)      Dot               2     N    
ENDTRACK: 
#
#   TRACK 3
#
STARTTRACK: 
 LEFTX: 6.000000 inch
 RIGHTX: 11.000000 inch
 SCALETYPE: Log
 NUMCYCLES: 4
 STARTCYCLE: 2
CURVE: ILD   0.200000   2000.000000 (255,131,0)    Solid             2     N   
ENDTRACK: 
#
#   TRACK 4
#
STARTTRACK: 
 LEFTX: 11.000000 inch
 RIGHTX: 13.500000 inch
 SCALETYPE: Linear
 NUMCHARTDIVISIONS: 10
CURVE: SP    -80.000000 20.000000  (255,255,0)    Solid             2     N    
ENDTRACK: 
#
#   TRACK 5
#
STARTTRACK: 
 LEFTX: 13.500000 inch
 RIGHTX: 18.500000 inch
 SCALETYPE: Linear
 NUMCHARTDIVISIONS: 10
CURVE: PEF   0.000000   10.000000  (0,0,255)      Solid             2     N    
CURVE: RHOB  2.000000   3.000000   (0,131,131)    Dot               2     Y    
BACKUP: 1.000000   2.000000   (0,131,131)    Dot               2    
ENDTRACK: 
#
#   TRACK 6
#
STARTTRACK: 
 LEFTX: 18.500000 inch
 RIGHTX: 23.500000 inch
 SCALETYPE: Linear
 NUMCHARTDIVISIONS: 10
CURVE: DPHI  0.300000   -0.100000  (255,0,255)    Solid             2     N    
CURVE: NPHI  0.300000   -0.100000  (255,0,0)      Dot               2     Y    
BACKUP: 0.700000   0.300000   (255,0,0)      Dot               2    
ENDTRACK: 
<DescLogPlotEnd>
~A DEPTH     DTCO             SPHI             GR               CALI             ILD              SP               PEF              RHOB             DPHI             NPHI            
# ...
   13497.600 68.01405622      0.12049317       49.89626310      8.42464859       7.61943484       -3.74207024      4.57687894       2.56435397       0.08145996       0.23471127      
   13497.700 67.81526104      0.11907631       50.34787827      8.42278880       7.54398003       -3.69563134      4.76154618       2.55369316       0.10901650       0.23374598      
   13497.800 67.56024096      0.11880780       50.76419911      8.42099123       7.46927244       -3.65410276      4.97489960       2.53970966       0.13657304       0.23278068      
   13497.900 67.52855868      0.11843861       51.03423695      8.41913669       7.39530467       -3.61450155      4.98493976       2.50101856       0.16412958       0.23181539      
   13498.000 67.48438197      0.11806942       51.10828253      8.41715931       7.32206940       -3.57233720      4.98493976       2.45318140       0.18350101       0.23085010      
   13498.100 67.44020527      0.11770023       51.06410073      8.41536742       7.24955938       -3.52776024      5.44993976       2.40756547       0.20503938       0.23018109      
   13498.200 67.39602856      0.11733104       51.03722434      8.41426981       7.17776742       -3.48373675      5.96493976       2.35918358       0.22164530       0.23018109      
   13498.300 67.35185185      0.11696185       51.08245704      8.41399232       7.10668641       -3.44093523      6.47993976       2.31433020       0.23825122       0.23018109      
   13498.400 67.30767515      0.11659266       51.11111637      8.41411478       7.03630931       -3.39787656      6.99493976       2.26504364       0.25485714       0.23018109      
   13498.500 67.26349844      0.11622347       50.98521385      8.41418028       6.96662915       -3.35418818      7.50993976       2.22118363       0.27146306       0.26096579      
   13498.600 67.21932173      0.11585427       50.67397657      8.41412294       6.89763903       -3.31053564      8.02493976       2.17096617       0.28806899       0.28399732      
   13498.700 67.15863454      0.11548508       50.28446030      8.41409445       6.79543274       -3.26723184      8.53993976       2.12784533       0.29859155       0.29859155      
   13498.800 67.12306368      0.11511589       49.93225141      8.41412818       6.79543274       -3.22401328      9.05493976       2.08349011       0.29859155       0.29933199      
   13498.900 67.06626506      0.11474670       49.62535327      8.41414617       6.79543274       -3.18066667      9.56993976       2.02385659       0.29859155       0.29800212      
   13499.000 67.00946644      0.11437751       49.30263833      8.41413022       6.79543274       -3.13696159      9.98493976       1.99327673       0.29859155       0.30224278      
   13499.100 66.95266781      0.11385542       48.94759110      8.41412254       6.82698881       -3.09326801      9.98493976       1.92867841       0.29859155       0.34034351      
   13499.200 66.89586919      0.11385542       48.60799122      8.41413273       6.85869141       -3.05039634      9.98493976       1.88435640       0.29859155       0.37394512      
   13499.300 66.83907057      0.11385542       48.30215674      8.41413897       6.85869141       -3.00755211      9.98493976       1.90956236       0.29859155       0.38779281      
   13499.400 66.75702811      0.11425703       47.97365726      8.41413667       6.89054123       -2.96315479      9.98493976       1.92840763       0.29859155       0.39057280      
   13499.500 66.75702811      0.11500373       47.59440296      8.41413611       6.92253895       -2.91866406      9.98493976       1.94696023       0.29859155       0.38761598      
   13499.600 66.86624686      0.11634780       47.27480657      8.41413926       6.95468526       -2.87704566      9.97489960       1.96761966       0.29859155       0.38919684      
   13499.700 67.06648122      0.11769187       47.18285039      8.41414141       7.01942641       -2.83574901      9.96782129       1.98452250       0.29859155       0.37487741      
   13499.800 67.26671559      0.11903594       47.33919628      8.41414141       7.08477024       -2.78873560      9.96485944       1.99844770       0.27753520       0.34897045      
   13499.900 67.46694995      0.12038001       47.58912039      8.41414141       7.15072235       -2.73839117      8.74004626       2.00091358       0.26316566       0.32721631      
   13500.000 67.66718432      0.12172408       47.79801981      8.41414141       7.18392827       -2.69655341      7.88184383       2.00690186       0.24879612       0.31006401      
   13500.100 67.86741868      0.12306815       47.97411229      8.41414141       7.25080345       -2.66901540      7.02364140       2.00285812       0.23442659       0.29773420      
   13500.200 68.06765305      0.12441222       48.16268721      8.41414141       7.31830116       -2.64766772      6.16543897       2.00800549       0.22005705       0.27859036      
   13500.300 68.26788741      0.12575629       48.36138147      8.41414141       7.38642721       -2.62302784      5.30723654       2.06212383       0.20568751       0.26254504      
   13500.400 68.46812178      0.12710036       48.60646824      8.41414141       7.56303294       -2.59589525      4.44903411       2.10491556       0.19131797       0.24978331      
   13500.500 68.66835614      0.12911647       49.00070823      8.41414141       7.68310977       -2.57121513      3.98092369       2.14256115       0.17694844       0.23417629      
   13500.600 68.86859051      0.12911647       49.54941674      8.41414141       7.80509304       -2.54855872      3.83453815       2.18159730       0.16257890       0.22097345      
   13500.700 69.06882487      0.13023523       50.11741080      8.41414141       7.92901301       -2.52470172      3.73389809       2.22063344       0.14820936       0.20571638      
   13500.800 69.26905924      0.13098107       50.65585051      8.41414141       8.05490044       -2.49969496      3.63325803       2.25966959       0.13383983       0.19216067      
   13500.900 69.46929361      0.13172691       51.27702180      8.41414141       8.18278656       -2.47535440      3.53261797       2.29870573       0.11947029       0.17724600      
   13501.000 69.66952797      0.13247275       51.96245432      8.41414141       8.31270310       -2.45162790      3.43197791       2.33774188       0.10510075       0.16344056      
   13501.100 69.96987952      0.13321859       52.44207990      8.41414141       8.44468230       -2.42747427      3.33133785       2.37677802       0.09073121       0.15847430      
   13501.200 69.96987952      0.13433735       52.58261965      8.41414141       8.64659037       -2.40317065      3.23069779       2.41581417       0.07484909       0.15413542      
   13501.300 69.96987952      0.13453815       52.65793626      8.41414141       8.64659037       -2.37910306      3.16767068       2.44026104       0.06886318       0.14942395      
   13501.400 69.91967871      0.13493976       52.96121366      8.41414141       8.90577763       -2.35496209      3.09939759       2.47985944       0.06076459       0.14486940      
   13501.500 69.81927711      0.13514056       53.35564062      8.41414141       9.08287118       -2.33059538      3.04969880       2.49849398       0.06159901       0.14038334      
   13501.600 69.76907631      0.13493976       53.50686950      8.41414141       9.26348628       -2.30658928      3.00000000       2.53212851       0.06265594       0.13560606      
   13501.700 69.43440428      0.13433735       53.38423029      8.41414141       9.44769295       -2.28295428      2.95030120       2.54869478       0.06371287       0.12959989      
   13501.800 69.21128960      0.13373494       53.23339481      8.41414141       9.63556262       -2.25835310      2.90060241       2.54869478       0.06476980       0.12895425      
   13501.900 68.98817492      0.13353414       53.17990136      8.41414141       9.82716812       -2.23320310      2.85090361       2.54869478       0.06582673       0.12875011      
