~Version Information Block
 VERS.                2.00:     CWLS LOG ASCII STANDARD - VERSION 2.000000
 WRAP.                  NO:     One Line Per Depth Step
#
~Well Information Block
#MNEM.UNIT                     Data                         Information
#----------   ------------------------------------------   ----------------
 STRT.FT                                    12600.0000:     START DEPTH
 STOP.FT                                    13950.0000:     STOP DEPTH
 STEP.FT                                        0.1000:     STEP
 NULL.                                       -999.2500:     NULL VALUE
 COMP.                        PRESIDIO EXPLORATION INC:     COMPANY
 WELL.                          PICKETLAKE UNIT #40-13:     WELL
 FLD .                                         WILDCAT:     FIELD
 LOC .                           1320' FSL & 1320' FEL:     LOCATION
 CNTY.                                      SWEETWATER:     COUNTY
 STAT.                                         WYOMING:     STATE
 CTRY.                                             USA:     COUNTRY
 SRVC.                                                :     SERVICE COMPANY
 DATE.                                      15/05/1995:     DATE
 API .                                      4903723472:     API NUMBER
 UWI .                                         3723472:     UWI NUMBER
 TVD .                                              NO:     TVD flag
 WSTA.                                             LOC:     Well status
 USGS.                                            F042:     USGS Number
 LATI.DEG                                     42.22387:     LATITUDE
 LONG.DEG                                   -108.34765:     LONGITUDE
 UTM-N.                                     4678038.95:     Northing
 UTM-E.                                       718897.4:     Easting
 CORE.                                              +5:     Core/Log Offset
#
~Curve Information Block
#MNEM.UNIT       API CODE      Curve Description
#----------    -------------   -------------------
 DEPT.FT                   :   Depth in Feet
 DTCO.US/F     60 520 08 01:   DTCO
 SPHI.V/V      61 890 01 01:   Sonic Porosity
 GR  .GAPI     35 310 01 01:   Gamma Ray
 CALI.IN       70 280 01 01:   Caliper
 ILD .OHMM     05 120 46 01:   Deep Induction Standard Processed Resistivity
 SP  .MV       01 010 01 01:   Spontaneous Potential
 PEF .b/e                  :   Photo-Electric Factor
 RHOB.G/C3     42 350 01 01:   Bulk Density
 DPHI.V/V      45 890 01 01:   Density Porosity
 NPHI.V/V      42 890 03 01:   Neutron Porosity
#
~Parameter Information Block
#MNEM.UNIT            Value               Description
#----------    --------------------    -------------------
 DATE.                  15-05-1995:    Date As Month-Day-Year
 RUN .                         ONE:    Run Number
 PDAT.                         UNK:    Permanent Datum
 EPD .FT                 7224.0000:    Elevation Of Perm. Datum
 LMF .                          KB:    Log Measured From
 FAPD.FT                   15.0000:    Feet Above Perm. Datum
 DMF .                          KB:    Drilling Measured From
 EKB .FT                 7240.0000:    Elevation Of Kelly Bushing
 EDF .FT                 7239.0000:    Elevation Of Derrick Floor
 EGL .FT                 7224.0000:    Elevation Of Ground Level
 TD  .FT                13950.0000:    Total Depth
 DD  .FT                13957.0000:    Depth Driller
 DL  .FT                13952.0000:    Depth Logger
 BLI .FT                13925.0000:    Bottom Log Interval
 TLI .FT                10000.0000:    Top Log Interval
 CSIZ.IN                   9.625IN:    Casing Size
 CBD1.                        2520:    Casing Bottom (Driller) 1
 CBL1.                        2518:    Casing Bottom (Logger) 1
 BS  .IN                   7.875IN:    Bit Size
 DFT .                         WTD:    Drilling Fluid Type
 DFV .S                    74.0000:    Drilling Fluid Viscosity
 DFD .LB/G                 10.8000:    Drilling Fluid Density
 DFL .ML                    7.2000:    Drilling Fluid Loss
 DFPH.                      9.5000:    Drilling Fluid Ph
 MSS .                     MUDTANK:    Mud Sample Source
 RMS .OHMM                  4.3300:    Resistivity Of Mud Sample
 MST .DEGF                 65.0000:    Mud Sample Temperature
 RMF .OHMM                  3.3800:    Mud Filtrate Resistivity
 MFST.DEGF                 65.0000:    Mud Filtrate Sample Temperature
 RMC .OHMM                  4.5000:    Mud Cake Resistivity
 MCST.DEGF                 65.0000:    Mud Cake Sample Temperature
 RMB .OHMM                  1.3760:    Mud Resistivity At Bht
 BHT .DEGF                219.0000:    Bottom Hole Temperature
 MRT .DEGF                219.0000:    Maximum Recorded Temperature
 LUN .                        8415:    Logging Unit Number
 LUL .                      CASPER:    Logging Unit Location
 ENGI.               T.CHRISTENSEN:    Engineer'S Name
 WITN.                STEVE HEFNER:    Witness' Name
 DGBY.                         R2V:    
 WSTA.                         LOC:    
#
~Other Information Block
<DescLogPlotStart>   NEURALOG PLOT DEFINITION
PLOTDEFVERSION: 3
LASFILE: C:\nds\projects\mf-nov-13\las\3723472C.las
DEPTHSCALE: 240.000000
RESOLUTION: 200
DEPTHLABELFREQ: 100.000000
HEAVYGRIDFREQ: 100.000000
MEDIUMGRIDFREQ: 50.000000
LIGHTGRIDFREQ: 10.000000
#
#   TRACK 1
#
STARTTRACK: 
 LEFTX: 0.500000 inch
 RIGHTX: 3.000000 inch
 SCALETYPE: Linear
 NUMCHARTDIVISIONS: 10
CURVE: DTCO  140.000000 40.000000  (0,0,255)      Solid             2     N    
CURVE: SPHI  0.300000   -0.100000  (0,131,131)    Dot               2     N    
ENDTRACK: 
#
#   TRACK 2
#
STARTTRACK: 
 LEFTX: 3.500000 inch
 RIGHTX: 6.000000 inch
 SCALETYPE: Linear
 NUMCHARTDIVISIONS: 10
CURVE: GR    0.000000   150.000000 (255,0,255)    Solid             2     Y    
BACKUP: 150.000000 300.000000 (255,0,255)    Solid             2    
CURVE: CALI  6.000000   16.000000  (255,0,0)      Dot               2     N    
ENDTRACK: 
#
#   TRACK 3
#
STARTTRACK: 
 LEFTX: 6.000000 inch
 RIGHTX: 11.000000 inch
 SCALETYPE: Log
 NUMCYCLES: 4
 STARTCYCLE: 2
CURVE: ILD   0.200000   2000.000000 (255,131,0)    Solid             2     N   
ENDTRACK: 
#
#   TRACK 4
#
STARTTRACK: 
 LEFTX: 11.000000 inch
 RIGHTX: 13.500000 inch
 SCALETYPE: Linear
 NUMCHARTDIVISIONS: 10
CURVE: SP    -80.000000 20.000000  (255,255,0)    Solid             2     N    
ENDTRACK: 
#
#   TRACK 5
#
STARTTRACK: 
 LEFTX: 13.500000 inch
 RIGHTX: 18.500000 inch
 SCALETYPE: Linear
 NUMCHARTDIVISIONS: 10
CURVE: PEF   0.000000   10.000000  (0,0,255)      Solid             2     N    
CURVE: RHOB  2.000000   3.000000   (0,131,131)    Dot               2     Y    
BACKUP: 1.000000   2.000000   (0,131,131)    Dot               2    
ENDTRACK: 
#
#   TRACK 6
#
STARTTRACK: 
 LEFTX: 18.500000 inch
 RIGHTX: 23.500000 inch
 SCALETYPE: Linear
 NUMCHARTDIVISIONS: 10
CURVE: DPHI  0.300000   -0.100000  (255,0,255)    Solid             2     N    
CURVE: NPHI  0.300000   -0.100000  (255,0,0)      Dot               2     Y    
BACKUP: 0.700000   0.300000   (255,0,0)      Dot               2    
ENDTRACK: 
<DescLogPlotEnd>
~A DEPTH     DTCO             SPHI             GR               CALI             ILD              SP               PEF              RHOB             DPHI             NPHI            
# ...
   13229.200 69.23476436      0.13112806       76.90923440      9.72144300       14.77645571      -10.45952830     2.60403520       2.53954288       0.06899195       0.11706570      
   13229.300 69.24234690      0.13121988       76.19047273      9.72130420       14.75465713      -10.48763324     2.60610700       2.53637983       0.07073642       0.11565931      
   13229.400 69.24891114      0.13130307       75.53961867      9.72116540       14.73289070      -10.51575944     2.60388600       2.53368630       0.07248089       0.11431879      
   13229.500 69.25667746      0.13139817       74.77597378      9.72102659       14.71115639      -10.54399374     2.60087563       2.53166127       0.07422535       0.11345468      
   13229.600 69.26645333      0.13152017       73.99880585      9.72088779       14.68945414      -10.57220266     2.59988649       2.52997046       0.07525151       0.11256140      
   13229.700 69.27965695      0.13162261       73.41040190      9.72074899       14.66778391      -10.60034899     2.59921109       2.52836890       0.07484909       0.11188359      
   13229.800 69.30242811      0.13179221       72.83408062      9.72061018       14.64614564      -10.62851002     2.59729859       2.52714302       0.07319029       0.11123812      
   13229.900 69.32632321      0.13197590       71.86833486      9.72047138       14.62453929      -10.65667105     2.59543525       2.52697665       0.07203140       0.11057251      
   13230.000 69.34919493      0.13214722       70.47185046      9.72033258       14.60296482      -10.68483208     2.59494985       2.52855963       0.07087251       0.11024415      
   13230.100 69.37294442      0.13232879       68.93802892      9.72019377       14.58142218      -10.71299311     2.59528118       2.53186349       0.06971362       0.11023606      
   13230.200 69.39598613      0.13250223       67.38750522      9.72005497       14.55991132      -10.74115414     2.59543263       2.53579989       0.06855473       0.11068396      
   13230.300 69.41955954      0.13268201       65.81294944      9.71991617       14.52770451      -10.76931517     2.59530870       2.53918261       0.06739584       0.11094547      
   13230.400 69.44276650      0.13285603       64.51718039      9.71977737       14.52770451      -10.79747620     2.59524840       2.54211137       0.06623695       0.11127551      
   13230.500 69.46619866      0.13303628       63.90249139      9.71963856       14.58615398      -10.82563723     2.59533295       2.54551805       0.06507806       0.11150612      
   13230.600 69.48951500      0.13320849       63.84441567      9.71949976       14.62525088      -10.85379826     2.59540246       2.54941447       0.06391917       0.11186721      
   13230.700 69.51286070      0.13339171       63.79765997      9.71936096       14.66445257      -10.88195929     2.59539792       2.55267197       0.06276028       0.11221568      
   13230.800 69.53627840      0.13356416       63.51063940      9.71922215       14.70375934      -10.91012032     2.59532774       2.55455466       0.06160139       0.11227364      
   13230.900 69.55961623      0.13374084       63.17779772      9.71908335       14.74317147      -10.93828135     2.59531076       2.55549090       0.06044250       0.11339465      
   13231.000 69.58295406      0.13391752       62.95864522      9.71894455       14.78268925      -10.96644238     2.59540302       2.55635776       0.05928361       0.11414199      
   13231.100 69.60629189      0.13409420       62.76956419      9.71880574       14.82231294      -10.99460340     2.59544558       2.55773236       0.05754527       0.11488934      
   13231.200 69.62962972      0.13433735       62.52236285      9.71866694       14.86204284      -11.02276443     2.59527627       2.55951903       0.05754527       0.11563668      
   13231.300 69.65296755      0.13437952       62.24856442      9.71852814       14.90187924      -11.05092546     2.59518644       2.56075289       0.05553320       0.11638402      
   13231.400 69.67630538      0.13444712       61.99901293      9.71838934       14.94182241      -11.07908649     2.59579546       2.56020167       0.05553320       0.11713136      
   13231.500 69.69964321      0.13451473       61.78458440      9.71825053       14.98187265      -11.10724752     2.59724013       2.55776002       0.05764588       0.11787870      
   13231.600 69.72298104      0.13458233       61.56993814      9.71811173       15.02203024      -11.13541774     2.59897142       2.55470242       0.05905433       0.11862604      
   13231.700 69.74631887      0.13464993       61.29557039      9.71797293       15.06229547      -11.16345957     2.60050032       2.55215299       0.06046278       0.11937338      
   13231.800 69.76965670      0.13471754       60.98738267      9.71783412       15.10266862      -11.19151242     2.60189593       2.54997190       0.06187123       0.12012072      
   13231.900 69.79299453      0.13478514       60.83472258      9.71769532       15.14315000      -11.21978707     2.60330901       2.54759553       0.06327968       0.12086807      
   13232.000 69.81633236      0.13485274       61.01047219      9.71755652       15.18373987      -11.24805162     2.60467207       2.54507037       0.06468813       0.12161541      
   13232.100 69.83967019      0.13492035       61.44801598      9.71741771       15.22443855      -11.27580799     2.60610303       2.54267311       0.06609658       0.12273642      
   13232.200 69.86947791      0.13498795       61.91889242      9.71727891       15.26524632      -11.30359467     2.60777090       2.54028548       0.06750503       0.12273642      
   13232.300 69.79618474      0.13505556       62.33910426      9.71714011       15.30616346      -11.33244555     2.60926590       2.53778860       0.06887915       0.12273317      
   13232.400 69.69477912      0.13514056       62.84896023      9.71700131       15.34719029      -11.36121820     2.61024635       2.53541343       0.07036507       0.12275927      
   13232.500 69.59337349      0.13442520       63.58952964      9.71686250       15.38832708      -11.38796837     2.61158370       2.53318416       0.07168734       0.12275463      
   13232.600 69.49196787      0.13346185       64.51405713      9.71672370       15.42957413      -11.41487697     2.61407692       2.53062643       0.07320464       0.12253602      
   13232.700 69.39056225      0.13249849       65.47400704      9.71658490       15.47093174      -11.44549294     2.61592578       2.52767677       0.07449772       0.12237111      
   13232.800 69.28915663      0.13153514       66.40994456      9.71644609       15.51240021      -11.47585597     2.61386466       2.52526087       0.07603609       0.12232029      
   13232.900 69.18775100      0.13057179       67.36433293      9.71630729       15.55397983      -11.49889938     2.60732078       2.52427834       0.07802431       0.12138853      
   13233.000 69.08634538      0.12960843       68.33574522      9.71616849       15.59567091      -11.52177076     2.59928595       2.52442707       0.07814840       0.12067388      
   13233.100 68.98493976      0.12864508       69.25958406      9.71602968       15.63747373      -11.56576725     2.59237845       2.52469667       0.07803052       0.12005814      
   13233.200 68.88353414      0.12751004       70.16469488      9.71589088       15.67938860      -11.64087914     2.58641115       2.52466596       0.07812871       0.11937411      
   13233.300 68.76506024      0.12729575       71.16958125      9.71575208       15.72141582      -11.73189893     2.58022376       2.52463257       0.07780542       0.11871103      
   13233.400 68.72816265      0.12703500       72.22024785      9.71561328       15.76355568      -11.81844883     2.57359565       2.52479032       0.07770130       0.11808516      
   13233.500 68.68379769      0.12677424       73.03132309      9.71547447       15.80580851      -11.89767912     2.56681825       2.52497164       0.07750246       0.11735885      
