~Version Information Block
 VERS.                2.00:     CWLS LOG ASCII STANDARD - VERSION 2.000000
 WRAP.                  NO:     One Line Per Depth Step
#
~Well Information Block
#MNEM.UNIT                     Data                         Information
#----------   ------------------------------------------   ----------------
 STRT.FT                                     8200.0000:     START DEPTH
 STOP.FT                                     9700.0000:     STOP DEPTH
 STEP.FT                                        0.1000:     STEP
 NULL.                                       -999.2500:     NULL VALUE
 COMP.                        PRESIDIO EXPLORATION INC:     COMPANY
 WELL.                                   HAY DAM 34-12:     WELL
 FLD .                                          HAYDAM:     FIELD
 LOC .                                   SEC12-23N-97W:     LOCATION
 CNTY.                                      SWEETWATER:     COUNTY
 STAT.                                         WYOMING:     STATE
 CTRY.                                             USA:     COUNTRY
 SRVC.                                    SCHLUMBERGER:     SERVICE COMPANY
 DATE.                                      26/07/1994:     DATE
 API .                                      4903723385:     API NUMBER
 UWI .                                         3723385:     UWI NUMBER
 TVD .                                              NO:     TVD flag
 WSTA.                                             LOC:     Well status
 USGS.                                            F041:     USGS Number
 LATI.DEG                                     41.97739:     LATITUDE
 LONG.DEG                                   -108.32133:     LONGITUDE
 UTM-N.                                        4650736:     Northing
 UTM-E.                                      721928.25:     Easting
 CORE.                                              -5:     Core/Log Offset
#
~Curve Information Block
#MNEM.UNIT       API CODE      Curve Description
#----------    -------------   -------------------
 DEPT.FT                   :   Depth in Feet
 ILD .OHMM     05 120 46 01:   Deep Induction Standard Processed Resistivity
 SP  .MV       01 010 01 01:   Spontaneous Potential
 RHOB.G/C3     42 350 01 01:   Bulk Density
 PEF .b/e                  :   Photo-Electric Factor
 GR  .GAPI     35 310 01 01:   Gamma Ray
 CALI.IN       70 280 01 01:   Caliper
 DPHI.V/V      45 890 01 01:   Density Porosity
 NPHI.V/V      42 890 03 01:   Neutron Porosity
 DTCO.US/F                 :   Delta-T Compressional
#
~Parameter Information Block
#MNEM.UNIT            Value               Description
#----------    --------------------    -------------------
 DATE.                  26-07-1994:    Date As Month-Day-Year
 RUN .                         ONE:    Run Number
 PDAT.                         UNK:    Permanent Datum
 EPD .FT                 6611.0000:    Elevation Of Perm. Datum
 LMF .                          KB:    Log Measured From
 FAPD.FT                   15.0000:    Feet Above Perm. Datum
 DMF .                          KB:    Drilling Measured From
 EKB .FT                 6627.0000:    Elevation Of Kelly Bushing
 EDF .FT                 6626.0000:    Elevation Of Derrick Floor
 EGL .FT                 6611.0000:    Elevation Of Ground Level
 TD  .FT                 9700.0000:    Total Depth
 DD  .FT                 9735.0000:    Depth Driller
 DL  .FT                 9729.0000:    Depth Logger
 BLI .FT                 9719.0000:    Bottom Log Interval
 TLI .FT                 1716.0000:    Top Log Interval
 CSIZ.IN                  9.625 IN:    Casing Size
 CBD1.                        1715:    Casing Bottom (Driller) 1
 CBL1.                        1716:    Casing Bottom (Logger) 1
 BS  .IN                   7.675IN:    Bit Size
 DFT .                    GEL-CHEM:    Drilling Fluid Type
 DFV .S                    45.0000:    Drilling Fluid Viscosity
 DFD .LB/G                 10.1000:    Drilling Fluid Density
 DFL .ML                    8.0000:    Drilling Fluid Loss
 DFPH.                     10.0000:    Drilling Fluid Ph
 MSS .                     MUDTANK:    Mud Sample Source
 RMS .OHMM                  1.4400:    Resistivity Of Mud Sample
 MST .DEGF                 85.0000:    Mud Sample Temperature
 RMF .OHMM                  1.1700:    Mud Filtrate Resistivity
 MFST.DEGF                 80.0000:    Mud Filtrate Sample Temperature
 RMC .OHMM                  1.3300:    Mud Cake Resistivity
 MCST.DEGF                 80.0000:    Mud Cake Sample Temperature
 RMB .OHMM                  0.7480:    Mud Resistivity At Bht
 BHT .DEGF                170.0000:    Bottom Hole Temperature
 MRT .DEGF                170.0000:    Maximum Recorded Temperature
 LUN .                        8415:    Logging Unit Number
 LUL .                      CASPER:    Logging Unit Location
 ENGI.                 CHRISTENSEN:    Engineer'S Name
 WITN.                       LYNON:    Witness' Name
 DGBY.                         R2V:    
 WSTA.                         LOC:    
#
~Other Information Block
<DescLogPlotStart>   NEURALOG PLOT DEFINITION
PLOTDEFVERSION: 3
LASFILE: C:\nds\projects\mf-nov-13\las\3723385A.las
DEPTHSCALE: 240.000000
RESOLUTION: 200
DEPTHLABELFREQ: 100.000000
HEAVYGRIDFREQ: 100.000000
MEDIUMGRIDFREQ: 50.000000
LIGHTGRIDFREQ: 10.000000
#
#   TRACK 1
#
STARTTRACK: 
 LEFTX: 0.500000 inch
 RIGHTX: 3.000000 inch
 SCALETYPE: Log
 NUMCYCLES: 4
 STARTCYCLE: 2
CURVE: ILD   0.200000   2000.000000 (0,0,255)      Solid             2     N   
ENDTRACK: 
#
#   TRACK 2
#
STARTTRACK: 
 LEFTX: 3.500000 inch
 RIGHTX: 6.000000 inch
 SCALETYPE: Linear
 NUMCHARTDIVISIONS: 10
CURVE: SP    -80.000000 20.000000  (0,131,131)    Solid             2     Y    
BACKUP: 20.000000  120.000000 (0,131,131)    Solid             2    
BACKUP: -180.000000 -80.000000 (0,131,131)    Solid             2    
ENDTRACK: 
#
#   TRACK 3
#
STARTTRACK: 
 LEFTX: 6.000000 inch
 RIGHTX: 11.000000 inch
 SCALETYPE: Linear
 NUMCHARTDIVISIONS: 10
CURVE: RHOB  2.000000   3.000000   (255,0,255)    Solid             2     Y    
BACKUP: 1.000000   2.000000   (255,0,255)    Solid             2    
CURVE: PEF   0.000000   10.000000  (255,0,0)      Dot               2     N    
ENDTRACK: 
#
#   TRACK 4
#
STARTTRACK: 
 LEFTX: 11.000000 inch
 RIGHTX: 13.500000 inch
 SCALETYPE: Linear
 NUMCHARTDIVISIONS: 10
CURVE: GR    0.000000   150.000000 (255,131,0)    Solid             2     Y    
BACKUP: 150.000000 300.000000 (255,131,0)    Solid             2    
CURVE: CALI  6.000000   16.000000  (255,255,0)    Dot               2     Y    
BACKUP: 16.000000  26.000000  (255,255,0)    Dot               2    
ENDTRACK: 
#
#   TRACK 5
#
STARTTRACK: 
 LEFTX: 13.500000 inch
 RIGHTX: 18.500000 inch
 SCALETYPE: Linear
 NUMCHARTDIVISIONS: 10
CURVE: DPHI  0.300000   -0.100000  (0,0,255)      Solid             2     N    
CURVE: NPHI  0.300000   -0.100000  (0,131,131)    Dot               2     Y    
BACKUP: 0.700000   0.300000   (0,131,131)    Dot               2    
ENDTRACK: 
#
#   TRACK 6
#
STARTTRACK: 
 LEFTX: 13.500000 inch
 RIGHTX: 18.500000 inch
 SCALETYPE: Linear
 NUMCHARTDIVISIONS: 10
CURVE: DTCO  240.000000 40.000000  (255,0,255)    Solid             2     N    
ENDTRACK: 
<DescLogPlotEnd>
~A DEPTH     ILD              SP               RHOB             PEF              GR               CALI             DPHI             NPHI             DTCO            
# ...
    8895.800 23.77389153      -22.18689900     2.61466667       2.90060040       110.65498652     8.95400601       0.01983887       0.13698691       -999.25000000   
    8895.900 23.76029141      -22.17497388     2.61428363       2.89694942       110.15778054     8.95300215       0.02029567       0.13659181       -999.25000000   
    8896.000 23.74670159      -22.16265014     2.61392317       2.89339715       109.75039769     8.95199270       0.02107150       0.13619671       -999.25000000   
    8896.100 23.73311780      -22.15084528     2.61305159       2.89049234       109.34635964     8.95099401       0.02184733       0.13580161       -999.25000000   
    8896.200 23.71954035      -22.13960444     2.61158340       2.88744613       108.89655798     8.94999632       0.02262316       0.13540651       -999.25000000   
    8896.300 23.70598799      -22.12657857     2.60984473       2.88429516       108.44934679     8.94899020       0.02339899       0.13501141       -999.25000000   
    8896.400 23.69239534      -22.10934140     2.60807307       2.88123570       108.02630817     8.94798671       0.02417482       0.13461631       -999.25000000   
    8896.500 23.67889101      -22.08814579     2.60625654       2.87780347       107.59865657     8.94699205       0.02495065       0.13423968       -999.25000000   
    8896.600 23.66529978      -22.06496872     2.60451507       2.87442558       107.15947778     8.94599054       0.02572649       0.13499161       -999.25000000   
    8896.700 23.65176583      -22.04160896     2.60325765       2.87311886       106.72612016     8.94497704       0.02650232       0.13570997       -999.25000000   
    8896.800 23.63832832      -22.01950241     2.60269667       2.87497336       106.29587624     8.94397775       0.02708963       0.13642833       -999.25000000   
    8896.900 23.62458972      -21.99838168     2.60251781       2.87842929       105.85809080     8.94299733       0.02775932       0.13714669       -999.25000000   
    8897.000 23.61138632      -21.97526225     2.60230983       2.88147922       105.42330915     8.94198600       0.02829809       0.13786506       -999.25000000   
    8897.100 23.59759464      -21.94994551     2.60201488       2.88408928       104.99960172     8.94094156       0.02883686       0.13858342       -999.25000000   
    8897.200 23.58416030      -21.93122460     2.60173268       2.88701973       104.56486165     8.94001201       0.02914723       0.13930178       -999.25000000   
    8897.300 23.57105054      -21.93035333     2.60145068       2.88995572       104.11113165     8.93938294       0.02923343       0.14002014       -999.25000000   
    8897.400 23.55650105      -21.94739353     2.60120319       2.89252132       103.70990472     8.93906112       0.02931964       0.14072624       -999.25000000   
    8897.500 23.54408131      -21.97098839     2.60116581       2.89553137       103.47752429     8.93887137       0.02940584       0.14147773       -999.25000000   
    8897.600 23.52941772      -21.99221687     2.60139177       2.89922332       103.44494514     8.93866587       0.02950655       0.14229020       -999.25000000   
    8897.700 23.51348730      -22.01162016     2.60171804       2.90155321       103.49382609     8.93843588       0.02918787       0.14260451       -999.25000000   
    8897.800 23.51910725      -22.03232241     2.60201488       2.90031885       103.48054287     8.93822061       0.02880474       0.14292828       -999.25000000   
    8897.900 23.52963042      -22.05385111     2.60227798       2.89611287       103.42616143     8.93801647       0.02842162       0.14329320       -999.25000000   
    8898.000 23.53801872      -22.07462068     2.60249489       2.89138101       103.51832212     8.93780323       0.02803849       0.14362545       -999.25000000   
    8898.100 23.54825951      -22.09499869     2.60271403       2.88732547       103.89533709     8.93758453       0.02765537       0.14392687       -999.25000000   
    8898.200 23.55699970      -22.11581013     2.60319458       2.88338220       104.49069404     8.93737097       0.02727224       0.14391945       -999.25000000   
    8898.300 23.56688622      -22.13680214     2.60418789       2.87908797       105.13502880     8.93716002       0.02688911       0.14392482       -999.25000000   
    8898.400 23.57597789      -22.15757091     2.60559717       2.87477779       105.74081792     8.93694649       0.02650599       0.14351705       -999.25000000   
    8898.500 23.58556632      -22.17826501     2.60709227       2.87065577       106.32834849     8.93673181       0.02628399       0.14274163       -999.25000000   
    8898.600 23.59494924      -22.19906266     2.60850151       2.86649264       106.93511848     8.93651830       0.02499819       0.14216043       -999.25000000   
    8898.700 23.60439874      -22.21988507     2.60988700       2.86223859       107.56277086     8.93630520       0.02409305       0.14159192       -999.25000000   
    8898.800 23.61389502      -22.24065239     2.61131835       2.85807915       108.17940122     8.93609142       0.02318792       0.14100793       -999.25000000   
    8898.900 23.62331108      -22.26139178     2.61276530       2.85393316       108.76123654     8.93587714       0.02228278       0.14044170       -999.25000000   
    8899.000 23.63269857      -22.28213116     2.61418283       2.84960173       109.35307998     8.93566275       0.02137764       0.13985230       -999.25000000   
    8899.100 23.64201930      -22.30287055     2.61558103       2.84542865       110.01074147     8.93544836       0.02047251       0.13927761       -999.25000000   
    8899.200 23.65166638      -22.32360993     2.61700376       2.84220852       110.63374888     8.93523397       0.01956737       0.13867069       -999.25000000   
    8899.300 23.66079554      -22.34434932     2.61846053       2.84025035       111.00644771     8.93501958       0.01866224       0.13790395       -999.25000000   
    8899.400 23.67043836      -22.36508870     2.61988535       2.83897762       111.09369467     8.93480519       0.01782477       0.13709166       -999.25000000   
    8899.500 23.67993096      -22.38582809     2.62119001       2.83767575       111.09729225     8.93459081       0.01713265       0.13627937       -999.25000000   
    8899.600 23.68883810      -22.40656747     2.62235854       2.83622055       111.11119078     8.93437642       0.01648868       0.13546708       -999.25000000   
    8899.700 23.69938514      -22.42730686     2.62343916       2.83481915       110.95861427     8.93416203       0.01584470       0.13465479       -999.25000000   
    8899.800 23.70717178      -22.44804624     2.62446230       2.83346482       110.50939073     8.93394764       0.01520072       0.13384250       -999.25000000   
    8899.900 23.71863829      -22.46878563     2.62543061       2.83204972       109.91865911     8.93373325       0.01455675       0.13303021       -999.25000000   
    8900.000 23.73059294      -22.48952501     2.62636459       2.83065457       109.39847913     8.93351886       0.01391277       0.13221792       -999.25000000   
    8900.100 23.71725441      -22.51026440     2.62730275       2.82932571       108.95621375     8.93330447       0.01326880       0.13140563       -999.25000000   
    8900.200 23.68648614      -22.53100378     2.62826456       2.82788029       108.48855049     8.93309008       0.01262482       0.13059334       -999.25000000   
    8900.300 23.65779044      -22.55174317     2.62923128       2.82634032       107.97409561     8.93287570       0.01198085       0.12978105       -999.25000000   
    8900.400 23.62825211      -22.57248255     2.63017558       2.82507071       107.46957210     8.93266131       0.01133687       0.12896876       -999.25000000   
    8900.500 23.59939961      -22.59322194     2.63113633       2.82390050       107.00576715     8.93244692       0.01069290       0.12779456       -999.25000000   
    8900.600 23.56979628      -22.61396132     2.63220288       2.82159004       106.54396189     8.93223253       0.00976838       0.12805995       -999.25000000   
