~Version ---------------------------------------------------
VERS. 2.0 : CWLS log ASCII Standard -VERSION 2.0
WRAP.  NO : One Line Per Depth Step
~Well ------------------------------------------------------
STRT .FT              12000.0 : START DEPTH
STOP .FT              13400.0 : STOP DEPTH
STEP .FT   0.1000000000003638 : STEP
NULL .                -999.25 : NULL VALUE
COMP . ENRON OIL &GAS COMPANY : COMPANY
WELL .       CEPO-LEWIS 21-38 : WELL
FLD  .             CEPO-LEWIS : FIELD
LOC  .   1205' FWL &1300' FSL : LOCATION
CNTY .             SWEETWATER : COUNTY
STAT .                WYOMING : STATE
CTRY .                    USA : COUNTRY
SRVC .                        : SERVICE COMPANY
DATE .             25/05/1998 : DATE
API  .             4903724185 : API NUMBER
UWI  .                3724185 : UWI NUMBER
TVD  .                     NO : TVD flag
WSTA .                    LOC : Well status
USGS .                   CEPO : USGS Number
LATI .DEG            41.18194 : LATITUDE
LONG .DEG          -108.14139 : LONGITUDE
UTM-N.             4562894.53 : Northing
UTM-E.              739764.57 : Easting
CORE .FT                 -3.9 : Core/Log Offset
~Curve Information -----------------------------------------
DEPT .FT                : Depth in Feet
GR   .GAPI 35 310 01 01 : Gamma Ray
SP   .MV   01 010 01 01 : Spontaneous Potential
CALI .IN   70 280 01 01 : Caliper
AHT90.OHMM              : 
ILD  .OHMM 05 120 46 01 : Deep Induction Standard Processed Resistivity
HCAL .IN                : 
DPHI .V/V  45 890 01 01 : Density Porosity
NPOR .V/V               : Neutron Porosity Output From An Application Program
RHOB .G/C3 42 350 01 01 : Bulk Density
PEF  .b/e               : Photo-Electric Factor
DT   .US/F 60 520 08 01 : Delta-T
SPHI .V/V  61 890 01 01 : Sonic Porosity
RESD .OHMM              : Deep Resistivity - Merged AHT90 & ILD
~Params ----------------------------------------------------
DATE.  25-05-1998 : Date As Month-Day-Year
RUN .         ONE : Run Number
PDAT.         UNK : Permanent Datum
EPD .FT    6416.0 : Elevation Of Perm. Datum
LMF .          KB : Log Measured From
FAPD.FT      21.0 : Feet Above Perm. Datum
DMF .          KB : Drilling Measured From
EKB .FT    6437.0 : Elevation Of Kelly Bushing
EDF .FT    6436.0 : Elevation Of Derrick Floor
EGL .FT    6416.0 : Elevation Of Ground Level
TD  .FT   13400.0 : Total Depth
DD  .FT   12587.0 : Depth Driller
DL  .FT   12616.0 : Depth Logger
BLI .FT   12602.0 : Bottom Log Interval
TLI .FT    2346.0 : Top Log Interval
DFT .    GEL-CHEM : Drilling Fluid Type
LUN .        8269 : Logging Unit Number
LUL . ROCK SPRING : Logging Unit Location
DGBY.         R2V : 
WSTA.         LOC : 
~Other -----------------------------------------------------
<DescLogPlotStart>   NEURALOG PLOT DEFINITION
PLOTDEFVERSION: 3
LASFILE: C:\nds\projects\mf-nov-13\las\3724185G.las
DEPTHSCALE: 240.000000
RESOLUTION: 200
DEPTHLABELFREQ: 100.000000
HEAVYGRIDFREQ: 100.000000
MEDIUMGRIDFREQ: 50.000000
LIGHTGRIDFREQ: 10.000000
#
#   TRACK 1
#
STARTTRACK:
LEFTX: 0.500000 inch
RIGHTX: 3.000000 inch
SCALETYPE: Linear
NUMCHARTDIVISIONS: 10
CURVE: GR    0.000000   150.000000 (0,0,255)      Solid             2     N
CURVE: SP    -100.000000 0.000000   (0,131,131)    Dot               2     Y
BACKUP: 0.000000   100.000000 (0,131,131)    Dot               2
BACKUP: 100.000000 200.000000 (0,131,131)    Dot               2
BACKUP: 200.000000 300.000000 (0,131,131)    Dot               2
BACKUP: 300.000000 400.000000 (0,131,131)    Dot               2
CURVE: CALI  4.000000   14.000000  (255,0,255)    Short_Dash        2     N
CURVE: HCAL  4.000000   14.000000  (255,0,0)      Medium_Dash       2     Y
BACKUP: -6.000000  4.000000   (255,0,0)      Medium_Dash       2
ENDTRACK:
#
#   TRACK 2
#
STARTTRACK:
LEFTX: 3.500000 inch
RIGHTX: 8.500000 inch
SCALETYPE: Log
NUMCYCLES: 4
STARTCYCLE: 2
CURVE: AHT90 0.200000   2000.000000 (255,131,0)    Solid             2     N
CURVE: ILD   0.200000   2000.000000 (255,255,0)    Dot               2     N
ENDTRACK:
#
#   TRACK 3
#
STARTTRACK:
LEFTX: 3.500000 inch
RIGHTX: 8.500000 inch
SCALETYPE: Linear
NUMCHARTDIVISIONS: 10
CURVE: DPHI  0.300000   -0.100000  (0,0,255)      Solid             2     Y
BACKUP: 0.700000   0.300000   (0,0,255)      Solid             2
CURVE: NPOR  0.300000   -0.100000  (0,131,131)    Dot               2     Y
BACKUP: 0.700000   0.300000   (0,131,131)    Dot               2
ENDTRACK:
#
#   TRACK 4
#
STARTTRACK:
LEFTX: 3.500000 inch
RIGHTX: 8.500000 inch
SCALETYPE: Linear
NUMCHARTDIVISIONS: 10
CURVE: RHOB  2.000000   3.000000   (255,0,255)    Solid             2     Y
BACKUP: 1.000000   2.000000   (255,0,255)    Solid             2
BACKUP: 3.000000   4.000000   (255,0,255)    Solid             2
CURVE: PEF   0.000000   20.000000  (255,0,0)      Dot               2     N
ENDTRACK:
#
#   TRACK 5
#
STARTTRACK:
LEFTX: 3.500000 inch
RIGHTX: 8.500000 inch
SCALETYPE: Linear
NUMCHARTDIVISIONS: 10
CURVE: DT    140.000000 40.000000  (255,131,0)    Solid             2     Y
BACKUP: 240.000000 140.000000 (255,131,0)    Solid             2
ENDTRACK:
<DescLogPlotEnd>
~ASCII -----------------------------------------------------
# ...
 13014.00000   15.98403   -0.41927    -999.25    -999.25    4.08387    7.63432    0.05056    0.21348    2.59536    2.78261    -999.25    -999.25    4.08387
 13014.10000   17.12384   -0.43709    -999.25    -999.25    4.07961    7.63499    0.05295    0.21594    2.59111    2.76522    -999.25    -999.25    4.07961
 13014.20000   18.29074   -0.45572    -999.25    -999.25    4.07549    7.63565    0.05534    0.21839    2.58670    2.74739    -999.25    -999.25    4.07549
 13014.30000   19.43309   -0.47313    -999.25    -999.25    4.07124    7.63632    0.05772    0.22085    2.58247    2.72840    -999.25    -999.25    4.07124
 13014.40000   20.55217   -0.48911    -999.25    -999.25    4.06712    7.63698    0.06052    0.22330    2.57919    2.70967    -999.25    -999.25    4.06712
 13014.50000   21.70050   -0.50758    -999.25    -999.25    4.06289    7.63765    0.06148    0.22576    2.57724    2.69122    -999.25    -999.25    4.06289
 13014.60000   22.87812   -0.52875    -999.25    -999.25    4.05876    7.63831    0.06264    0.22850    2.57619    2.67260    -999.25    -999.25    4.05876
 13014.70000   23.97857   -0.54163    -999.25    -999.25    4.05509    7.63898    0.06381    0.22960    2.57532    2.65450    -999.25    -999.25    4.05509
 13014.80000   24.88322   -0.53255    -999.25    -999.25    4.05199    7.63964    0.06497    0.23084    2.57420    2.63647    -999.25    -999.25    4.05199
 13014.90000   25.59650   -0.50152    -999.25    -999.25    4.04887    7.64031    0.06616    0.23209    2.57270    2.61681    -999.25    -999.25    4.04887
 13015.00000   26.23684   -0.46215    -999.25    -999.25    4.04575    7.64097    0.06616    0.23333    2.57136    2.59717    -999.25    -999.25    4.04575
 13015.10000   26.89908   -0.42547    -999.25    -999.25    4.04265    7.64164    0.06536    0.23458    2.57134    2.58324    -999.25    -999.25    4.04265
 13015.20000   27.58422   -0.39130    -999.25    -999.25    4.03953    7.64230    0.06368    0.23582    2.57330    2.57800    -999.25    -999.25    4.03953
 13015.30000   28.25992   -0.35578    -999.25    -999.25    4.03643    7.64297    0.06203    0.23696    2.57654    2.57747    -999.25    -999.25    4.03643
 13015.40000   28.92170   -0.31893    -999.25    -999.25    4.03331    7.64363    0.06055    0.23760    2.57980    2.57594    -999.25    -999.25    4.03331
 13015.50000   29.58518   -0.28274    -999.25    -999.25    4.03020    7.64430    0.05829    0.23820    2.58268    2.57256    -999.25    -999.25    4.03020
 13015.60000   30.26121   -0.24742    -999.25    -999.25    4.02708    7.64496    0.05625    0.23879    2.58565    2.56974    -999.25    -999.25    4.02708
 13015.70000   30.94379   -0.21196    -999.25    -999.25    4.02397    7.64563    0.05422    0.23938    2.58901    2.56793    -999.25    -999.25    4.02397
 13015.80000   31.61103   -0.17565    -999.25    -999.25    4.02086    7.64629    0.05220    0.23997    2.59250    2.56542    -999.25    -999.25    4.02086
 13015.90000   32.26152   -0.13891    -999.25    -999.25    4.01776    7.64696    0.05014    0.24057    2.59584    2.56220    -999.25    -999.25    4.01776
 13016.00000   32.93906   -0.10326    -999.25    -999.25    4.01466    7.64762    0.04816    0.24099    2.59913    2.56030    -999.25    -999.25    4.01466
 13016.10000   33.65138   -0.06866    -999.25    -999.25    4.01155    7.64829    0.04606    0.24099    2.60266    2.56019    -999.25    -999.25    4.01155
 13016.20000   34.26887   -0.03204    -999.25    -999.25    4.00845    7.64895    0.04411    0.24099    2.60632    2.55993    -999.25    -999.25    4.00845
 13016.30000   34.60909    0.00676    -999.25    -999.25    4.00536    7.64962    0.04277    0.24099    2.60956    2.55914    -999.25    -999.25    4.00536
 13016.40000   34.65022    0.03932    -999.25    -999.25    4.00226    7.65028    0.04100    0.24099    2.61199    2.56123    -999.25    -999.25    4.00226
 13016.50000   34.56282    0.05635    -999.25    -999.25    3.99917    7.65095    0.03959    0.24099    2.61391    2.56923    -999.25    -999.25    3.99917
 13016.60000   34.48567    0.05989    -999.25    -999.25    3.99608    7.65162    0.03831    0.24039    2.61596    2.58114    -999.25    -999.25    3.99608
 13016.70000   34.34846    0.05939    -999.25    -999.25    3.99299    7.65229    0.03695    0.23998    2.61823    2.59271    -999.25    -999.25    3.99299
 13016.80000   33.95761    0.05841    -999.25    -999.25    3.98991    7.65295    0.03561    0.23938    2.62034    2.60345    -999.25    -999.25    3.98991
 13016.90000   33.19307    0.05638    -999.25    -999.25    3.98683    7.65361    0.03427    0.23903    2.62237    2.61559    -999.25    -999.25    3.98683
 13017.00000   32.09093    0.05796    -999.25    -999.25    3.98374    7.65428    0.03293    0.23841    2.62500    2.62810    -999.25    -999.25    3.98374
 13017.10000   30.78866    0.06372    -999.25    -999.25    3.98067    7.65496    0.03112    0.23779    2.62860    2.63719    -999.25    -999.25    3.98067
 13017.20000   29.42393    0.05445    -999.25    -999.25    3.97759    7.65562    0.02936    0.23716    2.63271    2.64302    -999.25    -999.25    3.97759
 13017.30000   28.06426    0.00424    -999.25    -999.25    3.97452    7.65627    0.02661    0.23654    2.63691    2.65063    -999.25    -999.25    3.97452
 13017.40000   26.71361   -0.08840    -999.25    -999.25    3.97145    7.65694    0.02386    0.23592    2.64142    2.66296    -999.25    -999.25    3.97145
 13017.50000   25.36762   -0.19767    -999.25    -999.25    3.96838    7.65765    0.02111    0.23530    2.64623    2.67752    -999.25    -999.25    3.96838
 13017.60000   24.02489   -0.30064    -999.25    -999.25    3.96531    7.65830    0.01836    0.23467    2.65055    2.69109    -999.25    -999.25    3.96531
 13017.70000   22.66659   -0.39762    -999.25    -999.25    3.96225    7.65890    0.01561    0.23405    2.65406    2.70376    -999.25    -999.25    3.96225
 13017.80000   21.29463   -0.49941    -999.25    -999.25    3.95919    7.65960    0.01286    0.23343    2.65772    2.71690    -999.25    -999.25    3.95919
 13017.90000   19.95587   -0.60580    -999.25    -999.25    3.95613    7.66041    0.00977    0.23281    2.66194    2.73045    -999.25    -999.25    3.95613
 13018.00000   18.64506   -0.70677    -999.25    -999.25    3.95307    7.66088    0.00886    0.23219    2.66523    2.74386    -999.25    -999.25    3.95307
 13018.10000   17.26502   -0.80260    -999.25    -999.25    3.95002    7.66049    0.00775    0.23156    2.66592    2.75717    -999.25    -999.25    3.95002
 13018.20000   15.82965   -0.90715    -999.25    -999.25    3.94697    7.65924    0.00866    0.23092    2.66443    2.77029    -999.25    -999.25    3.94697
 13018.30000   14.61818   -1.01966    -999.25    -999.25    3.94087    7.65764    0.00962    0.23092    2.66263    2.78325    -999.25    -999.25    3.94087
 13018.40000   13.93549   -1.10599    -999.25    -999.25    3.93174    7.65617    0.01059    0.23092    2.66146    2.79679    -999.25    -999.25    3.93174
 13018.50000   13.77894   -1.12817    -999.25    -999.25    3.92263    7.65479    0.01156    0.23121    2.66035    2.81077    -999.25    -999.25    3.92263
 13018.60000   13.90461   -1.08654    -999.25    -999.25    3.91355    7.65335    0.01253    0.23150    2.65826    2.82355    -999.25    -999.25    3.91355
 13018.70000   14.13343   -1.01713    -999.25    -999.25    3.90448    7.65185    0.01339    0.23179    2.65460    2.83549    -999.25    -999.25    3.90448
 13018.80000   14.42929   -0.95311    -999.25    -999.25    3.89544    7.65040    0.01690    0.23208    2.64960    2.84987    -999.25    -999.25    3.89544
 13018.90000   14.78995   -0.90280    -999.25    -999.25    3.88642    7.64900    0.02007    0.23237    2.64413    2.86654    -999.25    -999.25    3.88642
 13019.00000   15.25394   -0.85298    -999.25    -999.25    3.87742    7.64754    0.02324    0.23266    2.63881    2.87776    -999.25    -999.25    3.87742
 13019.10000   15.91954   -0.77886    -999.25    -999.25    3.86844    7.64603    0.02641    0.23296    2.63348    2.87597    -999.25    -999.25    3.86844
