~Version Information Block
 VERS.                2.00:     CWLS LOG ASCII STANDARD - VERSION 2.000000
 WRAP.                  NO:     One Line Per Depth Step
#
~Well Information Block
#MNEM.UNIT                     Data                         Information
#----------   ------------------------------------------   ----------------
 STRT.FT                                    12600.0000:     START DEPTH
 STOP.FT                                    13950.0000:     STOP DEPTH
 STEP.FT                                        0.1000:     STEP
 NULL.                                       -999.2500:     NULL VALUE
 COMP.                        PRESIDIO EXPLORATION INC:     COMPANY
 WELL.                          PICKETLAKE UNIT #40-13:     WELL
 FLD .                                         WILDCAT:     FIELD
 LOC .                           1320' FSL & 1320' FEL:     LOCATION
 CNTY.                                      SWEETWATER:     COUNTY
 STAT.                                         WYOMING:     STATE
 CTRY.                                             USA:     COUNTRY
 SRVC.                                                :     SERVICE COMPANY
 DATE.                                      15/05/1995:     DATE
 API .                                      4903723472:     API NUMBER
 UWI .                                         3723472:     UWI NUMBER
 TVD .                                              NO:     TVD flag
 WSTA.                                             LOC:     Well status
 USGS.                                            F042:     USGS Number
 LATI.DEG                                     42.22387:     LATITUDE
 LONG.DEG                                   -108.34765:     LONGITUDE
 UTM-N.                                     4678038.95:     Northing
 UTM-E.                                       718897.4:     Easting
 CORE.                                              +5:     Core/Log Offset
#
~Curve Information Block
#MNEM.UNIT       API CODE      Curve Description
#----------    -------------   -------------------
 DEPT.FT                   :   Depth in Feet
 DTCO.US/F     60 520 08 01:   DTCO
 SPHI.V/V      61 890 01 01:   Sonic Porosity
 GR  .GAPI     35 310 01 01:   Gamma Ray
 CALI.IN       70 280 01 01:   Caliper
 ILD .OHMM     05 120 46 01:   Deep Induction Standard Processed Resistivity
 SP  .MV       01 010 01 01:   Spontaneous Potential
 PEF .b/e                  :   Photo-Electric Factor
 RHOB.G/C3     42 350 01 01:   Bulk Density
 DPHI.V/V      45 890 01 01:   Density Porosity
 NPHI.V/V      42 890 03 01:   Neutron Porosity
#
~Parameter Information Block
#MNEM.UNIT            Value               Description
#----------    --------------------    -------------------
 DATE.                  15-05-1995:    Date As Month-Day-Year
 RUN .                         ONE:    Run Number
 PDAT.                         UNK:    Permanent Datum
 EPD .FT                 7224.0000:    Elevation Of Perm. Datum
 LMF .                          KB:    Log Measured From
 FAPD.FT                   15.0000:    Feet Above Perm. Datum
 DMF .                          KB:    Drilling Measured From
 EKB .FT                 7240.0000:    Elevation Of Kelly Bushing
 EDF .FT                 7239.0000:    Elevation Of Derrick Floor
 EGL .FT                 7224.0000:    Elevation Of Ground Level
 TD  .FT                13950.0000:    Total Depth
 DD  .FT                13957.0000:    Depth Driller
 DL  .FT                13952.0000:    Depth Logger
 BLI .FT                13925.0000:    Bottom Log Interval
 TLI .FT                10000.0000:    Top Log Interval
 CSIZ.IN                   9.625IN:    Casing Size
 CBD1.                        2520:    Casing Bottom (Driller) 1
 CBL1.                        2518:    Casing Bottom (Logger) 1
 BS  .IN                   7.875IN:    Bit Size
 DFT .                         WTD:    Drilling Fluid Type
 DFV .S                    74.0000:    Drilling Fluid Viscosity
 DFD .LB/G                 10.8000:    Drilling Fluid Density
 DFL .ML                    7.2000:    Drilling Fluid Loss
 DFPH.                      9.5000:    Drilling Fluid Ph
 MSS .                     MUDTANK:    Mud Sample Source
 RMS .OHMM                  4.3300:    Resistivity Of Mud Sample
 MST .DEGF                 65.0000:    Mud Sample Temperature
 RMF .OHMM                  3.3800:    Mud Filtrate Resistivity
 MFST.DEGF                 65.0000:    Mud Filtrate Sample Temperature
 RMC .OHMM                  4.5000:    Mud Cake Resistivity
 MCST.DEGF                 65.0000:    Mud Cake Sample Temperature
 RMB .OHMM                  1.3760:    Mud Resistivity At Bht
 BHT .DEGF                219.0000:    Bottom Hole Temperature
 MRT .DEGF                219.0000:    Maximum Recorded Temperature
 LUN .                        8415:    Logging Unit Number
 LUL .                      CASPER:    Logging Unit Location
 ENGI.               T.CHRISTENSEN:    Engineer'S Name
 WITN.                STEVE HEFNER:    Witness' Name
 DGBY.                         R2V:    
 WSTA.                         LOC:    
#
~Other Information Block
<DescLogPlotStart>   NEURALOG PLOT DEFINITION
PLOTDEFVERSION: 3
LASFILE: C:\nds\projects\mf-nov-13\las\3723472C.las
DEPTHSCALE: 240.000000
RESOLUTION: 200
DEPTHLABELFREQ: 100.000000
HEAVYGRIDFREQ: 100.000000
MEDIUMGRIDFREQ: 50.000000
LIGHTGRIDFREQ: 10.000000
#
#   TRACK 1
#
STARTTRACK: 
 LEFTX: 0.500000 inch
 RIGHTX: 3.000000 inch
 SCALETYPE: Linear
 NUMCHARTDIVISIONS: 10
CURVE: DTCO  140.000000 40.000000  (0,0,255)      Solid             2     N    
CURVE: SPHI  0.300000   -0.100000  (0,131,131)    Dot               2     N    
ENDTRACK: 
#
#   TRACK 2
#
STARTTRACK: 
 LEFTX: 3.500000 inch
 RIGHTX: 6.000000 inch
 SCALETYPE: Linear
 NUMCHARTDIVISIONS: 10
CURVE: GR    0.000000   150.000000 (255,0,255)    Solid             2     Y    
BACKUP: 150.000000 300.000000 (255,0,255)    Solid             2    
CURVE: CALI  6.000000   16.000000  (255,0,0)      Dot               2     N    
ENDTRACK: 
#
#   TRACK 3
#
STARTTRACK: 
 LEFTX: 6.000000 inch
 RIGHTX: 11.000000 inch
 SCALETYPE: Log
 NUMCYCLES: 4
 STARTCYCLE: 2
CURVE: ILD   0.200000   2000.000000 (255,131,0)    Solid             2     N   
ENDTRACK: 
#
#   TRACK 4
#
STARTTRACK: 
 LEFTX: 11.000000 inch
 RIGHTX: 13.500000 inch
 SCALETYPE: Linear
 NUMCHARTDIVISIONS: 10
CURVE: SP    -80.000000 20.000000  (255,255,0)    Solid             2     N    
ENDTRACK: 
#
#   TRACK 5
#
STARTTRACK: 
 LEFTX: 13.500000 inch
 RIGHTX: 18.500000 inch
 SCALETYPE: Linear
 NUMCHARTDIVISIONS: 10
CURVE: PEF   0.000000   10.000000  (0,0,255)      Solid             2     N    
CURVE: RHOB  2.000000   3.000000   (0,131,131)    Dot               2     Y    
BACKUP: 1.000000   2.000000   (0,131,131)    Dot               2    
ENDTRACK: 
#
#   TRACK 6
#
STARTTRACK: 
 LEFTX: 18.500000 inch
 RIGHTX: 23.500000 inch
 SCALETYPE: Linear
 NUMCHARTDIVISIONS: 10
CURVE: DPHI  0.300000   -0.100000  (255,0,255)    Solid             2     N    
CURVE: NPHI  0.300000   -0.100000  (255,0,0)      Dot               2     Y    
BACKUP: 0.700000   0.300000   (255,0,0)      Dot               2    
ENDTRACK: 
<DescLogPlotEnd>
~A DEPTH     DTCO             SPHI             GR               CALI             ILD              SP               PEF              RHOB             DPHI             NPHI            
# ...
   13136.800 70.07028112      0.13719640       120.54647938     9.51052683       14.79009331      -17.05055384     3.27766678       2.62545937       0.01716298       0.14378228      
   13136.900 70.27108434      0.13859247       123.33353868     9.51081491       14.78386534      -16.87313554     3.22875050       2.62065959       0.02015091       0.14170577      
   13137.000 70.47188755      0.13998853       126.06648193     9.51110298       14.77764000      -16.68770612     3.18077537       2.61606755       0.02313883       0.13965522      
   13137.100 70.67269076      0.14138459       128.75676882     9.51139106       14.77141728      -16.50332507     3.13518510       2.61183613       0.02612676       0.13748319      
   13137.200 70.87349398      0.14278065       131.64575695     9.51167913       14.76519718      -16.32331434     3.08794680       2.60821574       0.02977867       0.13552483      
   13137.300 71.07429719      0.14417671       134.14792300     9.51196720       14.75897970      -16.14272803     3.03744304       2.60505013       0.03104393       0.13326964      
   13137.400 71.27510040      0.14557277       137.21204005     9.51225528       14.75276484      -15.95984213     2.99153662       2.60197472       0.03267069       0.13087615      
   13137.500 71.47590361      0.14696883       140.29299622     9.51254335       14.74655260      -15.77726392     2.96160430       2.59886628       0.03429745       0.12997776      
   13137.600 71.67670683      0.14836489       140.32982063     9.51283143       14.74034297      -15.59578381     2.95023607       2.59575600       0.03592421       0.12930036      
   13137.700 71.87751004      0.14976095       138.28239013     9.51311950       14.73413595      -15.41402627     2.94895424       2.59260416       0.03755097       0.12818274      
   13137.800 72.07831325      0.15115701       135.86050462     9.51340758       14.72793155      -15.23173085     2.94797823       2.58945041       0.03917773       0.12723014      
   13137.900 72.27911647      0.15255307       133.57769568     9.51369565       14.72172976      -15.04968371     2.94391647       2.58642327       0.04080449       0.12817000      
   13138.000 72.47991968      0.15394913       131.19048258     9.51398373       14.71553059      -14.86801525     2.93781838       2.58339732       0.04243125       0.12986248      
   13138.100 72.68072289      0.15534519       128.71716996     9.51427180       14.70933402      -14.68585700     2.93135014       2.58011603       0.04405801       0.13132616      
   13138.200 72.88152610      0.15674125       126.35658524     9.51455988       14.70314007      -14.50346679     2.92627721       2.57683283       0.04568478       0.13293218      
   13138.300 73.08232932      0.15883534       123.99150153     9.51484795       14.69694872      -14.32200034     2.92357789       2.57406432       0.04731154       0.13448953      
   13138.400 73.38353414      0.15883534       121.54905548     9.51513602       14.69075998      -14.14101965     2.92084571       2.57143660       0.04949698       0.13600463      
   13138.500 73.38353414      0.16124498       119.16134198     9.51542410       14.68457384      -13.95831085     2.91363017       2.56767159       0.05183621       0.13764439      
   13138.600 73.41365462      0.16144578       116.80455104     9.51571217       14.67839031      -13.77467887     2.90063549       2.56222990       0.05539902       0.13909092      
   13138.700 73.43373494      0.16164659       114.36042352     9.51600025       14.67220938      -13.59419463     2.88533198       2.55608013       0.05896184       0.14078155      
   13138.800 73.45381526      0.16164659       111.94949794     9.51628832       14.66294287      -13.41540265     2.87139594       2.55034795       0.06252466       0.14279459      
   13138.900 73.48393574      0.16164659       109.65105594     9.51657640       14.66294287      -13.23031622     2.85886270       2.54508471       0.06608748       0.14293925      
   13139.000 73.48393574      0.16164659       107.21069144     9.51686447       14.42709492      -13.04188866     2.84580053       2.53982833       0.06965030       0.14280693      
   13139.100 73.38414510      0.16113024       104.53442232     9.51715255       14.27197425      -12.87528092     2.83191602       2.53438847       0.07321312       0.14292537      
   13139.200 73.31761800      0.16078600       101.90268355     9.51744062       14.11852144      -12.75745807     2.81855850       2.52876517       0.07677593       0.14282713      
   13139.300 73.25109091      0.16044177       99.64412901      9.51772870       13.96671856      -12.68727974     2.80580105       2.52325155       0.08033875       0.14266828      
   13139.400 73.18456381      0.16009753       97.58511045      9.51801677       13.81654788      -12.63867799     2.79228262       2.51774018       0.08390157       0.14234026      
   13139.500 73.11803672      0.15975330       96.42472016      9.51830484       13.66799183      -12.58954730     2.77811459       2.51325878       0.08746439       0.14201224      
   13139.600 73.05150962      0.15923695       95.96360173      9.51859292       13.52103307      -12.53686530     2.76522446       2.50845537       0.09102721       0.14168421      
   13139.700 72.98498253      0.15923695       95.12692602      9.51888099       13.37565441      -12.48546826     2.75331422       2.50212986       0.09459003       0.14135619      
   13139.800 72.91845543      0.15824140       94.20452137      9.51916907       13.23183887      -12.43627869     2.73894772       2.49527989       0.09815285       0.14102817      
   13139.900 72.85192834      0.15757770       93.50773969      9.51945714       13.08956964      -12.38687903     2.72198988       2.48940008       0.10171566       0.14070015      
   13140.000 72.78540124      0.15691400       92.68280277      9.51974522       12.87902880      -12.33540809     2.70968446       2.48439981       0.10704225       0.14037212      
   13140.100 72.71887414      0.15625030       91.82854613      9.52003329       12.87902880      -12.28301145     2.70947717       2.47866853       0.10791449       0.14004410      
   13140.200 72.65234705      0.15558660       91.07438149      9.52032137       12.87902880      -12.23332823     2.71971774       2.47154565       0.10964185       0.13971608      
   13140.300 72.58581995      0.15522088       90.28062425      9.52060944       12.87902880      -12.18600770     2.73218316       2.46562676       0.11136922       0.13923541      
   13140.400 72.51929286      0.15522088       89.38435303      9.52089746       12.87902880      -12.13454750     2.74216403       2.46381833       0.11388330       0.13923541      
   13140.500 72.47991968      0.15589558       88.41633751      9.52119160       12.87902880      -12.07792102     2.75132141       2.46477079       0.11388330       0.13923541      
   13140.600 72.68775100      0.15636787       87.31433541      9.52148658       12.85915477      -12.02603707     2.76183575       2.46522840       0.11388330       0.13923541      
   13140.700 72.83534137      0.15684016       85.89507133      9.52177099       12.84592246      -11.98097869     2.77280657       2.46494004       0.11348089       0.13963783      
   13140.800 72.98293173      0.15731245       84.28287557      9.52205388       12.83270377      -11.92479751     2.78284125       2.46538132       0.11348089       0.13981936      
   13140.900 73.13052209      0.15763052       82.74002038      9.52236101       12.81949868      -11.84170912     2.79258069       2.46635195       0.11289184       0.14013548      
   13141.000 73.27811245      0.15919679       81.20656777      9.52267155       12.80630718      -11.74226600     2.80317677       2.46811304       0.11159090       0.14045160      
   13141.100 73.42570281      0.16037751       79.68619867      9.52293135       12.79312925      -11.64816209     2.81401471       2.46983389       0.11046543       0.14076772      
