~Version ---------------------------------------------------
VERS.   2.0 : CWLS log ASCII Standard -VERSION 2.0
WRAP.    NO : One line per depth step
DLM . SPACE : Column Data Section Delimiter
~Well ------------------------------------------------------
STRT.FT       8390.0 : START DEPTH
STOP.FT       9710.0 : STOP DEPTH
STEP.FT          0.5 : STEP
NULL.        -999.25 : NULL VALUE
COMP.  HRM Resources : COMPANY
WELL.  23-12 Hay Dam : WELL
FLD .        Hay Dam : FIELD
LOC . 23N R97W Sec12 : LOCATION
CNTY.     Sweetwater : COUNTY
STAT.             WY : STATE
CTRY.            USA : COUNTRY
SRVC.            SLB : SERVICE COMPANY
DATE.     11/14/2019 : DATE
API .     4903723253 : API NUMBER
UWI .       3723253A : UWI NUMBER
TVD .             NO : TVD flag
WSTA.            LOC : Well status
USGS.           E974 : USGS Number
LATI.DEG     41.97803: LATITUDE
LONG.DEG    -108.3282: LONGITUDE
UTM-N.     4650790.25: Northing
UTM-E.       721356.8: Easting
CORE.             -13: Core/Log Offset
~Curve Information -----------------------------------------
DEPT.FT               : Depth in Feet
GR  .API 35 310 01 01 : Gamma Ray
CALI.IN  70 280 01 01 : Caliper
PEF .BARN             : Photoelectric Effect
NPHI.V/V 42 890 03 01 : Neutron Porosity
DPHI.V/V 45 890 01 01 : Density Porosity
SP  .                 : 
ILD .                 : 
~Params ----------------------------------------------------
~Other -----------------------------------------------------
~ASCII -----------------------------------------------------
# ...
 9335.00000  134.87000    9.20900    3.40400    0.23100    0.13600    7.53500    8.98500
 9335.50000  128.63300    9.20900    3.28800    0.22100    0.09300    7.67700    9.03700
 9336.00000  123.09100    9.20900    3.17700    0.19900    0.05000    7.79300    9.20800
 9336.50000  121.87100    9.20900    3.14800    0.18100    0.01500    7.63000    9.62600
 9337.00000  124.88800    9.20900    3.14300    0.17800    0.00700    7.46500   10.06200
 9337.50000  128.50800    9.20900    3.13700    0.17500    0.00400    7.54100   11.02800
 9338.00000  129.86500    9.21100    3.12500    0.17100    0.00200    7.78100   12.42800
 9338.50000  128.28600    9.21300    3.07300    0.16800    0.00200    7.99600   12.89000
 9339.00000  126.49500    9.21400    3.03000    0.16400    0.00500    7.86700   12.89000
 9339.50000  124.55900    9.21600    3.03100    0.16100    0.00200    7.73900   12.89000
 9340.00000  121.98600    9.21800    3.02900    0.15700    0.00000    7.61300   12.89000
 9340.50000  119.37400    9.22000    2.97600    0.15400   -0.00100    7.49000   13.29200
 9341.00000  116.77400    9.22200    2.95200    0.15200   -0.00000    7.36600   13.70100
 9341.50000  114.15800    9.22400    2.96500    0.15200    0.00000    7.24200   14.12400
 9342.00000  113.19000    9.22500    3.01400    0.15200    0.00100    7.11800   14.40300
 9342.50000  114.36000    9.22700    3.06900    0.15100    0.00300    6.99400   14.40300
 9343.00000  118.99700    9.22900    3.09700    0.14800    0.00700    6.87000   14.40300
 9343.50000  123.63600    9.23100    3.05900    0.14700    0.01000    6.74600   14.40300
 9344.00000  127.49400    9.23300    3.02200    0.15100    0.01200    6.62200   14.40300
 9344.50000  129.48100    9.23500    2.99000    0.15500    0.01200    6.49800   14.40300
 9345.00000  130.09000    9.23700    2.99100    0.15900    0.01100    6.39500   14.40300
 9345.50000  129.47100    9.23800    2.99000    0.16300    0.01000    6.45100   14.40300
 9346.00000  127.54900    9.24000    3.01600    0.16600    0.01000    6.50500   14.40300
 9346.50000  125.67600    9.24200    3.04800    0.16900    0.01000    6.55900   14.40200
 9347.00000  123.17200    9.24400    3.07900    0.17100    0.01000    6.61300   14.43100
 9347.50000  120.71900    9.24600    3.11000    0.17000    0.00900    6.66600   14.48800
 9348.00000  119.64600    9.24800    3.14200    0.16600    0.00700    6.72000   14.56000
 9348.50000  119.26900    9.24900    3.16800    0.16100    0.00400    6.77400   14.70500
 9349.00000  122.51100    9.25100    3.12400    0.15800    0.00200    6.77200   14.85200
 9349.50000  127.03800    9.25300    3.10800    0.15800   -0.00100    6.73600   15.00000
 9350.00000  131.58900    9.25500    3.09200    0.15900   -0.00100    6.70000   15.15000
 9350.50000  134.23700    9.25700    3.09700    0.16200   -0.00200    6.66300   15.36600
 9351.00000  131.40900    9.25900    3.22900    0.16200   -0.00200    6.62700   15.34800
 9351.50000  126.32700    9.26000    3.38400    0.16300   -0.00200    6.59100   15.31600
 9352.00000  121.13600    9.26200    3.54000    0.16300   -0.00000    6.55400   15.28300
 9352.50000  116.55000    9.26400    3.67800    0.16300    0.00300    6.51800   15.25100
 9353.00000  118.74900    9.26600    3.48300    0.16400    0.00400    6.48200   15.22500
 9353.50000  122.40800    9.26800    3.27100    0.16500    0.00600    6.44500   15.22500
 9354.00000  126.04000    9.27000    3.06200    0.16500    0.01000    6.40900   15.48100
 9354.50000  124.89600    9.28300    2.90900    0.16500    0.01400    6.42200   15.57500
 9355.00000  120.88300    9.29600    2.89000    0.16400    0.01600    6.48200   15.67000
 9355.50000  116.97500    9.30900    2.92700    0.15700    0.01900    6.54200   15.76500
 9356.00000  113.08200    9.32200    2.97700    0.15500    0.02100    6.60300   15.79900
 9356.50000  109.65300    9.33500    3.02600    0.15400    0.02400    6.66300   15.82700
 9357.00000  108.04600    9.34800    3.04900    0.15600    0.02600    6.72400   15.91900
 9357.50000  107.48500    9.36100    3.02500    0.15700    0.02700    6.78700   16.01200
 9358.00000  107.79300    9.37500    3.00100    0.15700    0.02500    6.72000   16.10600
 9358.50000  109.26500    9.38800    2.97700    0.15400    0.02200    6.63000   16.20000
 9359.00000  112.67900    9.37200    2.95300    0.15100    0.01800    6.54000   16.24400
 9359.50000  116.57100    9.34700    2.96100    0.15000    0.01700    6.45000   16.24300
 9360.00000  120.31700    9.31600    2.98200    0.15000    0.01800    6.36000   16.24300
 9360.50000  120.12200    9.25600    3.00400    0.15200    0.01900    6.27000   16.24300
 9361.00000  117.61700    9.19900    2.97000    0.15500    0.02100    6.18000   16.24300
 9361.50000  115.29900    9.14200    2.90800    0.15600    0.02400    6.09000   16.24300
 9362.00000  115.44800    9.08900    2.84400    0.15600    0.02700    6.00100   16.24300
 9362.50000  117.75600    9.08800    2.81000    0.15800    0.02700    5.96900   16.24300
 9363.00000  120.04000    9.08900    2.80100    0.15900    0.02300    5.94700   16.24400
 9363.50000  120.58000    9.08800    2.79100    0.15900    0.01900    5.92500   16.24300
 9364.00000  120.45200    9.08200    2.73900    0.15700    0.01500    5.90300   16.05400
 9364.50000  117.79500    9.07400    2.68000    0.15200    0.01100    5.88100   15.82200
 9365.00000  115.17600    9.06700    2.66800    0.14900    0.00800    5.85900   15.59400
 9365.50000  112.61700    9.06000    2.66600    0.14900    0.00900    5.83700   15.36600
 9366.00000  114.74000    9.05300    2.69900    0.15400    0.01200    5.81500   15.36600
 9366.50000  117.25800    9.04600    2.74400    0.15900    0.01400    5.79400   15.47900
 9367.00000  117.21300    9.03900    2.79500    0.16400    0.01700    5.73200   16.09400
 9367.50000  112.30700    9.03200    2.84300    0.16500    0.02300    5.65400   15.94500
 9368.00000  102.62100    9.02000    2.80500    0.15000    0.02900    5.57600   17.51300
 9368.50000   92.15900    9.00500    2.61100    0.13300    0.03400    5.49700   18.79400
 9369.00000   82.53700    8.99100    2.48600    0.11500    0.03800    5.42000   20.91700
 9369.50000   76.43100    8.97600    2.50100    0.10400    0.04100    5.08100   23.76500
 9370.00000   70.27400    8.96100    2.59800    0.09400    0.04500    4.53000   26.97200
 9370.50000   63.96500    8.94800    2.72400    0.08400    0.04900    3.97800   30.61300
 9371.00000   60.10800    8.95700    2.81100    0.07400    0.05300    3.42500   34.74500
 9371.50000   57.45900    8.96600    2.74500    0.06900    0.05600    2.87300   39.46900
 9372.00000   56.50900    8.97400    2.63400    0.07300    0.06500    2.32000   41.72500
 9372.50000   58.46300    8.98200    2.52000    0.07800    0.07500    1.76700   42.90200
 9373.00000   62.80500    8.98300    2.48800    0.08300    0.08000    1.21500   42.89000
 9373.50000   67.51800    8.96500    2.47300    0.09000    0.07900    0.69200   43.28800
 9374.00000   72.20100    8.94700    2.45500    0.09900    0.07900    0.41500   41.61200
 9374.50000   74.02200    8.93000    2.43700    0.09900    0.08100    0.12600   38.47200
 9375.00000   73.83800    8.91200    2.44600    0.09800    0.08400   -0.16500   35.57000
 9375.50000   76.75200    8.89500    2.52600    0.11100    0.08600   -0.44700   32.88600
 9376.00000   82.32000    8.87800    2.60300    0.13000    0.07700   -0.15000   30.84500
 9376.50000   87.98100    8.86700    2.62300    0.14100    0.06500    0.18700   29.61800
 9377.00000   89.88200    8.86700    2.55800    0.13400    0.05200    0.51700   29.34000
 9377.50000   83.82400    8.86700    2.49300    0.12300    0.05000    0.73900   29.35600
 9378.00000   76.25900    8.86700    2.42800    0.11300    0.06300    0.70300   31.50400
 9378.50000   71.95100    8.86700    2.45700    0.10300    0.07800    0.67200   33.52900
 9379.00000   68.39500    8.86700    2.52300    0.09200    0.08600    0.64000   34.86700
 9379.50000   67.05800    8.86700    2.58500    0.08500    0.07900    0.60800   35.32000
