~Version ---------------------------------------------------
VERS. 2.0 : CWLS log ASCII Standard -VERSION 2.0
WRAP.  NO : One Line Per Depth Step
~Well ------------------------------------------------------
STRT .FT              12000.0 : START DEPTH
STOP .FT              13400.0 : STOP DEPTH
STEP .FT   0.1000000000003638 : STEP
NULL .                -999.25 : NULL VALUE
COMP . ENRON OIL &GAS COMPANY : COMPANY
WELL .       CEPO-LEWIS 21-38 : WELL
FLD  .             CEPO-LEWIS : FIELD
LOC  .   1205' FWL &1300' FSL : LOCATION
CNTY .             SWEETWATER : COUNTY
STAT .                WYOMING : STATE
CTRY .                    USA : COUNTRY
SRVC .                        : SERVICE COMPANY
DATE .             25/05/1998 : DATE
API  .             4903724185 : API NUMBER
UWI  .                3724185 : UWI NUMBER
TVD  .                     NO : TVD flag
WSTA .                    LOC : Well status
USGS .                   CEPO : USGS Number
LATI .DEG            41.18194 : LATITUDE
LONG .DEG          -108.14139 : LONGITUDE
UTM-N.             4562894.53 : Northing
UTM-E.              739764.57 : Easting
CORE .FT                 -3.9 : Core/Log Offset
~Curve Information -----------------------------------------
DEPT .FT                : Depth in Feet
GR   .GAPI 35 310 01 01 : Gamma Ray
SP   .MV   01 010 01 01 : Spontaneous Potential
CALI .IN   70 280 01 01 : Caliper
AHT90.OHMM              : 
ILD  .OHMM 05 120 46 01 : Deep Induction Standard Processed Resistivity
HCAL .IN                : 
DPHI .V/V  45 890 01 01 : Density Porosity
NPOR .V/V               : Neutron Porosity Output From An Application Program
RHOB .G/C3 42 350 01 01 : Bulk Density
PEF  .b/e               : Photo-Electric Factor
DT   .US/F 60 520 08 01 : Delta-T
SPHI .V/V  61 890 01 01 : Sonic Porosity
RESD .OHMM              : Deep Resistivity - Merged AHT90 & ILD
~Params ----------------------------------------------------
DATE.  25-05-1998 : Date As Month-Day-Year
RUN .         ONE : Run Number
PDAT.         UNK : Permanent Datum
EPD .FT    6416.0 : Elevation Of Perm. Datum
LMF .          KB : Log Measured From
FAPD.FT      21.0 : Feet Above Perm. Datum
DMF .          KB : Drilling Measured From
EKB .FT    6437.0 : Elevation Of Kelly Bushing
EDF .FT    6436.0 : Elevation Of Derrick Floor
EGL .FT    6416.0 : Elevation Of Ground Level
TD  .FT   13400.0 : Total Depth
DD  .FT   12587.0 : Depth Driller
DL  .FT   12616.0 : Depth Logger
BLI .FT   12602.0 : Bottom Log Interval
TLI .FT    2346.0 : Top Log Interval
DFT .    GEL-CHEM : Drilling Fluid Type
LUN .        8269 : Logging Unit Number
LUL . ROCK SPRING : Logging Unit Location
DGBY.         R2V : 
WSTA.         LOC : 
~Other -----------------------------------------------------
<DescLogPlotStart>   NEURALOG PLOT DEFINITION
PLOTDEFVERSION: 3
LASFILE: C:\nds\projects\mf-nov-13\las\3724185G.las
DEPTHSCALE: 240.000000
RESOLUTION: 200
DEPTHLABELFREQ: 100.000000
HEAVYGRIDFREQ: 100.000000
MEDIUMGRIDFREQ: 50.000000
LIGHTGRIDFREQ: 10.000000
#
#   TRACK 1
#
STARTTRACK:
LEFTX: 0.500000 inch
RIGHTX: 3.000000 inch
SCALETYPE: Linear
NUMCHARTDIVISIONS: 10
CURVE: GR    0.000000   150.000000 (0,0,255)      Solid             2     N
CURVE: SP    -100.000000 0.000000   (0,131,131)    Dot               2     Y
BACKUP: 0.000000   100.000000 (0,131,131)    Dot               2
BACKUP: 100.000000 200.000000 (0,131,131)    Dot               2
BACKUP: 200.000000 300.000000 (0,131,131)    Dot               2
BACKUP: 300.000000 400.000000 (0,131,131)    Dot               2
CURVE: CALI  4.000000   14.000000  (255,0,255)    Short_Dash        2     N
CURVE: HCAL  4.000000   14.000000  (255,0,0)      Medium_Dash       2     Y
BACKUP: -6.000000  4.000000   (255,0,0)      Medium_Dash       2
ENDTRACK:
#
#   TRACK 2
#
STARTTRACK:
LEFTX: 3.500000 inch
RIGHTX: 8.500000 inch
SCALETYPE: Log
NUMCYCLES: 4
STARTCYCLE: 2
CURVE: AHT90 0.200000   2000.000000 (255,131,0)    Solid             2     N
CURVE: ILD   0.200000   2000.000000 (255,255,0)    Dot               2     N
ENDTRACK:
#
#   TRACK 3
#
STARTTRACK:
LEFTX: 3.500000 inch
RIGHTX: 8.500000 inch
SCALETYPE: Linear
NUMCHARTDIVISIONS: 10
CURVE: DPHI  0.300000   -0.100000  (0,0,255)      Solid             2     Y
BACKUP: 0.700000   0.300000   (0,0,255)      Solid             2
CURVE: NPOR  0.300000   -0.100000  (0,131,131)    Dot               2     Y
BACKUP: 0.700000   0.300000   (0,131,131)    Dot               2
ENDTRACK:
#
#   TRACK 4
#
STARTTRACK:
LEFTX: 3.500000 inch
RIGHTX: 8.500000 inch
SCALETYPE: Linear
NUMCHARTDIVISIONS: 10
CURVE: RHOB  2.000000   3.000000   (255,0,255)    Solid             2     Y
BACKUP: 1.000000   2.000000   (255,0,255)    Solid             2
BACKUP: 3.000000   4.000000   (255,0,255)    Solid             2
CURVE: PEF   0.000000   20.000000  (255,0,0)      Dot               2     N
ENDTRACK:
#
#   TRACK 5
#
STARTTRACK:
LEFTX: 3.500000 inch
RIGHTX: 8.500000 inch
SCALETYPE: Linear
NUMCHARTDIVISIONS: 10
CURVE: DT    140.000000 40.000000  (255,131,0)    Solid             2     Y
BACKUP: 240.000000 140.000000 (255,131,0)    Solid             2
ENDTRACK:
<DescLogPlotEnd>
~ASCII -----------------------------------------------------
# ...
 13383.20000    -999.25   53.93954    -999.25    -999.25   12.57289    5.88541    -999.25    0.20820    2.05045    3.77403    -999.25    -999.25   12.57289
 13383.30000    -999.25   53.95345    -999.25    -999.25   12.66840    5.88528    -999.25    0.20776    2.05095    3.77003    -999.25    -999.25   12.66840
 13383.40000    -999.25   53.96305    -999.25    -999.25   12.76588    5.88514    -999.25    0.20732    2.05146    3.76532    -999.25    -999.25   12.76588
 13383.50000    -999.25   53.97199    -999.25    -999.25   12.86410    5.88500    -999.25    0.20688    2.04892    3.76021    -999.25    -999.25   12.86410
 13383.60000    -999.25   53.98967    -999.25    -999.25   12.96308    5.88486    -999.25    0.20634    2.04334    3.75616    -999.25    -999.25   12.96308
 13383.70000    -999.25   54.00860    -999.25    -999.25   13.06282    5.88473    -999.25    0.20634    2.03776    3.75304    -999.25    -999.25   13.06282
 13383.80000    -999.25   53.99983    -999.25    -999.25   13.17532    5.88459    -999.25    0.20634    2.03218    3.74667    -999.25    -999.25   13.17532
 13383.90000    -999.25   53.94414    -999.25    -999.25   13.17532    5.88445    -999.25    0.20634    2.02661    3.73203    -999.25    -999.25   13.17532
 13384.00000    -999.25   53.85633    -999.25    -999.25   13.16576    5.88431    -999.25    0.20634    2.02103    3.70917    -999.25    -999.25   13.16576
 13384.10000    -999.25   53.76392    -999.25    -999.25   13.15504    5.88418    -999.25    0.20633    2.01573    3.68311    -999.25    -999.25   13.15504
 13384.20000    -999.25   53.67808    -999.25    -999.25   13.14433    5.88404    -999.25    0.20635    2.01005    3.65790    -999.25    -999.25   13.14433
 13384.30000    -999.25   53.59657    -999.25    -999.25   13.13362    5.88390    -999.25    0.20634    2.00361    3.63372    -999.25    -999.25   13.13362
 13384.40000    -999.25   53.51448    -999.25    -999.25   13.12293    5.88376    -999.25    0.20634    1.99691    3.60932    -999.25    -999.25   13.12293
 13384.50000    -999.25   53.42503    -999.25    -999.25   13.11224    5.88363    -999.25    0.20634    1.99109    3.58431    -999.25    -999.25   13.11224
 13384.60000    -999.25   53.33129    -999.25    -999.25   13.10157    5.88349    -999.25    0.20634    1.98626    3.55900    -999.25    -999.25   13.10157
 13384.70000    -999.25   53.25096    -999.25    -999.25   13.09090    5.88335    -999.25    0.20634    1.98158    3.53418    -999.25    -999.25   13.09090
 13384.80000    -999.25   53.18190    -999.25    -999.25   13.08024    5.88321    -999.25    0.20635    1.97702    3.51019    -999.25    -999.25   13.08024
 13384.90000    -999.25   53.08605    -999.25    -999.25   13.06959    5.88308    -999.25    0.20635    1.97349    3.48548    -999.25    -999.25   13.06959
 13385.00000    -999.25   52.95255    -999.25    -999.25   13.05894    5.88294    -999.25    0.20635    1.97131    3.45890    -999.25    -999.25   13.05894
 13385.10000    -999.25   52.84885    -999.25    -999.25   13.04831    5.88280    -999.25    0.20636    1.96979    3.43511    -999.25    -999.25   13.04831
 13385.20000    -999.25   52.85024    -999.25    -999.25   13.03769    5.88266    -999.25    0.20636    1.96806    3.42393    -999.25    -999.25   13.03769
 13385.30000    -999.25   52.94085    -999.25    -999.25   13.02707    5.88253    -999.25    0.20636    1.96593    3.43064    -999.25    -999.25   13.02707
 13385.40000    -999.25   53.04183    -999.25    -999.25   13.01646    5.88239    -999.25    0.20636    1.96386    3.44912    -999.25    -999.25   13.01646
 13385.50000    -999.25   53.11524    -999.25    -999.25   13.00586    5.88225    -999.25    0.20637    1.96240    3.46835    -999.25    -999.25   13.00586
 13385.60000    -999.25   53.18323    -999.25    -999.25   12.99527    5.88211    -999.25    0.20637    1.96013    3.48455    -999.25    -999.25   12.99527
 13385.70000    -999.25   53.26491    -999.25    -999.25   12.98469    5.88198    -999.25    0.20637    1.95824    3.50208    -999.25    -999.25   12.98469
 13385.80000    -999.25   53.35053    -999.25    -999.25   12.97412    5.88184    -999.25    0.20637    1.95276    3.52239    -999.25    -999.25   12.97412
 13385.90000    -999.25   53.42930    -999.25    -999.25   12.96355    5.88170    -999.25    0.20638    1.94372    3.53970    -999.25    -999.25   12.96355
 13386.00000    -999.25   53.50378    -999.25    -999.25   12.95300    5.88156    -999.25    0.20638    1.93467    3.55316    -999.25    -999.25   12.95300
 13386.10000    -999.25   53.58083    -999.25    -999.25   12.94245    5.88143    -999.25    0.20638    1.92299    3.57706    -999.25    -999.25   12.94245
 13386.20000    -999.25   53.66493    -999.25    -999.25   12.93316    5.88129    -999.25    0.20639    1.90867    3.62945    -999.25    -999.25   12.93316
 13386.30000    -999.25   53.74853    -999.25    -999.25   12.93101    5.88115    -999.25    0.20639    1.89435    3.71144    -999.25    -999.25   12.93101
 13386.40000    -999.25   53.80471    -999.25    -999.25   12.92908    5.88101    -999.25    0.20639    1.88003    3.80512    -999.25    -999.25   12.92908
 13386.50000    -999.25   53.80908    -999.25    -999.25   12.92715    5.88088    -999.25    0.20639    1.85487    3.89351    -999.25    -999.25   12.92715
 13386.60000    -999.25   53.77026    -999.25    -999.25   12.92523    5.88074    -999.25    0.20640    1.81889    3.97701    -999.25    -999.25   12.92523
 13386.70000    -999.25   53.72058    -999.25    -999.25   12.92330    5.88060    -999.25    0.20640    1.78291    4.06585    -999.25    -999.25   12.92330
 13386.80000    -999.25   53.67957    -999.25    -999.25   12.92137    5.88046    -999.25    0.20640    1.74693    4.15943    -999.25    -999.25   12.92137
 13386.90000    -999.25   53.64227    -999.25    -999.25   12.91945    5.88033    -999.25    0.20640    1.71095    4.24067    -999.25    -999.25   12.91945
 13387.00000    -999.25   53.60090    -999.25    -999.25   12.91752    5.88019    -999.25    0.20641    1.65942    4.29326    -999.25    -999.25   12.91752
 13387.10000    -999.25   53.55777    -999.25    -999.25   12.91560    5.88005    -999.25    0.20641    1.59234    4.31871    -999.25    -999.25   12.91560
 13387.20000    -999.25   53.51688    -999.25    -999.25   12.91367    5.87991    -999.25    0.20641    1.52602    4.33214    -999.25    -999.25   12.91367
 13387.30000    -999.25   53.47690    -999.25    -999.25   12.91175    5.87978    -999.25    0.20641    1.45709    4.34710    -999.25    -999.25   12.91175
 13387.40000    -999.25   53.43571    -999.25    -999.25   12.90983    5.87964    -999.25    0.20642    1.38333    4.36819    -999.25    -999.25   12.90983
 13387.50000    -999.25   53.39406    -999.25    -999.25   12.90790    5.87950    -999.25    0.20642    1.29547    4.39101    -999.25    -999.25   12.90790
 13387.60000    -999.25   53.35301    -999.25    -999.25   12.90598    5.87936    -999.25    0.20642    1.21395    4.40659    -999.25    -999.25   12.90598
 13387.70000    -999.25   53.31217    -999.25    -999.25   12.90406    5.87923    -999.25    0.20642    1.12515    4.41660    -999.25    -999.25   12.90406
 13387.80000    -999.25   53.27106    -999.25    -999.25   12.90213    5.87909    -999.25    0.20643    1.04427    4.44668    -999.25    -999.25   12.90213
 13387.90000    -999.25   53.22987    -999.25    -999.25   12.90021    5.87895    -999.25    0.20643    -999.25    4.52883    -999.25    -999.25   12.90021
 13388.00000    -999.25   53.18880    -999.25    -999.25   12.89829    5.87881    -999.25    0.20643    -999.25    4.66382    -999.25    -999.25   12.89829
 13388.10000    -999.25   53.14777    -999.25    -999.25   12.89637    5.87868    -999.25    0.20644    -999.25    4.81731    -999.25    -999.25   12.89637
 13388.20000    -999.25   53.10668    -999.25    -999.25   12.89444    5.87854    -999.25    0.20644    -999.25    4.96183    -999.25    -999.25   12.89444
 13388.30000    -999.25   53.06568    -999.25    -999.25   12.89252    5.87840    -999.25    0.20644    -999.25    5.09333    -999.25    -999.25   12.89252
