~Version Information Block
 VERS.                2.00:     CWLS LOG ASCII STANDARD - VERSION 2.000000
 WRAP.                  NO:     One Line Per Depth Step
#
~Well Information Block
#MNEM.UNIT                     Data                         Information
#----------   ------------------------------------------   ----------------
 STRT.FT                                     9000.0000:     START DEPTH
 STOP.FT                                    10600.0000:     STOP DEPTH
 STEP.FT                                        0.1000:     STEP
 NULL.                                       -999.2500:     NULL VALUE
 COMP.                            PRESIDIO OIL COMPANY:     COMPANY
 WELL.                          HAY RESERVIOR UNIT #58:     WELL
 FLD .                              HAY RESERVIOR UNIT:     FIELD
 LOC .                               1500' FSL 10' FWL:     LOCATION
 CNTY.                                      SWEETWATER:     COUNTY
 STAT.                                         WYOMING:     STATE
 CTRY.                                             USA:     COUNTRY
 SRVC.                                    SCHLUMBERGER:     SERVICE COMPANY
 DATE.                                      22/02/1994:     DATE
 API .                                      4903723301:     API NUMBER
 UWI .                                         3723301:     UWI NUMBER
 TVD .                                              NO:     TVD flag
 WSTA.                                             LOC:     Well status
 USGS.                                            E945:     USGS Number
 LATI.DEG                                     42.05082:     LATITUDE
 LONG.DEG                                   -108.37861:     LONGITUDE
 UTM-N.                                     4658743.82:     Northing
 UTM-E.                                      716932.37:     Easting
 CORE.FT                                          -9.2:     Core/Log Offset
#
~Curve Information Block
#MNEM.UNIT       API CODE      Curve Description
#----------    -------------   -------------------
 DEPT.FT                   :   Depth in Feet
 ILD .OHMM     05 120 46 01:   Deep Induction Standard Processed Resistivity
 SP  .MV       01 010 01 01:   Spontaneous Potential
 DPHI.DEC      42 890 03 01:   DPHI
 NPHI.DEC      42 890 03 01:   Neutron Porosity
 CALI.IN       70 280 01 01:   Caliper
 GR  .GAPI     35 310 01 01:   Gamma Ray
 RHOB.G/C3     42 350 01 01:   Bulk Density
 PEF .B/E                  :   Photo-Electric Factor
 DT4P.US/F                 :   
#
~Parameter Information Block
#MNEM.UNIT            Value               Description
#----------    --------------------    -------------------
 DATE.                  22-02-1994:    Date As Month-Day-Year
 RUN .                         ONE:    Run Number
 PDAT.                         UNK:    Permanent Datum
 EPD .FT                 6799.0000:    Elevation Of Perm. Datum
 LMF .                          KB:    Log Measured From
 FAPD.FT                   14.0000:    Feet Above Perm. Datum
 DMF .                          KB:    Drilling Measured From
 EKB .FT                 6813.0000:    Elevation Of Kelly Bushing
 EDF .FT                 6812.0000:    Elevation Of Derrick Floor
 EGL .FT                 6799.0000:    Elevation Of Ground Level
 TD  .FT                10600.0000:    Total Depth
 DD  .FT                10625.0000:    Depth Driller
 DL  .FT                10623.0000:    Depth Logger
 BLI .FT                 1061.0000:    Bottom Log Interval
 CSIZ.IN                     9.625:    Casing Size
 CBD1.                        1702:    Casing Bottom (Driller) 1
 CBL1.                        1700:    Casing Bottom (Logger) 1
 BS  .IN                     7.875:    Bit Size
 DFV .S                    45.0000:    Drilling Fluid Viscosity
 DFD .LB/G                 10.5000:    Drilling Fluid Density
 DFL .ML                    7.2000:    Drilling Fluid Loss
 DFPH.                      9.5000:    Drilling Fluid Ph
 MSS .                    MUD TANK:    Mud Sample Source
 RMS .OHMM                  4.6200:    Resistivity Of Mud Sample
 MST .DEGF                 50.0000:    Mud Sample Temperature
 RMF .OHMM                  3.0700:    Mud Filtrate Resistivity
 MFST.DEGF                 50.0000:    Mud Filtrate Sample Temperature
 RMC .OHMM                  7.1400:    Mud Cake Resistivity
 MCST.DEGF                 50.0000:    Mud Cake Sample Temperature
 RMB .OHMM                  1.0990:    Mud Resistivity At Bht
 BHT .DEGF                212.0000:    Bottom Hole Temperature
 MRT .DEGF                212.0000:    Maximum Recorded Temperature
 LUN .                        8415:    Logging Unit Number
 LUL .                      CASPER:    Logging Unit Location
 ENGI.               CHRIS PRESMYK:    Engineer'S Name
 WITN.                STEVE HEFNER:    Witness' Name
 DGBY.                         R2V:    
 WSTA.                         LOC:    
#
~Other Information Block
<DescLogPlotStart>   NEURALOG PLOT DEFINITION
PLOTDEFVERSION: 3
LASFILE: C:\nds\projects\mf-nov-13\las\3723301A.las
DEPTHSCALE: 240.000000
RESOLUTION: 200
DEPTHLABELFREQ: 100.000000
HEAVYGRIDFREQ: 100.000000
MEDIUMGRIDFREQ: 50.000000
LIGHTGRIDFREQ: 10.000000
#
#   TRACK 1
#
STARTTRACK: 
 LEFTX: 0.500000 inch
 RIGHTX: 3.000000 inch
 SCALETYPE: Log
 NUMCYCLES: 4
 STARTCYCLE: 2
CURVE: ILD   0.200000   2000.000000 (0,0,255)      Solid             2     N   
ENDTRACK: 
#
#   TRACK 2
#
STARTTRACK: 
 LEFTX: 3.500000 inch
 RIGHTX: 6.000000 inch
 SCALETYPE: Linear
 NUMCHARTDIVISIONS: 10
CURVE: SP    -80.000000 20.000000  (0,131,131)    Solid             2     Y    
BACKUP: -180.000000 -80.000000 (0,131,131)    Solid             2    
ENDTRACK: 
#
#   TRACK 3
#
STARTTRACK: 
 LEFTX: 6.000000 inch
 RIGHTX: 11.000000 inch
 SCALETYPE: Linear
 NUMCHARTDIVISIONS: 10
CURVE: DPHI  0.300000   -0.100000  (255,0,255)    Solid             2     N    
CURVE: NPHI  0.300000   -0.100000  (255,0,0)      Dot               2     Y    
BACKUP: 0.700000   0.300000   (255,0,0)      Dot               2    
ENDTRACK: 
#
#   TRACK 4
#
STARTTRACK: 
 LEFTX: 11.000000 inch
 RIGHTX: 13.500000 inch
 SCALETYPE: Linear
 NUMCHARTDIVISIONS: 10
CURVE: CALI  6.000000   16.000000  (255,131,0)    Solid             2     N    
CURVE: GR    0.000000   150.000000 (255,255,0)    Dot               2     Y    
BACKUP: 150.000000 300.000000 (255,255,0)    Dot               2    
ENDTRACK: 
#
#   TRACK 5
#
STARTTRACK: 
 LEFTX: 13.500000 inch
 RIGHTX: 18.500000 inch
 SCALETYPE: Linear
 NUMCHARTDIVISIONS: 10
CURVE: RHOB  2.000000   3.000000   (0,0,255)      Solid             2     Y    
BACKUP: 1.000000   2.000000   (0,0,255)      Solid             2    
CURVE: PEF   0.000000   10.000000  (0,131,131)    Dot               2     N    
ENDTRACK: 
#
#   TRACK 6
#
STARTTRACK: 
 LEFTX: 13.500000 inch
 RIGHTX: 18.500000 inch
 SCALETYPE: Linear
 NUMCHARTDIVISIONS: 10
CURVE: DT4P  240.000000 40.000000  (255,0,255)    Solid             2     N    
ENDTRACK: 
<DescLogPlotEnd>
~A DEPTH     ILD              SP               DPHI             NPHI             CALI             GR               RHOB             PEF              DT4P            
# ...
    9744.800 17.60362236      -40.22382698     -0.02946325      0.15412370       8.65589883       119.53954481     2.69993197       3.77549488       -999.25000000   
    9744.900 17.43231331      -40.23536223     -0.02882390      0.15456369       8.66062064       119.38575135     2.69882406       3.76417050       -999.25000000   
    9745.000 17.26267134      -40.24770295     -0.02818455      0.15533524       8.66524044       119.23691765     2.69771747       3.75241001       -999.25000000   
    9745.100 17.09468024      -40.26255531     -0.02754521      0.15608364       8.66967700       119.03355518     2.69660432       3.74011202       -999.25000000   
    9745.200 17.00620698      -40.27596804     -0.02690586      0.15683203       8.67413888       118.82060098     2.69548450       3.72856582       -999.25000000   
    9745.300 16.78080118      -40.28788942     -0.02626651      0.15758043       8.67869357       118.78496501     2.69438757       3.71738007       -999.25000000   
    9745.400 16.62911091      -40.30243248     -0.02562717      0.15832883       8.68323603       119.05345611     2.69335559       3.70474346       -999.25000000   
    9745.500 16.47879184      -40.31798482     -0.02500033      0.15907723       8.68772786       119.52975148     2.69239209       3.69172001       -999.25000000   
    9745.600 16.38743118      -40.32882378     -0.02432658      0.15982563       8.69222652       120.02088688     2.69142932       3.68303048       -999.25000000   
    9745.700 15.90828023      -40.33862912     -0.02358552      0.16057403       8.69675183       120.45493658     2.69039101       3.68167657       -999.25000000   
    9745.800 15.57171852      -40.35773265     -0.02326822      0.16132243       8.70127332       120.88377983     2.68932998       3.68509252       -999.25000000   
    9745.900 15.24227724      -40.37850174     -0.02294415      0.16207083       8.70578431       121.34138133     2.68841797       3.68859347       -999.25000000   
    9746.000 14.91980575      -40.36967078     -0.02255441      0.16281923       8.71028209       121.80243067     2.68774822       3.69063177       -999.25000000   
    9746.100 14.60415659      -40.30962809     -0.02222128      0.16356763       8.71478621       122.24817551     2.68721466       3.69263614       -999.25000000   
    9746.200 14.29518543      -40.21443059     -0.02184349      0.16459378       8.71931573       122.69055076     2.68666707       3.69545984       -999.25000000   
    9746.300 13.99275098      -40.11720622     -0.02149572      0.16571257       8.72384284       123.14018869     2.68609370       3.69834047       -999.25000000   
    9746.400 13.69671495      -40.02967478     -0.02113455      0.16749162       8.72831086       123.59431329     2.68553253       3.70064321       -999.25000000   
    9746.500 13.40694197      -39.94120518     -0.02076964      0.16927067       8.73277875       124.04647180     2.68493523       3.70287713       -999.25000000   
    9746.600 13.12329954      -39.84735026     -0.02042684      0.17104972       8.73737189       124.49140054     2.68430394       3.70568485       -999.25000000   
    9746.700 12.84565796      -39.75647854     -0.02004381      0.17282877       8.74196173       124.93438571     2.68380307       3.70861149       -999.25000000   
    9746.800 12.57389027      -39.66952973     -0.01971792      0.17460782       8.74631354       125.39136206     2.68346814       3.71075837       -999.25000000   
    9746.900 12.30787220      -39.57599604     -0.01931975      0.17638687       8.75067398       125.85459486     2.68296009       3.71260689       -999.25000000   
    9747.000 12.04748211      -39.47605834     -0.01897847      0.17816491       8.75547073       126.26915431     2.68194711       3.71583552       -999.25000000   
    9747.100 11.79260094      -39.38864492     -0.01875627      0.17994898       8.76026072       126.57451478     2.68062583       3.71969711       -999.25000000   
    9747.200 11.54311213      -39.32784942     -0.01794985      0.18173150       8.76418927       126.77071254     2.67950452       3.72015676       -999.25000000   
    9747.300 11.29890160      -39.28411911     -0.01736610      0.18350670       8.76796933       126.91500478     2.67874018       3.71524488       -999.25000000   
    9747.400 11.05985769      -39.23863102     -0.01678235      0.18529656       8.77390171       127.05818852     2.67804711       3.70840025       -999.25000000   
    9747.500 10.82587108      -39.18626445     -0.01619860      0.18706589       8.78301812       127.20920218     2.67721356       3.70187824       -999.25000000   
    9747.600 10.59683478      -39.13414263     -0.01561484      0.18886022       8.79358225       127.35731792     2.67633988       3.68951448       -999.25000000   
    9747.700 10.37264406      -39.08550553     -0.01503109      0.19027739       8.80341744       127.50056305     2.67554241       3.66302290       -999.25000000   
    9747.800 10.15319640      -39.03686422     -0.01444734      0.19099024       8.81239118       127.64549581     2.67475227       3.62461818       -999.25000000   
    9747.900 9.93839147       -38.98633037     -0.01394183      0.19155879       8.82156363       127.79470267     2.67391486       3.58498720       -999.25000000   
    9748.000 9.72813103       -38.93584737     -0.01283852      0.19215441       8.83117241       127.94326611     2.67310225       3.54832486       -999.25000000   
    9748.100 9.52231894       -38.88624003     -0.01186560      0.19272674       8.84068303       128.08661644     2.67229638       3.50891249       -999.25000000   
    9748.200 9.32086109       -38.83654910     -0.01089268      0.19331819       8.84995562       128.22972999     2.67124333       3.46505137       -999.25000000   
    9748.300 9.12366536       -38.78659024     -0.00991976      0.19389525       8.85928244       128.38151743     2.66970606       3.42672734       -999.25000000   
    9748.400 8.93064158       -38.73679406     -0.00894684      0.19448210       8.86872677       128.53513139     2.66775232       3.40372139       -999.25000000   
    9748.500 8.74170149       -38.68672979     -0.00797392      0.19506259       8.87816269       128.66565261     2.66563115       3.39261358       -999.25000000   
    9748.600 8.55013801       -38.63635821     -0.00700100      0.19563892       8.88754966       128.75753731     2.66348380       3.38148367       -999.25000000   
    9748.700 8.33611217       -38.58686250     -0.00602808      0.19622267       8.89691472       128.82456377     2.66135723       3.36404585       -999.25000000   
    9748.800 8.25913556       -38.53796988     -0.00505517      0.19680642       8.90627962       128.89195641     2.65932581       3.34469945       -999.25000000   
    9748.900 8.18216941       -38.48718435     -0.00408225      0.19739017       8.91572197       128.96787776     2.65732855       3.33175383       -999.25000000   
    9749.000 8.08684458       -38.43532782     -0.00310933      0.19797392       8.92520337       129.04428465     2.65512128       3.32928492       -999.25000000   
    9749.100 8.00980535       -38.38694113     -0.00213641      0.19855767       8.93451513       129.11592539     2.65269592       3.33467959       -999.25000000   
    9749.200 7.91819641       -38.34067501     -0.00116349      0.19914142       8.94372591       129.18657957     2.65053564       3.34181871       -999.25000000   
    9749.300 7.84136442       -38.28755818     0.00010030       0.19972518       8.95326782       129.26046180     2.64906336       3.34628524       -999.25000000   
    9749.400 7.75256703       -38.22743695     0.00064594       0.20030893       8.96299345       129.33592735     2.64805043       3.34946021       -999.25000000   
    9749.500 7.67702413       -38.17826169     0.00170512       0.20110331       8.97211208       129.40826578     2.64694966       3.35783876       -999.25000000   
    9749.600 7.58972397       -38.15681778     0.00207823       0.20127447       8.98086240       129.48185998     2.64562013       3.37722137       -999.25000000   
