~Version ---------------------------------------------------
VERS. 2.0 : CWLS log ASCII Standard -VERSION 2.0
WRAP.  NO : One Line Per Depth Step
~Well ------------------------------------------------------
STRT .FT              8400.0 : START DEPTH
STOP .FT              9700.0 : STOP DEPTH
STEP .FT  0.1000000000003638 : STEP
NULL .               -999.25 : NULL VALUE
COMP .  PRESIDIO OIL COMPANY : COMPANY
WELL .     J.T. FEDERAL NO.5 : WELL
FLD  .   SOUTH HAY RESOURCES : FIELD
LOC  . 1266' FNL & 1684' FEL : LOCATION
CNTY .            SWEETWATER : COUNTY
STAT .               WYOMING : STATE
CTRY .                   USA : COUNTRY
SRVC .                       : SERVICE COMPANY
DATE .            30/06/1993 : DATE
API  .            4903723152 : API NUMBER
UWI  .               3723152 : UWI NUMBER
TVD  .                    NO : TVD flag
WSTA .                   LOC : Well status
USGS .                  S179 : USGS Number
LATI .DEG           41.97079 : LATITUDE
LONG .DEG           -108.322 : LONGITUDE
UTM-N.            4650002.36 : Northing
UTM-E.             721895.66 : Easting
CORE .                   N/A : Core/Log Offset
~Curve Information -----------------------------------------
DEPT    .FT                : Depth in Feet
GR      .GAPI 35 310 01 01 : Gamma Ray
SP      .MV   01 010 01 01 : Spontaneous Potential
CALI    .IN   70 280 01 01 : Caliper
ILD     .OHMM 05 120 46 01 : Deep Induction Standard Processed Resistivity
DPHI    .V/V  45 890 01 01 : Density Porosity
NPHI    .V/V  42 890 03 01 : Neutron Porosity
PE      .B/E               : PE
DT      .US/F 60 520 08 01 : Delta-T
ACOUSTIC.DEC               : ACOUSTIC
~Params ----------------------------------------------------
DATE. 30-06-1993 : Date As Month-Day-Year
RUN .        ONE : Run Number
PDAT.        UNK : Permanent Datum
EPD .FT   6607.0 : Elevation Of Perm. Datum
LMF .         KB : Log Measured From
FAPD.FT     16.0 : Feet Above Perm. Datum
DMF .         KB : Drilling Measured From
EKB .FT   6623.0 : Elevation Of Kelly Bushing
EDF .FT   6622.0 : Elevation Of Derrick Floor
EGL .FT   6607.0 : Elevation Of Ground Level
TD  .FT   9700.0 : Total Depth
DD  .FT   9780.0 : Depth Driller
DL  .FT   9724.0 : Depth Logger
BLI .FT   9720.0 : Bottom Log Interval
CSIZ.IN  9.625IN : Casing Size
CBD1.       1698 : Casing Bottom (Driller) 1
CBL1.       1697 : Casing Bottom (Logger) 1
BS  .IN  7.875IN : Bit Size
DFT .        GEL : Drilling Fluid Type
DFV .S      55.0 : Drilling Fluid Viscosity
DFD .LB/G   10.2 : Drilling Fluid Density
DFL .ML      7.6 : Drilling Fluid Loss
DFPH.        9.5 : Drilling Fluid Ph
MSS .   FLOWLINE : Mud Sample Source
RMS .OHMM    1.5 : Resistivity Of Mud Sample
MST .DEGF   74.0 : Mud Sample Temperature
RMF .OHMM    1.8 : Mud Filtrate Resistivity
MFST.DEGF   66.0 : Mud Filtrate Sample Temperature
RMC .OHMM   2.44 : Mud Cake Resistivity
MCST.DEGF   69.0 : Mud Cake Sample Temperature
RMB .OHMM    0.6 : Mud Resistivity At Bht
BHT .DEGF  197.0 : Bottom Hole Temperature
MRT .DEGF  197.0 : Maximum Recorded Temperature
LUN .      52546 : Logging Unit Number
LUL .      VERNL : Logging Unit Location
ENGI.    K EVATT : Engineer'S Name
WITN.    HEFFNER : Witness' Name
DGBY.        R2V : 
WSTA.        LOC : 
~Other -----------------------------------------------------
<DescLogPlotStart>   NEURALOG PLOT DEFINITION
PLOTDEFVERSION: 3
LASFILE: C:\nds\projects\mf-nov-13\las\3723152A.las
DEPTHSCALE: 240.000000
RESOLUTION: 200
DEPTHLABELFREQ: 100.000000
HEAVYGRIDFREQ: 100.000000
MEDIUMGRIDFREQ: 50.000000
LIGHTGRIDFREQ: 10.000000
#
#   TRACK 1
#
STARTTRACK:
LEFTX: 0.500000 inch
RIGHTX: 3.000000 inch
SCALETYPE: Linear
NUMCHARTDIVISIONS: 10
CURVE: GR    0.000000   150.000000 (0,0,255)      Solid             2     N
CURVE: SP    -100.000000 0.000000   (0,131,131)    Dot               2     N
ENDTRACK:
#
#   TRACK 2
#
STARTTRACK:
LEFTX: 0.500000 inch
RIGHTX: 3.000000 inch
SCALETYPE: Linear
NUMCHARTDIVISIONS: 10
CURVE: CALI  6.000000   16.000000  (255,0,255)    Solid             2     Y
BACKUP: -4.000000  6.000000   (255,0,255)    Solid             2
ENDTRACK:
#
#   TRACK 3
#
STARTTRACK:
LEFTX: 3.500000 inch
RIGHTX: 8.500000 inch
SCALETYPE: Log
NUMCYCLES: 4
STARTCYCLE: 2
CURVE: ILD   0.200000   2000.000000 (255,0,0)      Solid             2     N
ENDTRACK:
#
#   TRACK 4
#
STARTTRACK:
LEFTX: 3.500000 inch
RIGHTX: 8.500000 inch
SCALETYPE: Linear
NUMCHARTDIVISIONS: 10
CURVE: DPHI  0.300000   -0.100000  (255,131,0)    Solid             2     Y
BACKUP: 0.700000   0.300000   (255,131,0)    Solid             2
CURVE: NPHI  0.300000   -0.100000  (255,255,0)    Dot               2     Y
BACKUP: 0.700000   0.300000   (255,255,0)    Dot               2
ENDTRACK:
#
#   TRACK 5
#
STARTTRACK:
LEFTX: 3.500000 inch
RIGHTX: 6.000000 inch
SCALETYPE: Linear
NUMCHARTDIVISIONS: 10
CURVE: PE    0.000000   10.000000  (0,0,255)      Solid             2     N
ENDTRACK:
#
#   TRACK 6
#
STARTTRACK:
LEFTX: 8.500000 inch
RIGHTX: 13.500000 inch
SCALETYPE: Linear
NUMCHARTDIVISIONS: 10
CURVE: DT    140.000000 40.000000  (0,131,131)    Solid             2     Y
BACKUP: 40.000000  -60.000000 (0,131,131)    Solid             2
CURVE: ACOUSTIC 0.300000   -0.100000  (255,0,255)    Dot               2     Y
BACKUP: 0.700000   0.300000   (255,0,255)    Dot               2
BACKUP: -0.100000  -0.500000  (255,0,255)    Dot               2
ENDTRACK:
<DescLogPlotEnd>
~ASCII -----------------------------------------------------
# ...
 8823.40000   70.13974  -26.10115    9.97455   22.28834    0.03376    0.13077    2.95764   68.35497    0.11474
 8823.50000   70.61479  -26.06816    9.97524   22.07803    0.03638    0.13181    2.93255   68.77282    0.11846
 8823.60000   71.20479  -26.07373    9.97593   21.92679    0.04035    0.13287    2.90690   69.36105    0.11984
 8823.70000   71.81180  -26.11956    9.97661   21.73229    0.04355    0.13354    2.88307   69.46004    0.12228
 8823.80000   72.11308  -26.17889    9.97730   21.57329    0.04675    0.13357    2.86033   69.62718    0.12473
 8823.90000   72.12803  -26.22856    9.97799   21.38904    0.04995    0.13354    2.83400   69.79432    0.12718
 8824.00000   72.13918  -26.26733    9.97867   21.22853    0.05315    0.13357    2.80420   69.96146    0.12963
 8824.10000   72.27125  -26.30687    9.97936   21.04861    0.05635    0.13354    2.78081   70.17241    0.13207
 8824.20000   72.42634  -26.35719    9.98005   20.89105    0.06077    0.13357    2.77309   70.19168    0.13509
 8824.30000   72.49897  -26.41523    9.98074   20.71284    0.06077    0.13354    2.77778   70.21780    0.13502
 8824.40000   72.51303  -26.46021    9.98142   20.47627    0.06077    0.13328    2.78392   70.24391    0.13493
 8824.50000   72.60451  -26.47009    9.98211   20.46545    0.06077    0.13283    2.78648   70.27383    0.13483
 8824.60000   72.82628  -26.44765    9.98280   20.54087    0.06056    0.13234    2.78838   70.29168    0.13474
 8824.70000   72.94697  -26.41788    9.98349   20.57516    0.06027    0.13189    2.79211   70.31258    0.13465
 8824.80000   72.64920  -26.39736    9.98417   20.62616    0.05999    0.13136    2.79618   70.33347    0.13456
 8824.90000   71.95318  -26.38118    9.98485   20.66432    0.05970    0.13083    2.79926   70.35436    0.13446
 8825.00000   71.14998  -26.36092    9.98555   20.71173    0.05942    0.13028    2.80215   70.37525    0.13437
 8825.10000   70.35513  -26.33843    9.98626   20.75345    0.05915    0.12977    2.80557   70.25338    0.13428
 8825.20000   69.50826  -26.31812    9.98692   20.79831    0.05736    0.12921    2.80907   70.13151    0.13354
 8825.30000   68.80376  -26.29899    9.98758   20.84219    0.05565    0.12871    2.81232   70.00963    0.13283
 8825.40000   68.60267  -26.27863    9.98831   20.88602    0.05394    0.12824    2.81554   69.88776    0.13211
 8825.50000   68.88801  -26.25769    9.98908   20.93066    0.05224    0.12726    2.81887   69.76589    0.13139
 8825.60000   69.26314  -26.23736    9.98966   20.97455    0.05053    0.12636    2.82220   69.64402    0.13068
 8825.70000   69.52537  -26.21729    9.98987   21.01926    0.04939    0.12554    2.82546   69.52214    0.12996
 8825.80000   69.79359  -26.19695    9.98983   21.06352    0.05015    0.12466    2.82877   69.40027    0.12924
 8825.90000   70.06641  -26.17651    9.98977   21.10829    0.05072    0.12382    2.83209   69.27840    0.12853
 8826.00000   70.11361  -26.15615    9.98979   21.15291    0.05102    0.12297    2.83531   69.15652    0.12781
 8826.10000   69.87238  -26.13578    9.98982   21.19747    0.04950    0.12210    2.83850   69.03465    0.12710
 8826.20000   69.56594  -26.11550    9.98981   21.24216    0.04848    0.12126    2.84190   68.91278    0.12638
 8826.30000   69.35492  -26.09535    9.98979   21.28694    0.04746    0.12041    2.84533   68.79091    0.12566
 8826.40000   69.16357  -26.07497    9.98980   21.33182    0.04614    0.11955    2.84837   68.66903    0.12495
 8826.50000   68.91062  -26.05430    9.98980   21.37680    0.04608    0.11870    2.85142   68.54716    0.12454
 8826.60000   68.67570  -26.03410    9.98980   21.42186    0.04599    0.11768    2.85605   68.42529    0.12443
 8826.70000   68.54757  -26.01451    9.98980   21.46703    0.04591    0.11757    2.86344   68.24544    0.12436
 8826.80000   68.47891  -25.99399    9.98980   21.51228    0.04582    0.11743    2.87296   68.26826    0.12428
 8826.90000   68.37644  -25.97235    9.98980   21.55764    0.04573    0.11728    2.88299   68.31178    0.12421
 8827.00000   68.24293  -25.95241    9.98980   21.60308    0.04509    0.11714    2.89271   68.35531    0.12413
 8827.10000   68.13908  -25.93459    9.98980   21.64863    0.04442    0.11700    2.90230   68.39883    0.12405
 8827.20000   68.06086  -25.91345    9.98980   21.69427    0.04375    0.11687    2.91197   68.44236    0.12398
 8827.30000   67.93239  -25.88685    9.98980   21.74001    0.04308    0.11706    2.92166   68.48589    0.12390
 8827.40000   67.71411  -25.86553    9.98980   21.78584    0.04241    0.11723    2.93149   68.52941    0.12383
 8827.50000   67.45544  -25.86357    9.98980   21.83177    0.04174    0.11740    2.94138   68.57294    0.12373
 8827.60000   67.21993  -25.88038    9.98980   21.87780    0.04126    0.11757    2.95045   68.61646    0.12373
 8827.70000   67.01212  -25.90162    9.98980   21.92476    0.04089    0.11774    2.95760   68.65859    0.12412
 8827.80000   66.80056  -25.91748    9.98980   21.96945    0.04061    0.11791    2.96287   68.70483    0.12460
 8827.90000   66.57536  -25.93059    9.98980   22.01814    0.04045    0.11808    2.96731   68.75149    0.12510
 8828.00000   66.35001  -25.94594    9.98980   22.06140    0.03911    0.11825    2.97187   68.76413    0.12557
 8828.10000   66.13143  -25.96270    9.98980   22.11196    0.03817    0.11850    2.97699   68.77407    0.12608
 8828.20000   65.91589  -25.97827    9.98980   22.15385    0.03723    0.12093    2.98302   68.78698    0.12656
 8828.30000   65.69827  -25.99307    9.98980   22.20590    0.03629    0.12100    2.99035   68.79853    0.12644
 8828.40000   65.47306  -26.00851    9.98980   22.27061    0.03535    0.12111    2.99870   68.80936    0.12625
 8828.50000   65.24630  -26.02434    9.98980   22.27618    0.03441    0.12121    3.00719   68.82272    0.12613
 8828.60000   65.03380  -26.03986    9.98980   22.28572    0.03347    0.12134    3.01524   68.83181    0.12594
 8828.70000   64.82800  -26.05520    9.98980   22.30042    0.03253    0.12129    3.02327   68.84663    0.12581
 8828.80000   64.59340  -26.07067    9.98980   22.30627    0.03150    0.12123    3.03175   68.85308    0.12563
 8828.90000   64.33099  -26.08623    9.98980   22.31942    0.03189    0.12117    3.04017   68.79689    0.12550
 8829.00000   64.11155  -26.10172    9.98980   22.32694    0.03232    0.12111    3.04793   68.74050    0.12535
 8829.10000   63.99838  -26.11717    9.98980   22.33850    0.03274    0.12105    3.05586   68.69094    0.12512
 8829.20000   63.95866  -26.13263    9.98980   22.34750    0.03317    0.12099    3.06501   68.63538    0.12489
 8829.30000   63.90693  -26.14809    9.98980   22.35751    0.03360    0.12093    3.07359   68.58336    0.12469
 8829.40000   63.81821  -26.16355    9.98980   22.36747    0.03402    0.11947    3.07753   68.53067    0.12448
 8829.50000   63.74699  -26.17901    9.98980   22.37744    0.03445    0.11850    3.07515   68.47799    0.12427
 8829.60000   63.74219  -26.19447    9.98980   22.38742    0.03476    0.11785    3.06939   68.42530    0.12414
 8829.70000   63.79017  -26.20993    9.98980   22.39740    0.03585    0.11733    3.06406   68.37261    0.12356
 8829.80000   63.84414  -26.22539    9.98980   22.40739    0.03671    0.11681    3.05991   68.31993    0.12314
 8829.90000   63.87901  -26.24085    9.98980   22.41738    0.03756    0.11628    3.05559   68.26724    0.12271
 8830.00000   63.90718  -26.25631    9.98980   22.42737    0.03841    0.11576    3.05067   68.21455    0.12229
 8830.10000   63.95132  -26.27177    9.98980   22.43737    0.03927    0.11524    3.04584   68.16186    0.12187
 8830.20000   64.00650  -26.28723    9.98980   22.44737    0.04012    0.11472    3.04134   68.10918    0.12144
 8830.30000   64.03346  -26.30270    9.98980   22.45738    0.04098    0.11402    3.03679   68.05649    0.12089
 8830.40000   64.00093  -26.31816    9.98980   22.46739    0.04183    0.11390    3.03206   68.00380    0.12089
 8830.50000   63.91999  -26.33362    9.98980   22.48242    0.04268    0.11372    3.02737   67.94118    0.12089
 8830.60000   63.82410  -26.34908    9.98980   22.48242    0.04354    0.11354    3.02274   67.94118    0.12089
