~Version Information Block
 VERS.                2.00:     CWLS LOG ASCII STANDARD - VERSION 2.000000
 WRAP.                  NO:     One Line Per Depth Step
#
~Well Information Block
#MNEM.UNIT                     Data                         Information
#----------   ------------------------------------------   ----------------
 STRT.FT                                     9000.0000:     START DEPTH
 STOP.FT                                    10600.0000:     STOP DEPTH
 STEP.FT                                        0.1000:     STEP
 NULL.                                       -999.2500:     NULL VALUE
 COMP.                            PRESIDIO OIL COMPANY:     COMPANY
 WELL.                          HAY RESERVIOR UNIT #58:     WELL
 FLD .                              HAY RESERVIOR UNIT:     FIELD
 LOC .                               1500' FSL 10' FWL:     LOCATION
 CNTY.                                      SWEETWATER:     COUNTY
 STAT.                                         WYOMING:     STATE
 CTRY.                                             USA:     COUNTRY
 SRVC.                                    SCHLUMBERGER:     SERVICE COMPANY
 DATE.                                      22/02/1994:     DATE
 API .                                      4903723301:     API NUMBER
 UWI .                                         3723301:     UWI NUMBER
 TVD .                                              NO:     TVD flag
 WSTA.                                             LOC:     Well status
 USGS.                                            E945:     USGS Number
 LATI.DEG                                     42.05082:     LATITUDE
 LONG.DEG                                   -108.37861:     LONGITUDE
 UTM-N.                                     4658743.82:     Northing
 UTM-E.                                      716932.37:     Easting
 CORE.FT                                          -9.2:     Core/Log Offset
#
~Curve Information Block
#MNEM.UNIT       API CODE      Curve Description
#----------    -------------   -------------------
 DEPT.FT                   :   Depth in Feet
 ILD .OHMM     05 120 46 01:   Deep Induction Standard Processed Resistivity
 SP  .MV       01 010 01 01:   Spontaneous Potential
 DPHI.DEC      42 890 03 01:   DPHI
 NPHI.DEC      42 890 03 01:   Neutron Porosity
 CALI.IN       70 280 01 01:   Caliper
 GR  .GAPI     35 310 01 01:   Gamma Ray
 RHOB.G/C3     42 350 01 01:   Bulk Density
 PEF .B/E                  :   Photo-Electric Factor
 DT4P.US/F                 :   
#
~Parameter Information Block
#MNEM.UNIT            Value               Description
#----------    --------------------    -------------------
 DATE.                  22-02-1994:    Date As Month-Day-Year
 RUN .                         ONE:    Run Number
 PDAT.                         UNK:    Permanent Datum
 EPD .FT                 6799.0000:    Elevation Of Perm. Datum
 LMF .                          KB:    Log Measured From
 FAPD.FT                   14.0000:    Feet Above Perm. Datum
 DMF .                          KB:    Drilling Measured From
 EKB .FT                 6813.0000:    Elevation Of Kelly Bushing
 EDF .FT                 6812.0000:    Elevation Of Derrick Floor
 EGL .FT                 6799.0000:    Elevation Of Ground Level
 TD  .FT                10600.0000:    Total Depth
 DD  .FT                10625.0000:    Depth Driller
 DL  .FT                10623.0000:    Depth Logger
 BLI .FT                 1061.0000:    Bottom Log Interval
 CSIZ.IN                     9.625:    Casing Size
 CBD1.                        1702:    Casing Bottom (Driller) 1
 CBL1.                        1700:    Casing Bottom (Logger) 1
 BS  .IN                     7.875:    Bit Size
 DFV .S                    45.0000:    Drilling Fluid Viscosity
 DFD .LB/G                 10.5000:    Drilling Fluid Density
 DFL .ML                    7.2000:    Drilling Fluid Loss
 DFPH.                      9.5000:    Drilling Fluid Ph
 MSS .                    MUD TANK:    Mud Sample Source
 RMS .OHMM                  4.6200:    Resistivity Of Mud Sample
 MST .DEGF                 50.0000:    Mud Sample Temperature
 RMF .OHMM                  3.0700:    Mud Filtrate Resistivity
 MFST.DEGF                 50.0000:    Mud Filtrate Sample Temperature
 RMC .OHMM                  7.1400:    Mud Cake Resistivity
 MCST.DEGF                 50.0000:    Mud Cake Sample Temperature
 RMB .OHMM                  1.0990:    Mud Resistivity At Bht
 BHT .DEGF                212.0000:    Bottom Hole Temperature
 MRT .DEGF                212.0000:    Maximum Recorded Temperature
 LUN .                        8415:    Logging Unit Number
 LUL .                      CASPER:    Logging Unit Location
 ENGI.               CHRIS PRESMYK:    Engineer'S Name
 WITN.                STEVE HEFNER:    Witness' Name
 DGBY.                         R2V:    
 WSTA.                         LOC:    
#
~Other Information Block
<DescLogPlotStart>   NEURALOG PLOT DEFINITION
PLOTDEFVERSION: 3
LASFILE: C:\nds\projects\mf-nov-13\las\3723301A.las
DEPTHSCALE: 240.000000
RESOLUTION: 200
DEPTHLABELFREQ: 100.000000
HEAVYGRIDFREQ: 100.000000
MEDIUMGRIDFREQ: 50.000000
LIGHTGRIDFREQ: 10.000000
#
#   TRACK 1
#
STARTTRACK: 
 LEFTX: 0.500000 inch
 RIGHTX: 3.000000 inch
 SCALETYPE: Log
 NUMCYCLES: 4
 STARTCYCLE: 2
CURVE: ILD   0.200000   2000.000000 (0,0,255)      Solid             2     N   
ENDTRACK: 
#
#   TRACK 2
#
STARTTRACK: 
 LEFTX: 3.500000 inch
 RIGHTX: 6.000000 inch
 SCALETYPE: Linear
 NUMCHARTDIVISIONS: 10
CURVE: SP    -80.000000 20.000000  (0,131,131)    Solid             2     Y    
BACKUP: -180.000000 -80.000000 (0,131,131)    Solid             2    
ENDTRACK: 
#
#   TRACK 3
#
STARTTRACK: 
 LEFTX: 6.000000 inch
 RIGHTX: 11.000000 inch
 SCALETYPE: Linear
 NUMCHARTDIVISIONS: 10
CURVE: DPHI  0.300000   -0.100000  (255,0,255)    Solid             2     N    
CURVE: NPHI  0.300000   -0.100000  (255,0,0)      Dot               2     Y    
BACKUP: 0.700000   0.300000   (255,0,0)      Dot               2    
ENDTRACK: 
#
#   TRACK 4
#
STARTTRACK: 
 LEFTX: 11.000000 inch
 RIGHTX: 13.500000 inch
 SCALETYPE: Linear
 NUMCHARTDIVISIONS: 10
CURVE: CALI  6.000000   16.000000  (255,131,0)    Solid             2     N    
CURVE: GR    0.000000   150.000000 (255,255,0)    Dot               2     Y    
BACKUP: 150.000000 300.000000 (255,255,0)    Dot               2    
ENDTRACK: 
#
#   TRACK 5
#
STARTTRACK: 
 LEFTX: 13.500000 inch
 RIGHTX: 18.500000 inch
 SCALETYPE: Linear
 NUMCHARTDIVISIONS: 10
CURVE: RHOB  2.000000   3.000000   (0,0,255)      Solid             2     Y    
BACKUP: 1.000000   2.000000   (0,0,255)      Solid             2    
CURVE: PEF   0.000000   10.000000  (0,131,131)    Dot               2     N    
ENDTRACK: 
#
#   TRACK 6
#
STARTTRACK: 
 LEFTX: 13.500000 inch
 RIGHTX: 18.500000 inch
 SCALETYPE: Linear
 NUMCHARTDIVISIONS: 10
CURVE: DT4P  240.000000 40.000000  (255,0,255)    Solid             2     N    
ENDTRACK: 
<DescLogPlotEnd>
~A DEPTH     ILD              SP               DPHI             NPHI             CALI             GR               RHOB             PEF              DT4P            
# ...
   10171.100 12.70089240      -12.24047273     -0.00251478      0.14294885       8.61156666       102.67114282     2.65543214       3.34931665       61.51508616     
   10171.200 12.57426723      -12.26076175     -0.00362761      0.14170512       8.61051877       102.02131257     2.65788778       3.33900964       61.53460502     
   10171.300 12.46070473      -12.28367520     -0.00503040      0.14046138       8.60885029       101.43000779     2.66022766       3.32522634       61.57717371     
   10171.400 12.33698286      -12.30857414     -0.00616079      0.13921765       8.60691778       100.80553948     2.66199995       3.30574066       61.62519870     
   10171.500 12.22440283      -12.33208538     -0.00653448      0.13797392       8.60516404       100.18693117     2.66308738       3.28373242       61.61596684     
   10171.600 12.10457359      -12.35451874     -0.00741637      0.13610832       8.60360435       99.65509426      2.66380053       3.26362368       62.05231388     
   10171.700 11.98986654      -12.37769334     -0.00752257      0.13610832       8.60198570       99.17484283      2.66440316       3.24489674       62.33400402     
   10171.800 11.87604533      -12.40140835     -0.00752257      0.13505517       8.60024467       98.65084387      2.66483974       3.22444276       62.61569416     
   10171.900 11.76330465      -12.42481358     -0.00752257      0.13435306       8.59854846       98.08195134      2.66507021       3.20379544       63.03822938     
   10172.000 11.65163423      -12.44805256     -0.00717868      0.13329990       8.59694310       97.57501747      2.66522946       3.18886839       63.03822938     
   10172.100 11.54102390      -12.47133545     -0.00694942      0.13329990       8.59528504       97.27820468      2.66521413       3.18197064       63.94366197     
   10172.200 11.43146362      -12.49454880     -0.00672016      0.13278407       8.59351381       97.30038618      2.66476958       3.17901001       64.54728370     
   10172.300 11.32294340      -12.51794800     -0.00649090      0.13244018       8.59188307       97.57397567      2.66435345       3.17562854       65.15090543     
   10172.400 11.21545338      -12.54170621     -0.00626164      0.13209629       8.59079846       97.80548709      2.66479462       3.17179500       65.75452716     
   10172.500 11.10898377      -12.56490759     -0.00591775      0.13175240       8.59047255       97.78763206      2.66526454       3.16834684       66.35814889     
   10172.600 11.00352489      -12.58726464     -0.00591775      0.13140851       8.59067919       97.80943156      2.66328547       3.16390927       66.96177062     
   10172.700 10.89906715      -12.61073394     0.00010030       0.13089268       8.59082388       98.46242817      2.65798442       3.15888520       67.56539235     
   10172.800 10.79560103      -12.63578687     0.00611836       0.13089268       8.59056615       99.89989340      2.65145994       3.15875228       68.16901408     
   10172.900 10.69311713      -12.65878900     0.00611836       0.13249749       8.59036866       101.61208379     2.64500336       3.16826757       68.77263581     
   10173.000 10.59160612      -12.67880754     0.02088265       0.13410231       8.59075680       103.10020021     2.63598514       3.18409187       69.37625755     
   10173.100 10.49105877      -12.70282738     0.03072551       0.13410231       8.59106014       104.41243457     2.62120724       3.19881771       69.97987928     
   10173.200 10.39146592      -12.73418285     0.04056837       0.13691073       8.59029376       105.77142736     2.60211113       3.21134091       70.58350101     
   10173.300 10.29281853      -12.75912858     0.05041123       0.13971916       8.58972802       107.08340902     2.58311948       3.22631542       71.18712274     
   10173.400 10.19510760      -12.75833879     0.06025410       0.13971916       8.59255516       108.19592830     2.56492729       3.24287235       71.79074447     
   10173.500 10.09832425      -12.73158090     0.07009696       0.15333501       8.60018196       109.29406883     2.54714352       3.25466830       72.69617706     
   10173.600 10.00245968      -12.69807487     0.07993982       0.16241224       8.61043599       110.63964776     2.52671725       3.26500696       72.69617706     
   10173.700 9.90750517       -12.67192853     0.08978268       0.17148947       8.62041991       112.17177913     2.50678963       3.29304758       72.29376258     
   10173.800 9.81345206       -12.65001778     0.09962554       0.18056670       8.62936209       113.72328069     2.49166310       3.35522676       71.89134809     
   10173.900 9.72029182       -12.62517224     0.10946841       0.18964393       8.63803212       115.31495994     2.47727879       3.44591729       71.89134809     
   10174.000 9.62801595       -12.59815910     0.11931127       0.19872116       8.64724147       116.86718361     2.46108284       3.54385196       71.35874068     
   10174.100 9.53661607       -12.57269929     0.12915413       0.21233701       8.65716782       117.92467884     2.44410280       3.63502555       71.00366907     
   10174.200 9.44608387       -12.54841595     0.13899699       0.21233701       8.66678003       118.16908805     2.42829246       3.72314323       70.64859747     
   10174.300 9.31189444       -12.52330330     0.15376128       0.21339017       8.67496469       117.97798274     2.41367680       3.81710790       70.29352586     
   10174.400 9.31189444       -12.49757959     0.15376128       0.21409228       8.68335409       117.94021623     2.39394454       3.91405348       69.93845425     
   10174.500 9.34070004       -12.47226832     0.16098295       0.21514544       8.69461500       117.98682681     2.37605304       4.00411908       69.58338265     
   10174.600 9.35995326       -12.44724562     0.16098295       0.21514544       8.70566438       117.61118198     2.37830711       4.08938923       69.22831104     
   10174.700 9.37924617       -12.42203563     0.15677031       0.20743480       8.70719826       116.74503910     2.39326195       4.18633793       68.87323944     
   10174.800 9.39857884       -12.39669481     0.15255767       0.20229438       8.69407904       115.71661346     2.40298572       4.29439048       68.51816783     
   10174.900 9.41795136       -12.37145035     0.15255767       0.19715396       8.67210698       114.47161399     2.41444264       4.39447775       68.16309622     
   10175.000 9.43736382       -12.34629159     0.13570712       0.19201354       8.65036163       112.63110623     2.42788211       4.43750896       67.80802462     
   10175.100 9.45681628       -12.32104712     0.12447342       0.18687312       8.63117683       110.34358048     2.43665964       4.44836714       67.45295301     
   10175.200 9.48607019       -12.29582278     0.11323972       0.18173270       8.61187101       108.30663660     2.44638256       4.46467086       67.09788141     
   10175.300 9.48607019       -12.27069043     0.10200602       0.17659228       8.59167280       106.85444679     2.46869636       4.48944598       66.74280980     
   10175.400 9.56171073       -12.24554419     0.09077232       0.17145186       8.57158891       105.64395640     2.48949320       4.51775047       66.38773819     
   10175.500 9.61247254       -12.22017643     0.07953862       0.16631143       8.55119837       104.29284354     2.50452274       4.52682331       65.85513078     
   10175.600 9.66350384       -12.19485722     0.06268806       0.16117101       8.53045469       102.77386361     2.52409615       4.50372837       65.85513078     
   10175.700 9.71480605       -12.16999542     0.06268806       0.15603059       8.51215369       101.18765356     2.54027329       4.50020272       65.75452716     
   10175.800 9.76638063       -12.14499754     0.04974925       0.15089017       8.49872403       99.64447824      2.55282668       4.51921406       65.65392354     
   10175.900 9.81822900       -12.11914498     0.04112337       0.14574975       8.48863135       98.37062879      2.56687766       4.43805705       65.65392354     
