~Version ---------------------------------------------------
VERS. 2.0 : CWLS log ASCII Standard -VERSION 2.0
WRAP.  NO : One Line Per Depth Step
~Well ------------------------------------------------------
STRT .FT              8400.0 : START DEPTH
STOP .FT              9700.0 : STOP DEPTH
STEP .FT  0.1000000000003638 : STEP
NULL .               -999.25 : NULL VALUE
COMP .  PRESIDIO OIL COMPANY : COMPANY
WELL .     J.T. FEDERAL NO.5 : WELL
FLD  .   SOUTH HAY RESOURCES : FIELD
LOC  . 1266' FNL & 1684' FEL : LOCATION
CNTY .            SWEETWATER : COUNTY
STAT .               WYOMING : STATE
CTRY .                   USA : COUNTRY
SRVC .                       : SERVICE COMPANY
DATE .            30/06/1993 : DATE
API  .            4903723152 : API NUMBER
UWI  .               3723152 : UWI NUMBER
TVD  .                    NO : TVD flag
WSTA .                   LOC : Well status
USGS .                  S179 : USGS Number
LATI .DEG           41.97079 : LATITUDE
LONG .DEG           -108.322 : LONGITUDE
UTM-N.            4650002.36 : Northing
UTM-E.             721895.66 : Easting
CORE .                   N/A : Core/Log Offset
~Curve Information -----------------------------------------
DEPT    .FT                : Depth in Feet
GR      .GAPI 35 310 01 01 : Gamma Ray
SP      .MV   01 010 01 01 : Spontaneous Potential
CALI    .IN   70 280 01 01 : Caliper
ILD     .OHMM 05 120 46 01 : Deep Induction Standard Processed Resistivity
DPHI    .V/V  45 890 01 01 : Density Porosity
NPHI    .V/V  42 890 03 01 : Neutron Porosity
PE      .B/E               : PE
DT      .US/F 60 520 08 01 : Delta-T
ACOUSTIC.DEC               : ACOUSTIC
~Params ----------------------------------------------------
DATE. 30-06-1993 : Date As Month-Day-Year
RUN .        ONE : Run Number
PDAT.        UNK : Permanent Datum
EPD .FT   6607.0 : Elevation Of Perm. Datum
LMF .         KB : Log Measured From
FAPD.FT     16.0 : Feet Above Perm. Datum
DMF .         KB : Drilling Measured From
EKB .FT   6623.0 : Elevation Of Kelly Bushing
EDF .FT   6622.0 : Elevation Of Derrick Floor
EGL .FT   6607.0 : Elevation Of Ground Level
TD  .FT   9700.0 : Total Depth
DD  .FT   9780.0 : Depth Driller
DL  .FT   9724.0 : Depth Logger
BLI .FT   9720.0 : Bottom Log Interval
CSIZ.IN  9.625IN : Casing Size
CBD1.       1698 : Casing Bottom (Driller) 1
CBL1.       1697 : Casing Bottom (Logger) 1
BS  .IN  7.875IN : Bit Size
DFT .        GEL : Drilling Fluid Type
DFV .S      55.0 : Drilling Fluid Viscosity
DFD .LB/G   10.2 : Drilling Fluid Density
DFL .ML      7.6 : Drilling Fluid Loss
DFPH.        9.5 : Drilling Fluid Ph
MSS .   FLOWLINE : Mud Sample Source
RMS .OHMM    1.5 : Resistivity Of Mud Sample
MST .DEGF   74.0 : Mud Sample Temperature
RMF .OHMM    1.8 : Mud Filtrate Resistivity
MFST.DEGF   66.0 : Mud Filtrate Sample Temperature
RMC .OHMM   2.44 : Mud Cake Resistivity
MCST.DEGF   69.0 : Mud Cake Sample Temperature
RMB .OHMM    0.6 : Mud Resistivity At Bht
BHT .DEGF  197.0 : Bottom Hole Temperature
MRT .DEGF  197.0 : Maximum Recorded Temperature
LUN .      52546 : Logging Unit Number
LUL .      VERNL : Logging Unit Location
ENGI.    K EVATT : Engineer'S Name
WITN.    HEFFNER : Witness' Name
DGBY.        R2V : 
WSTA.        LOC : 
~Other -----------------------------------------------------
<DescLogPlotStart>   NEURALOG PLOT DEFINITION
PLOTDEFVERSION: 3
LASFILE: C:\nds\projects\mf-nov-13\las\3723152A.las
DEPTHSCALE: 240.000000
RESOLUTION: 200
DEPTHLABELFREQ: 100.000000
HEAVYGRIDFREQ: 100.000000
MEDIUMGRIDFREQ: 50.000000
LIGHTGRIDFREQ: 10.000000
#
#   TRACK 1
#
STARTTRACK:
LEFTX: 0.500000 inch
RIGHTX: 3.000000 inch
SCALETYPE: Linear
NUMCHARTDIVISIONS: 10
CURVE: GR    0.000000   150.000000 (0,0,255)      Solid             2     N
CURVE: SP    -100.000000 0.000000   (0,131,131)    Dot               2     N
ENDTRACK:
#
#   TRACK 2
#
STARTTRACK:
LEFTX: 0.500000 inch
RIGHTX: 3.000000 inch
SCALETYPE: Linear
NUMCHARTDIVISIONS: 10
CURVE: CALI  6.000000   16.000000  (255,0,255)    Solid             2     Y
BACKUP: -4.000000  6.000000   (255,0,255)    Solid             2
ENDTRACK:
#
#   TRACK 3
#
STARTTRACK:
LEFTX: 3.500000 inch
RIGHTX: 8.500000 inch
SCALETYPE: Log
NUMCYCLES: 4
STARTCYCLE: 2
CURVE: ILD   0.200000   2000.000000 (255,0,0)      Solid             2     N
ENDTRACK:
#
#   TRACK 4
#
STARTTRACK:
LEFTX: 3.500000 inch
RIGHTX: 8.500000 inch
SCALETYPE: Linear
NUMCHARTDIVISIONS: 10
CURVE: DPHI  0.300000   -0.100000  (255,131,0)    Solid             2     Y
BACKUP: 0.700000   0.300000   (255,131,0)    Solid             2
CURVE: NPHI  0.300000   -0.100000  (255,255,0)    Dot               2     Y
BACKUP: 0.700000   0.300000   (255,255,0)    Dot               2
ENDTRACK:
#
#   TRACK 5
#
STARTTRACK:
LEFTX: 3.500000 inch
RIGHTX: 6.000000 inch
SCALETYPE: Linear
NUMCHARTDIVISIONS: 10
CURVE: PE    0.000000   10.000000  (0,0,255)      Solid             2     N
ENDTRACK:
#
#   TRACK 6
#
STARTTRACK:
LEFTX: 8.500000 inch
RIGHTX: 13.500000 inch
SCALETYPE: Linear
NUMCHARTDIVISIONS: 10
CURVE: DT    140.000000 40.000000  (0,131,131)    Solid             2     Y
BACKUP: 40.000000  -60.000000 (0,131,131)    Solid             2
CURVE: ACOUSTIC 0.300000   -0.100000  (255,0,255)    Dot               2     Y
BACKUP: 0.700000   0.300000   (255,0,255)    Dot               2
BACKUP: -0.100000  -0.500000  (255,0,255)    Dot               2
ENDTRACK:
<DescLogPlotEnd>
~ASCII -----------------------------------------------------
# ...
 8567.90000   64.34598  -29.90123   10.17135   22.68253    0.03396    0.12569    2.95254   68.37463    0.12283
 8568.00000   65.31923  -29.84831   10.17008   22.55046    0.03282    0.12583    2.96104   68.27820    0.12166
 8568.10000   66.19888  -29.79540   10.16880   22.43283    0.03167    0.12596    2.97810   68.18178    0.12049
 8568.20000   66.98516  -29.74248   10.16753   22.30485    0.03053    0.12610    2.99917   68.08535    0.11927
 8568.30000   67.84614  -29.68957   10.16625   22.18556    0.02939    0.12624    3.01839   67.98892    0.11927
 8568.40000   68.81805  -29.63665   10.16498   22.06200    0.02825    0.12638    3.03538   67.89249    0.11927
 8568.50000   69.85098  -29.58374   10.16370   21.94112    0.02711    0.12652    3.05330   67.79607    0.11927
 8568.60000   70.93573  -29.53082   10.16243   21.82160    0.02622    0.12663    3.07265   67.69964    0.11927
 8568.70000   72.06305  -29.47791   10.16116   21.69958    0.02437    0.12741    3.09086   67.60321    0.11927
 8568.80000   73.19084  -29.42499   10.15988   21.58319    0.02285    0.12806    3.10686   67.50679    0.11927
 8568.90000   74.29776  -29.37208   10.15861   21.46365    0.02133    0.12870    3.12240   67.40407    0.11927
 8569.00000   75.40148  -29.31921   10.15733   21.34573    0.01985    0.12935    3.13878   67.33552    0.11927
 8569.10000   76.51410  -29.26620   10.15606   21.25459    0.01824    0.12999    3.15511   67.35595    0.11927
 8569.20000   77.63654  -29.21317   10.15478   21.14126    0.01684    0.13064    3.17032   67.39372    0.11927
 8569.30000   78.75668  -29.16036   10.15351   21.04907    0.01517    0.13128    3.18473   67.40761    0.11927
 8569.40000   79.85518  -29.10763   10.15223   20.95727    0.01380    0.13193    3.19916   67.43802    0.11927
 8569.50000   80.95289  -29.05440   10.15096   20.86588    0.01274    0.13232    3.21390   67.57356    0.12012
 8569.60000   82.09291  -29.00101   10.14968   20.77489    0.00911    0.13471    3.22900   67.69648    0.12077
 8569.70000   83.23479  -28.94866   10.14841   20.68429    0.00637    0.13643    3.24411   67.79972    0.12142
 8569.80000   84.30114  -28.89659   10.14713   20.59409    0.00369    0.13814    3.25837   67.91936    0.12206
 8569.90000   85.36035  -28.84253   10.14586   20.50428    0.00107    0.13986    3.27228   68.02642    0.12271
 8570.00000   86.57007  -28.78801   10.14458   20.41486   -0.00173    0.14158    3.28794   68.14188    0.12336
 8570.10000   87.86064  -28.73711   10.14331   20.28278   -0.00544    0.14330    3.30523   68.25372    0.12401
 8570.20000   88.92797  -28.68724   10.14203   20.28278   -0.00536    0.14501    3.31980   68.36469    0.12466
 8570.30000   89.58987  -28.63019   10.14076   20.28278   -0.00470    0.14736    3.32814   68.48089    0.12531
 8570.40000   89.93936  -28.56781   10.13949   20.28278   -0.00441    0.14733    3.33235   68.58926    0.12617
 8570.50000   90.20634  -28.51623   10.13821   20.28278   -0.00378    0.14704    3.33668   68.70129    0.12602
 8570.60000   90.62017  -28.48620   10.13694   20.28278   -0.00343    0.14696    3.34209   68.81333    0.12581
 8570.70000   91.19454  -28.46887   10.13566   20.28278   -0.00288    0.14670    3.34754   68.92537    0.12560
 8570.80000   91.50324  -28.44947   10.13439   20.28278   -0.00245    0.14657    3.35335   69.05680    0.12539
 8570.90000   91.04713  -28.42565   10.13311   20.28278   -0.00198    0.14636    3.35930   69.01941    0.12518
 8571.00000   89.91581  -28.40357   10.13184   20.38429   -0.00144    0.14618    3.36194   68.97421    0.12495
 8571.10000   88.64285  -28.38437   10.13057   20.55631   -0.00003    0.14502    3.35827   68.92901    0.12429
 8571.20000   87.36614  -28.36435   10.12930   20.72977    0.00161    0.14376    3.34996   68.88380    0.12357
 8571.30000   85.75763  -28.34271   10.12802   20.90471    0.00318    0.14246    3.34113   68.83860    0.12284
 8571.40000   83.77937  -28.32153   10.12675   21.08112    0.00481    0.14124    3.33366   68.79339    0.12211
 8571.50000   81.82106  -28.30120   10.12548   21.25901    0.00639    0.13989    3.32672   68.75254    0.12139
 8571.60000   80.06548  -28.28060   10.12422   21.43841    0.00801    0.13872    3.31906   68.46349    0.12066
 8571.70000   78.36040  -28.25962   10.12294   21.61932    0.00960    0.13755    3.31058   68.19980    0.11993
 8571.80000   76.62736  -28.23877   10.12164   21.85989    0.01121    0.13482    3.30252   67.93611    0.11921
 8571.90000   74.86918  -28.21808   10.12039   22.00570    0.01279    0.13225    3.29599   67.67241    0.11848
 8572.00000   72.97607  -28.19734   10.11915   22.22090    0.01439    0.12989    3.28949   67.40872    0.11775
 8572.10000   70.97528  -28.17650   10.11786   22.43821    0.01599    0.12746    3.27922   67.14503    0.11703
 8572.20000   69.23615  -28.15572   10.11652   22.65764    0.01759    0.12503    3.26329   66.88134    0.11630
 8572.30000   68.03243  -28.13491   10.11530   22.87921    0.01919    0.12260    3.24433   66.61765    0.11557
 8572.40000   67.13215  -28.11411   10.11412   23.10295    0.02078    0.12016    3.22660   66.35396    0.11485
 8572.50000   66.09644  -28.09331   10.11228   23.32888    0.02238    0.11890    3.21134   66.21704    0.11412
 8572.60000   64.80805  -28.07250   10.10903   23.55702    0.02398    0.11781    3.19610   66.40162    0.11339
 8572.70000   63.53938  -28.05170   10.10446   23.78739    0.02622    0.11707    3.17831   66.52628    0.11237
 8572.80000   62.58855  -28.03089   10.09935   24.02002    0.02703    0.11606    3.15927   66.65093    0.11258
 8572.90000   61.97902  -28.01011   10.09438   24.25491    0.02703    0.11594    3.14347   66.77559    0.11293
 8573.00000   61.52006  -27.98927   10.08956   24.49211    0.02703    0.11575    3.13333   66.90024    0.11329
 8573.10000   61.04829  -27.96839   10.08467   24.73162    0.02703    0.11556    3.12624   67.02489    0.11364
 8573.20000   60.56156  -27.94760   10.07971   24.97348    0.02703    0.11537    3.11891   67.14955    0.11399
 8573.30000   60.17806  -27.92691   10.07478   25.21770    0.02670    0.11519    3.11119   67.27420    0.11434
 8573.40000   60.05189  -27.90599   10.06989   25.46431    0.02628    0.11500    3.10347   67.39886    0.11469
 8573.50000   60.25791  -27.88489   10.06499   25.71333    0.02585    0.11481    3.09429   67.53550    0.11504
 8573.60000   60.66701  -27.86425   10.06006   25.96479    0.02543    0.11462    3.08507   67.63083    0.11540
 8573.70000   61.07831  -27.84396   10.05514   26.21872    0.02501    0.11443    3.08236   67.73631    0.11575
 8573.80000   61.51766  -27.82281   10.05024   26.47533    0.02459    0.11443    3.09020   67.84178    0.11610
 8573.90000   62.15933  -27.80100   10.04533   26.73422    0.02416    0.11162    3.10432   67.94118    0.11643
 8574.00000   62.91200  -27.78076   10.04041   26.99593    0.02374    0.10886    3.11861   67.74037    0.11509
 8574.10000   63.50144  -27.76183   10.03550   27.25988    0.02337    0.10610    3.13204   67.55051    0.11383
 8574.20000   63.93268  -27.73977   10.03059   27.52667    0.02205    0.10334    3.14534   67.36065    0.11256
 8574.30000   64.41852  -27.71386   10.02568   27.79606    0.02089    0.10058    3.15716   67.17079    0.11129
 8574.40000   64.84646  -27.69278   10.02077   28.06757    0.01973    0.09782    3.16874   67.02840    0.11003
 8574.50000   64.84122  -27.68590   10.01586   28.34314    0.01890    0.09506    3.18611   66.43949    0.10876
 8574.60000   64.37213  -27.69118   10.01095   28.61872    0.01681    0.09229    3.21244   65.96836    0.10791
 8574.70000   63.83040  -27.69833   10.00604   28.90134    0.01519    0.08953    3.24314   65.49723    0.10423
 8574.80000   63.45467  -27.70185   10.00113   29.18044    0.01357    0.08677    3.27240   65.02610    0.10145
 8574.90000   63.10445  -27.70428    9.99622   29.47063    0.01195    0.08401    3.29933   64.55497    0.09867
 8575.00000   62.63119  -27.70844    9.99131   29.75369    0.00955    0.08125    3.32560   64.08384    0.09589
 8575.10000   62.13026  -27.71317    9.98640   30.04565    0.00736    0.07840    3.35251   63.61250    0.09311
