~Version ---------------------------------------------------
VERS. 2.0 : CWLS log ASCII Standard -VERSION 2.0
WRAP.  NO : One Line Per Depth Step
~Well ------------------------------------------------------
STRT .FT              12000.0 : START DEPTH
STOP .FT              13400.0 : STOP DEPTH
STEP .FT   0.1000000000003638 : STEP
NULL .                -999.25 : NULL VALUE
COMP . ENRON OIL &GAS COMPANY : COMPANY
WELL .       CEPO-LEWIS 21-38 : WELL
FLD  .             CEPO-LEWIS : FIELD
LOC  .   1205' FWL &1300' FSL : LOCATION
CNTY .             SWEETWATER : COUNTY
STAT .                WYOMING : STATE
CTRY .                    USA : COUNTRY
SRVC .                        : SERVICE COMPANY
DATE .             25/05/1998 : DATE
API  .             4903724185 : API NUMBER
UWI  .                3724185 : UWI NUMBER
TVD  .                     NO : TVD flag
WSTA .                    LOC : Well status
USGS .                   CEPO : USGS Number
LATI .DEG            41.18194 : LATITUDE
LONG .DEG          -108.14139 : LONGITUDE
UTM-N.             4562894.53 : Northing
UTM-E.              739764.57 : Easting
CORE .FT                 -3.9 : Core/Log Offset
~Curve Information -----------------------------------------
DEPT .FT                : Depth in Feet
GR   .GAPI 35 310 01 01 : Gamma Ray
SP   .MV   01 010 01 01 : Spontaneous Potential
CALI .IN   70 280 01 01 : Caliper
AHT90.OHMM              : 
ILD  .OHMM 05 120 46 01 : Deep Induction Standard Processed Resistivity
HCAL .IN                : 
DPHI .V/V  45 890 01 01 : Density Porosity
NPOR .V/V               : Neutron Porosity Output From An Application Program
RHOB .G/C3 42 350 01 01 : Bulk Density
PEF  .b/e               : Photo-Electric Factor
DT   .US/F 60 520 08 01 : Delta-T
SPHI .V/V  61 890 01 01 : Sonic Porosity
RESD .OHMM              : Deep Resistivity - Merged AHT90 & ILD
~Params ----------------------------------------------------
DATE.  25-05-1998 : Date As Month-Day-Year
RUN .         ONE : Run Number
PDAT.         UNK : Permanent Datum
EPD .FT    6416.0 : Elevation Of Perm. Datum
LMF .          KB : Log Measured From
FAPD.FT      21.0 : Feet Above Perm. Datum
DMF .          KB : Drilling Measured From
EKB .FT    6437.0 : Elevation Of Kelly Bushing
EDF .FT    6436.0 : Elevation Of Derrick Floor
EGL .FT    6416.0 : Elevation Of Ground Level
TD  .FT   13400.0 : Total Depth
DD  .FT   12587.0 : Depth Driller
DL  .FT   12616.0 : Depth Logger
BLI .FT   12602.0 : Bottom Log Interval
TLI .FT    2346.0 : Top Log Interval
DFT .    GEL-CHEM : Drilling Fluid Type
LUN .        8269 : Logging Unit Number
LUL . ROCK SPRING : Logging Unit Location
DGBY.         R2V : 
WSTA.         LOC : 
~Other -----------------------------------------------------
<DescLogPlotStart>   NEURALOG PLOT DEFINITION
PLOTDEFVERSION: 3
LASFILE: C:\nds\projects\mf-nov-13\las\3724185G.las
DEPTHSCALE: 240.000000
RESOLUTION: 200
DEPTHLABELFREQ: 100.000000
HEAVYGRIDFREQ: 100.000000
MEDIUMGRIDFREQ: 50.000000
LIGHTGRIDFREQ: 10.000000
#
#   TRACK 1
#
STARTTRACK:
LEFTX: 0.500000 inch
RIGHTX: 3.000000 inch
SCALETYPE: Linear
NUMCHARTDIVISIONS: 10
CURVE: GR    0.000000   150.000000 (0,0,255)      Solid             2     N
CURVE: SP    -100.000000 0.000000   (0,131,131)    Dot               2     Y
BACKUP: 0.000000   100.000000 (0,131,131)    Dot               2
BACKUP: 100.000000 200.000000 (0,131,131)    Dot               2
BACKUP: 200.000000 300.000000 (0,131,131)    Dot               2
BACKUP: 300.000000 400.000000 (0,131,131)    Dot               2
CURVE: CALI  4.000000   14.000000  (255,0,255)    Short_Dash        2     N
CURVE: HCAL  4.000000   14.000000  (255,0,0)      Medium_Dash       2     Y
BACKUP: -6.000000  4.000000   (255,0,0)      Medium_Dash       2
ENDTRACK:
#
#   TRACK 2
#
STARTTRACK:
LEFTX: 3.500000 inch
RIGHTX: 8.500000 inch
SCALETYPE: Log
NUMCYCLES: 4
STARTCYCLE: 2
CURVE: AHT90 0.200000   2000.000000 (255,131,0)    Solid             2     N
CURVE: ILD   0.200000   2000.000000 (255,255,0)    Dot               2     N
ENDTRACK:
#
#   TRACK 3
#
STARTTRACK:
LEFTX: 3.500000 inch
RIGHTX: 8.500000 inch
SCALETYPE: Linear
NUMCHARTDIVISIONS: 10
CURVE: DPHI  0.300000   -0.100000  (0,0,255)      Solid             2     Y
BACKUP: 0.700000   0.300000   (0,0,255)      Solid             2
CURVE: NPOR  0.300000   -0.100000  (0,131,131)    Dot               2     Y
BACKUP: 0.700000   0.300000   (0,131,131)    Dot               2
ENDTRACK:
#
#   TRACK 4
#
STARTTRACK:
LEFTX: 3.500000 inch
RIGHTX: 8.500000 inch
SCALETYPE: Linear
NUMCHARTDIVISIONS: 10
CURVE: RHOB  2.000000   3.000000   (255,0,255)    Solid             2     Y
BACKUP: 1.000000   2.000000   (255,0,255)    Solid             2
BACKUP: 3.000000   4.000000   (255,0,255)    Solid             2
CURVE: PEF   0.000000   20.000000  (255,0,0)      Dot               2     N
ENDTRACK:
#
#   TRACK 5
#
STARTTRACK:
LEFTX: 3.500000 inch
RIGHTX: 8.500000 inch
SCALETYPE: Linear
NUMCHARTDIVISIONS: 10
CURVE: DT    140.000000 40.000000  (255,131,0)    Solid             2     Y
BACKUP: 240.000000 140.000000 (255,131,0)    Solid             2
ENDTRACK:
<DescLogPlotEnd>
~ASCII -----------------------------------------------------
# ...
 12462.80000  -12.77593   -9.40010    8.72721    7.83159    -999.25    -999.25    0.04358    0.17925    2.60768    2.92797   74.11391    0.16623    7.83159
 12462.90000  -12.69073   -9.40923    8.72577    7.83758    -999.25    -999.25    0.04317    0.17740    2.60959    2.90640   73.95372    0.16560    7.83758
 12463.00000  -12.42331   -9.41487    8.72432    7.72929    -999.25    -999.25    0.04280    0.17573    2.61275    2.88478   73.93964    0.16497    7.72929
 12463.10000  -12.10161   -9.42096    8.72287    7.65058    -999.25    -999.25    0.04074    0.17573    2.61635    2.86324   73.91871    0.16419    7.65058
 12463.20000  -11.80813   -9.43783    8.72147    7.57267    -999.25    -999.25    0.03886    0.17573    2.61923    2.84177   73.89779    0.16419    7.57267
 12463.30000  -11.44626   -9.46964    8.72004    7.49555    -999.25    -999.25    0.03698    0.17573    2.62128    2.82013   73.87686    0.16419    7.49555
 12463.40000  -10.91735   -9.50999    8.71853    7.41922    -999.25    -999.25    0.03510    0.17680    2.62304    2.79838   73.85312    0.16450    7.41922
 12463.50000  -10.28976   -9.55096    8.71711    7.34366    -999.25    -999.25    0.03322    0.17772    2.62467    2.77698   73.90187    0.16488    7.34366
 12463.60000   -9.69405   -9.58856    8.71611    7.26888    -999.25    -999.25    0.03135    0.17865    2.62611    2.75577   73.95821    0.16526    7.26888
 12463.70000   -9.15051   -9.62237    8.71565    7.19485    -999.25    -999.25    0.02991    0.17936    2.62764    2.73388   74.01455    0.16564    7.19485
 12463.80000   -8.59282   -9.65799    8.71549    7.12158    -999.25    -999.25    0.02932    0.18233    2.62937    2.71169   74.07089    0.16602    7.12158
 12463.90000   -8.00145   -9.70133    8.71530    7.04906    -999.25    -999.25    0.02884    0.18473    2.63073    2.69074   74.12722    0.16640    7.04906
 12464.00000   -7.42250   -9.74332    8.71504    6.97727    -999.25    -999.25    0.02836    0.18714    2.63130    2.67033   74.18356    0.16678    6.97727
 12464.10000   -6.87409   -9.76966    8.71479    6.90622    -999.25    -999.25    0.02788    0.18955    2.63157    2.64740   74.23990    0.16716    6.90622
 12464.20000   -6.30896   -9.79623    8.71458    6.81960    -999.25    -999.25    0.02740    0.19195    2.63192    2.62294   74.29624    0.16754    6.81960
 12464.30000   -5.70176   -9.86743    8.71436    6.75664    -999.25    -999.25    0.02709    0.19436    2.63171    2.60452   74.35258    0.16792    6.75664
 12464.40000   -5.15255  -10.00093    8.71412    6.78525    -999.25    -999.25    0.02709    0.19587    2.63014    2.59785   74.40892    0.16821    6.78525
 12464.50000   -4.83107  -10.16110    8.71388    6.82136    -999.25    -999.25    0.02803    0.19587    2.62752    2.59922   74.46525    0.16821    6.82136
 12464.60000   -4.77700  -10.30677    8.71366    6.85766    -999.25    -999.25    0.02871    0.19587    2.62477    2.60090   74.52159    0.16821    6.85766
 12464.70000   -4.82406  -10.43674    8.71343    6.89415    -999.25    -999.25    0.02910    0.19587    2.62214    2.60039   74.55734    0.16821    6.89415
 12464.80000   -4.80345  -10.57117    8.71320    6.93084    -999.25    -999.25    0.03146    0.19587    2.61953    2.59977   74.55734    0.16821    6.93084
 12464.90000   -4.76424  -10.71364    8.71297    6.96529    -999.25    -999.25    0.03310    0.19483    2.61730    2.59978   74.36346    0.16715    6.96529
 12465.00000   -4.88318  -10.85440    8.71274    7.00489    -999.25    -999.25    0.03474    0.19411    2.61612    2.59986   74.15846    0.16640    7.00489
 12465.10000   -5.20214  -10.99038    8.71251    7.03914    -999.25    -999.25    0.03716    0.19305    2.61608    2.60045   74.06759    0.16565    7.03914
 12465.20000   -5.58519  -11.12625    8.71228    7.07821    -999.25    -999.25    0.03705    0.19255    2.61666    2.60092   73.90167    0.16459    7.07821
 12465.30000   -5.91202  -11.26576    8.71205    7.18267    -999.25    -999.25    0.03685    0.19162    2.61734    2.59937   73.72795    0.16392    7.18267
 12465.40000   -6.19442  -11.40731    8.71181    7.29054    -999.25    -999.25    0.03664    0.19068    2.61802    2.59813   73.56260    0.16279    7.29054
 12465.50000   -6.50746  -11.54485    8.71158    7.39231    -999.25    -999.25    0.03635    0.18974    2.61874    2.60440   73.38904    0.16167    7.39231
 12465.60000   -6.91507  -11.67770    8.71135    7.50250    -999.25    -999.25    0.03610    0.18880    2.61942    2.62140   73.22280    0.16054    7.50250
 12465.70000   -7.46817  -11.81634    8.71112    7.60837    -999.25    -999.25    0.03569    0.18786    2.61993    2.64415   73.05026    0.15942    7.60837
 12465.80000   -8.17805  -11.96521    8.71089    7.72052    -999.25    -999.25    0.03528    0.18661    2.62026    2.66649   72.88256    0.15829    7.72052
 12465.90000   -8.97735  -12.10799    8.71066    7.83073    -999.25    -999.25    0.03487    0.18595    2.62048    2.68704   72.71147    0.15717    7.83073
 12466.00000   -9.77076  -12.22925    8.71043    7.94476    -999.25    -999.25    0.03446    0.18496    2.62069    2.70584   72.54249    0.15604    7.94476
 12466.10000  -10.53132  -12.33636    8.71020    8.05920    -999.25    -999.25    0.03405    0.18398    2.62092    2.72068   72.37237    0.15492    8.05920
 12466.20000  -11.30405  -12.43441    8.70997    8.17574    -999.25    -999.25    0.03364    0.18299    2.62117    2.72994   72.20260    0.15379    8.17574
 12466.30000  -12.12376  -12.49369    8.70973    8.29411    -999.25    -999.25    0.03323    0.18200    2.62141    2.73526   72.03308    0.15267    8.29411
 12466.40000  -12.96234  -12.47581    8.70950    8.36454    -999.25    -999.25    0.03282    0.18102    2.62161    2.73986   71.86281    0.15154    8.36454
 12466.50000  -13.75464  -12.38544    8.70927    8.36333    -999.25    -999.25    0.03241    0.18003    2.62180    2.74625   71.69541    0.15042    8.36333
 12466.60000  -14.46226  -12.26533    8.70904    8.34900    -999.25    -999.25    0.03192    0.17905    2.62211    2.75451   71.52601    0.14930    8.34900
 12466.70000  -15.10674  -12.14637    8.70881    8.33903    -999.25    -999.25    0.03249    0.17806    2.62262    2.76089   71.35662    0.14817    8.33903
 12466.80000  -15.73031  -12.02889    8.70858    8.32908    -999.25    -999.25    0.03317    0.17707    2.62327    2.76082   71.18722    0.14728    8.32908
 12466.90000  -16.32618  -11.90865    8.70835    8.31914    -999.25    -999.25    0.03386    0.17609    2.62386    2.75452   71.01782    0.14661    8.31914
 12467.00000  -16.84053  -11.79098    8.70812    8.30921    -999.25    -999.25    0.03454    0.17510    2.62428    2.74605   70.84842    0.14605    8.30921
 12467.10000  -17.27005  -11.67508    8.70789    8.29929    -999.25    -999.25    0.03523    0.17412    2.62470    2.73646   70.73441    0.14567    8.29929
 12467.20000  -17.70444  -11.55243    8.70766    8.28939    -999.25    -999.25    0.03595    0.17313    2.62537    2.72257   70.76217    0.14488    8.28939
 12467.30000  -18.21067  -11.42880    8.70742    8.27949    -999.25    -999.25    0.03595    0.17210    2.62612    2.70292   70.78310    0.14428    8.27949
 12467.40000  -18.71033  -11.31836    8.70719    8.26961    -999.25    -999.25    0.03477    0.17170    2.62649    2.67981   70.80402    0.14368    8.26961
 12467.50000  -19.05230  -11.20825    8.70696    8.25974    -999.25    -999.25    0.03353    0.17170    2.62682    2.65469   70.83501    0.14309    8.25974
 12467.60000  -19.18063  -11.07158    8.70673    8.24989    -999.25    -999.25    0.03233    0.17170    2.62828    2.62695   70.87847    0.14249    8.24989
 12467.70000  -19.16240  -10.93642    8.70650    8.24004    -999.25    -999.25    0.03100    0.17170    2.63124    2.59809   70.96217    0.14165    8.24004
 12467.80000  -19.07125  -10.89201    8.70627    8.23021    -999.25    -999.25    0.02970    0.17327    2.63426    2.57112   71.04588    0.14165    8.23021
 12467.90000  -18.92162  -10.98654    8.70604    8.22038    -999.25    -999.25    0.02840    0.17477    2.63576    2.54490   71.12958    0.14223    8.22038
