~Version ---------------------------------------------------
VERS.   2.0 : CWLS log ASCII Standard -VERSION 2.0
WRAP.    NO : One line per depth step
DLM . SPACE : Column Data Section Delimiter
~Well ------------------------------------------------------
STRT.FT   8950.0     : START DEPTH
STOP.FT  10550.0     : STOP DEPTH
STEP.FT      0.5     : STEP
NULL.    -999.25     : NULL VALUE
COMP.        HRM     : COMPANY
WELL.57 Hay Reservoir: WELL
FLD .  Hay Reservoir : FIELD
LOC .     24N 97W    : LOCATION
CNTY.     Sweetwater : COUNTY
STAT.         WY     : STATE
CTRY.          USA   : COUNTRY
SRVC.           SLB? : SERVICE COMPANY
DATE. 11/14/2019     : DATE
API . 4903723193     : API NUMBER
UWI .   3723193A     : UWI NUMBER
TVD .         NO     : TVD flag
WSTA.        LOC     : Well status
USGS.            E952: USGS Number
LATI.DEG     42.04063: LATITUDE
LONG.DEG   -108.36672: LONGITUDE
UTM-N.     4657642.54: Northing
UTM-E.      717951.25: Easting
CORE.              -4: Core/Log Offset
~Curve Information -----------------------------------------
DEPT.FT                : Depth in Feet
DPHI.V/V  45 890 01 01 : Density Porosity
NPHI.V/V  42 890 03 01 : Neutron Porosity
GR  .API  35 310 01 01 : Gamma Ray
CALI.IN   70 280 01 01 : Caliper
RHOB.G/CC 42 350 01 01 : Bulk Density
PEF .BARN              : Photoelectric Effect
ILD .                  : Deep Induction
SP  .                  : Spontaneous Potential
~Params ----------------------------------------------------
~Other -----------------------------------------------------
~ASCII -----------------------------------------------------
# ...
 9670.00000    0.05700    0.09900   59.99100    9.45700    2.55200    2.81100   31.53800  -11.86400
 9670.50000    0.05600    0.09700   60.18800    9.45400    2.55500    2.71500   32.47300  -11.83500
 9671.00000    0.05700    0.09400   60.37200    9.45200    2.55600    2.68600   33.43500  -11.80700
 9671.50000    0.05800    0.09300   61.93200    9.44900    2.55400    2.70500   34.42500  -11.77900
 9672.00000    0.05600    0.09200   64.07100    9.44700    2.55100    2.75400   35.44500  -11.75100
 9672.50000    0.05100    0.09100   64.53300    9.44100    2.55600    2.80400   36.49600  -11.72400
 9673.00000    0.04700    0.09000   63.76200    9.42400    2.56400    2.81800   37.57700  -11.70100
 9673.50000    0.04400    0.08900   63.47600    9.40600    2.57000    2.83100   38.69000  -11.45900
 9674.00000    0.04200    0.08700   64.30300    9.39600    2.57500    2.82700   39.88700  -11.17300
 9674.50000    0.03900    0.08500   66.01000    9.38600    2.57900    2.79800   39.88700  -10.88700
 9675.00000    0.03500    0.08400   68.64300    9.37000    2.58500    2.72500   38.97300  -10.65600
 9675.50000    0.02800    0.09000   71.72400    9.35300    2.59200    2.73400   38.21700  -10.56000
 9676.00000    0.02000    0.09500   75.44600    9.34000    2.60100    2.86700   37.20100  -10.46300
 9676.50000    0.01200    0.10100   80.29200    9.33300    2.61400    3.00100   36.16800  -10.36700
 9677.00000    0.00500    0.10900   87.72000    9.32600    2.62700    3.13500   35.16000  -10.27100
 9677.50000   -0.00300    0.11700   95.17900    9.31900    2.64000    3.21800   34.18100  -10.17500
 9678.00000   -0.01100    0.12100  103.97600    9.31100    2.65400    3.22800   33.22900  -10.07900
 9678.50000   -0.01800    0.12600  106.48300    9.30400    2.66700    3.23900   32.30300   -9.98300
 9679.00000   -0.02100    0.13000  106.84800    9.28700    2.67800    3.27200   31.40400   -9.88700
 9679.50000   -0.02300    0.13400  108.12000    9.27000    2.68400    3.30500   30.52900   -9.79100
 9680.00000   -0.02300    0.13800  109.93100    9.26300    2.68600    3.34900   29.67900   -9.69400
 9680.50000   -0.02000    0.13900  112.42600    9.26300    2.68400    3.57300   28.85300   -9.59800
 9681.00000   -0.01700    0.13800  114.98000    9.26200    2.68000    3.78400   28.04900   -9.50200
 9681.50000   -0.01700    0.13700  116.54900    9.25300    2.67600    3.79700   27.78400   -9.40600
 9682.00000   -0.01800    0.13500  115.86400    9.24400    2.67600    3.64100   27.53500   -9.30900
 9682.50000   -0.01600    0.13400  113.86200    9.24200    2.67700    3.50000   27.35100   -9.30400
 9683.00000   -0.01600    0.13300  111.09000    9.24200    2.67500    3.51100   27.15300   -9.34600
 9683.50000   -0.01900    0.13200  108.13600    9.24200    2.67300    3.52400   26.95600   -9.38900
 9684.00000   -0.02200    0.13200  105.75600    9.23600    2.67600    3.50700   26.76000   -9.43200
 9684.50000   -0.02500    0.13500  104.67600    9.22900    2.68100    3.47100   26.56600   -9.47500
 9685.00000   -0.02600    0.13800  107.53100    9.22200    2.68700    3.47800   26.53200   -9.51800
 9685.50000   -0.02700    0.14100  111.74500    9.20400    2.68900    3.58400   26.53200   -9.56100
 9686.00000   -0.02700    0.14100  116.02500    9.18600    2.69100    3.70000   26.53200   -9.60400
 9686.50000   -0.02700    0.14000  117.22800    9.18200    2.69100    3.77200   26.53200   -9.64700
 9687.00000   -0.02500    0.14000  116.47000    9.18200    2.69200    3.73500   26.53200   -9.69000
 9687.50000   -0.02400    0.14000  116.11600    9.18200    2.69100    3.66600   26.53200   -9.73300
 9688.00000   -0.02400    0.14100  115.93000    9.18200    2.68800    3.63800   26.53200   -9.77600
 9688.50000   -0.02700    0.14300  116.82800    9.18200    2.68600    3.68000   26.53200   -9.81800
 9689.00000   -0.03000    0.14600  119.08100    9.18200    2.68700    3.69700   26.08200   -9.86200
 9689.50000   -0.03300    0.14900  120.59100    9.18200    2.69100    3.67200   25.56200   -9.79300
 9690.00000   -0.03200    0.14600  120.96300    9.18200    2.69900    3.60000   25.56100   -9.64700
 9690.50000   -0.02900    0.14300  120.82200    9.18200    2.70000    3.58800   25.80400   -9.49900
 9691.00000   -0.02700    0.14000  120.67200    9.18200    2.69800    3.55200   26.17300   -9.35200
 9691.50000   -0.02600    0.13800  120.52600    9.18200    2.69600    3.46900   26.54500   -9.20400
 9692.00000   -0.02100    0.13700  120.37900    9.18200    2.69100    3.45400   26.92100   -9.07700
 9692.50000   -0.01600    0.13600  120.19900    9.18200    2.68700    3.53300   27.30300   -9.13900
 9693.00000   -0.01300    0.13300  118.64300    9.18200    2.67600    3.76900   27.69000   -9.19900
 9693.50000   -0.01600    0.12900  115.57100    9.18200    2.67000    4.06400   28.08200   -9.25800
 9694.00000   -0.02500    0.12500  112.51700    9.18300    2.67300    4.17900   28.31000   -9.31700
 9694.50000   -0.03200    0.12500  109.85100    9.20700    2.68600    4.15200   28.08400   -9.37500
 9695.00000   -0.03400    0.13000  108.66100    9.23100    2.69800    4.10300   27.73600   -9.43400
 9695.50000   -0.02500    0.13500  108.94400    9.25500    2.70400    4.02000   27.39200   -9.49300
 9696.00000   -0.01600    0.13900  113.15300    9.27900    2.68700    4.00900   27.02800   -9.55200
 9696.50000   -0.01100    0.14100  117.97700    9.30300    2.67200    4.09600   26.86300   -9.61100
 9697.00000   -0.01000    0.14200  120.82500    9.31200    2.66400    4.20500   26.38200   -9.67000
 9697.50000   -0.01300    0.14400  122.66800    9.32100    2.66500    4.28400   25.91000   -9.72900
 9698.00000   -0.01300    0.14600  123.44200    9.32900    2.67000    4.28300   25.44500   -9.78800
 9698.50000   -0.01400    0.14800  122.04500    9.33800    2.67100    4.23300   24.99000   -9.84500
 9699.00000   -0.01800    0.15000  118.65800    9.34300    2.67200    3.98700   24.54200   -9.82500
 9699.50000   -0.02200    0.15000  117.33800    9.34300    2.68000    3.74300   24.10200   -9.70000
 9700.00000   -0.02700    0.14500  118.58200    9.34300    2.68600    3.48900   23.67100   -9.57600
 9700.50000   -0.02600    0.14000  120.93300    9.34300    2.69100    3.45600   23.30600   -9.45200
 9701.00000   -0.02400    0.13900  121.61000    9.34300    2.68800    3.54600   23.29800   -9.32800
 9701.50000   -0.02100    0.13800  119.41200    9.34300    2.68200    3.71700   23.67300   -9.20400
 9702.00000   -0.02100    0.14200  114.23700    9.34300    2.68000    3.90800   24.30000   -9.07900
 9702.50000   -0.02400    0.14500  106.58800    9.34700    2.68300    4.09900   24.87700   -8.95700
 9703.00000   -0.03000    0.14300   98.71400    9.36500    2.69400    4.29100   24.87500   -8.92000
 9703.50000   -0.03600    0.13400   93.99500    9.38300    2.70500    4.49000   24.60500   -9.06800
 9704.00000   -0.04100    0.12200   94.24500    9.40800    2.71300    4.53500   24.43500   -9.21300
 9704.50000   -0.03800    0.11200  104.90600    9.43400    2.70900    4.34500   24.18400   -9.35900
 9705.00000   -0.03300    0.11200  112.85700    9.46600    2.69900    4.10800   24.27000   -9.50500
 9705.50000   -0.02800    0.12100  117.78600    9.50100    2.69000    4.04000   24.40900   -9.65100
 9706.00000   -0.02600    0.13000  119.78700    9.53000    2.68900    4.05600   23.62500   -9.78900
 9706.50000   -0.02500    0.13500  122.71000    9.54600    2.68800    4.09400   22.33100   -9.68900
 9707.00000   -0.02600    0.13900  126.48000    9.56200    2.68900    4.07400   20.89400   -9.67500
 9707.50000   -0.02600    0.14400  129.50400    9.57800    2.69000    4.00400   19.03400   -9.67900
 9708.00000   -0.02700    0.15200  129.48400    9.59400    2.69200    3.93400   17.34000   -9.67900
 9708.50000   -0.02600    0.16400  127.69600    9.61800    2.68800    3.88000   15.79700   -9.62800
 9709.00000   -0.01900    0.17700  126.42800    9.67200    2.68000    3.90000   14.39100   -9.34900
 9709.50000   -0.01000    0.18900  124.97700    9.72600    2.66200    3.93900   13.10000   -9.07500
