~Version ---------------------------------------------------
VERS.   2.0 : CWLS log ASCII Standard -VERSION 2.0
WRAP.    NO : One line per depth step
DLM . SPACE : Column Data Section Delimiter
~Well ------------------------------------------------------
STRT.FT   8950.0     : START DEPTH
STOP.FT  10550.0     : STOP DEPTH
STEP.FT      0.5     : STEP
NULL.    -999.25     : NULL VALUE
COMP.        HRM     : COMPANY
WELL.57 Hay Reservoir: WELL
FLD .  Hay Reservoir : FIELD
LOC .     24N 97W    : LOCATION
CNTY.     Sweetwater : COUNTY
STAT.         WY     : STATE
CTRY.          USA   : COUNTRY
SRVC.           SLB? : SERVICE COMPANY
DATE. 11/14/2019     : DATE
API . 4903723193     : API NUMBER
UWI .   3723193A     : UWI NUMBER
TVD .         NO     : TVD flag
WSTA.        LOC     : Well status
USGS.            E952: USGS Number
LATI.DEG     42.04063: LATITUDE
LONG.DEG   -108.36672: LONGITUDE
UTM-N.     4657642.54: Northing
UTM-E.      717951.25: Easting
CORE.              -4: Core/Log Offset
~Curve Information -----------------------------------------
DEPT.FT                : Depth in Feet
DPHI.V/V  45 890 01 01 : Density Porosity
NPHI.V/V  42 890 03 01 : Neutron Porosity
GR  .API  35 310 01 01 : Gamma Ray
CALI.IN   70 280 01 01 : Caliper
RHOB.G/CC 42 350 01 01 : Bulk Density
PEF .BARN              : Photoelectric Effect
ILD .                  : Deep Induction
SP  .                  : Spontaneous Potential
~Params ----------------------------------------------------
~Other -----------------------------------------------------
~ASCII -----------------------------------------------------
# ...
 9150.00000    0.01300    0.16700   88.78700    9.27700    2.62600    3.96500   14.20400  -41.50500
 9150.50000    0.01000    0.17300   85.55200    9.24800    2.63200    3.74700   13.71300  -41.42000
 9151.00000    0.00900    0.18900   83.41800    9.24200    2.63300    3.73900   13.23800  -41.33600
 9151.50000    0.00700    0.20400   85.67100    9.24200    2.63600    3.81900   12.97500  -41.33800
 9152.00000    0.00500    0.21400   92.41300    9.24200    2.63900    3.72900   12.87900  -41.85600
 9152.50000    0.00800    0.21200   99.04000    9.24300    2.64000    3.58800   13.82700  -42.23200
 9153.00000    0.01300    0.18100  105.54600    9.22300    2.63500    3.50200   15.44700  -42.51400
 9153.50000    0.01800    0.15200   96.84900    9.18400    2.62500    3.46500   17.61700  -42.79300
 9154.00000    0.02100    0.12400   83.20400    9.12900    2.61800    3.42900   20.09100  -43.07200
 9154.50000    0.01900    0.10000   69.39900    9.04800    2.61600    3.39400   22.91300  -43.35200
 9155.00000    0.01200    0.08600   59.39500    8.96400    2.62400    3.39800   26.13100  -43.63300
 9155.50000   -0.00700    0.07600   50.91100    8.92900    2.63900    3.47700   29.80200  -43.87500
 9156.00000   -0.02500    0.06600   45.04400    8.89700    2.67000    3.55500   33.19200  -43.72000
 9156.50000   -0.04000    0.05800   39.69400    8.86100    2.70000    3.55100   33.12300  -43.56500
 9157.00000   -0.03100    0.06000   38.78700    8.95900    2.71400    3.50600   30.09900  -43.41300
 9157.50000   -0.01900    0.07700   46.85500    9.08200    2.68700    3.48100   26.53600  -43.26200
 9158.00000   -0.00700    0.09900   58.98200    9.20500    2.66100    3.52900   23.39100  -43.10700
 9158.50000   -0.00200    0.12100   70.64500    9.32800    2.65300    3.58300   20.62100  -43.04300
 9159.00000   -0.00100    0.14400   81.09300    9.43100    2.65100    3.59100   18.17900  -42.99800
 9159.50000    0.00200    0.16600   88.91100    9.45200    2.64900    3.60300   16.02700  -42.95200
 9160.00000    0.00500    0.18700   90.41400    9.47500    2.64300    3.68800   14.12900  -42.90900
 9160.50000    0.00500    0.18900   89.01400    9.49800    2.63900    3.71400   12.64300  -42.99700
 9161.00000    0.00300    0.17800   87.66200    9.52000    2.64200    3.87400   12.07200  -43.53200
 9161.50000    0.00400    0.17100   86.71600    9.57700    2.64400    3.99200   11.47500  -44.06200
 9162.00000    0.01300    0.18100   90.11500    9.64300    2.63800    4.08700   10.89600  -44.35500
 9162.50000    0.02600    0.20700   94.11400    9.71100    2.61700    4.10100   10.60200  -44.64500
 9163.00000    0.03800    0.23400   98.12700    9.72700    2.59700    4.13900   10.46600  -44.93800
 9163.50000    0.05200    0.26400  102.13600    9.72700    2.57700    4.20000   10.40700  -45.24100
 9164.00000    0.07600    0.29300  106.12800    9.72700    2.54600    4.27900   10.40700  -45.11200
 9164.50000    0.14100    0.31200  108.62500    9.72700    2.49800    4.33800   11.10400  -44.89500
 9165.00000    0.20800    0.33300  108.29100    9.72800    2.39800    4.19100   11.88500  -44.85500
 9165.50000    0.27900    0.35400  105.36000    9.73500    2.29600    4.02700   13.23200  -44.82200
 9166.00000    0.25900    0.38600  100.33300    9.74300    2.18800    3.86300   14.80200  -44.79000
 9166.50000    0.19400    0.30000   86.65600    9.74000    2.23500    3.69900   16.57500  -44.75600
 9167.00000    0.12900    0.23200   80.63000    9.72200    2.33100    3.53500   17.87300  -44.72300
 9167.50000    0.06400    0.16500   79.77800    9.70900    2.45100    3.40300   18.83100  -44.69000
 9168.00000    0.02800    0.17200   83.51500    9.74900    2.56900    3.39800   18.83100  -44.68800
 9168.50000    0.02500    0.18300   87.82900    9.78800    2.60200    3.45900   18.51000  -44.68800
 9169.00000    0.02300    0.17500   92.14600    9.83500    2.60500    3.60100   18.20000  -44.68700
 9169.50000    0.02300    0.16300   94.65800    9.88200    2.61000    3.66500   17.97800  -44.69100
 9170.00000    0.03900    0.15800   94.69400    9.90700    2.61400    3.53500   18.06200  -44.85000
 9170.50000    0.13200    0.17500   93.43400    9.92700    2.59300    3.37800   18.65700  -45.25100
 9171.00000    0.26100    0.22700   89.51400    9.95400    2.43500    3.22100   19.79300  -45.64900
 9171.50000    0.29900    0.28400   85.02800   10.15500    2.18800    3.06400   21.42500  -46.04200
 9172.00000    0.29900    0.31700   80.52100   10.32200    1.96900    2.90700   23.35200  -46.29700
 9172.50000    0.29900    0.42200   75.81500   10.46800    1.84000    2.75100   25.43400  -46.52500
 9173.00000    0.29900    0.49100   69.94200   10.76300    1.72500    2.65800   29.14700  -46.74800
 9173.50000    0.29900    0.54000   60.05800   11.05000    1.61200    3.06600   35.75600  -46.79400
 9174.00000    0.29900    0.58800   49.63600   11.78100    1.50000    3.76500   43.88100  -46.45600
 9174.50000    0.29900    0.61000   39.75600   12.80800    1.38700    7.94400   53.85300  -46.12500
 9175.00000    0.29900    0.55900   33.45900   13.74800    1.33700   10.02300   62.80800  -45.79200
 9175.50000    0.29900    0.44700   33.32300   14.04400    1.31800   10.00000   55.94100  -45.46000
 9176.00000    0.29900    0.31500   48.34700   13.71200    1.34500    9.99700   47.48000  -45.12700
 9176.50000    0.29900    0.25700   61.79200   12.74700    1.53400    9.98700   40.29800  -44.79200
 9177.00000    0.29900    0.19600   75.66500   11.80300    1.71600    9.95600   36.02200  -44.50000
 9177.50000    0.27600    0.18400   72.20400   10.87500    2.06700   10.14900   34.87200  -44.72000
 9178.00000    0.21300    0.18400   66.78900   10.34900    2.20400    6.02600   34.27500  -44.93800
 9178.50000    0.16200    0.18500   64.17600   10.08900    2.34100    4.11300   33.99400  -44.97200
 9179.00000    0.14300    0.17400   66.74700   10.07900    2.39000    3.14600   33.71600  -44.56700
 9179.50000    0.12500    0.16300   69.66800   10.06500    2.41500    2.85200   33.44000  -44.15300
 9180.00000    0.10600    0.16400   72.27700   10.05100    2.44000    2.74600   33.13900  -43.95100
 9180.50000    0.10500    0.17800   72.59800   10.05600    2.46500    2.58500   33.99600  -43.39200
 9181.00000    0.17000    0.24600   69.89000   10.06300    2.47400    2.58900   35.24700  -42.82700
 9181.50000    0.24800    0.36900   66.29100   10.06900    2.41100    2.81100   36.54400  -42.25800
 9182.00000    0.30100    0.44700   63.70600   10.09400    2.19500    3.00300   37.38200  -41.50400
 9182.50000    0.30000    0.47900   63.78900   10.12200    1.99800    3.19500   37.38200  -40.76400
 9183.00000    0.30000    0.34400   69.90300   10.15000    1.78400    3.29100   37.38200  -40.39900
 9183.50000    0.30000    0.25900   76.73200   10.12700    1.69800    2.95100   37.03700  -40.10000
 9184.00000    0.20600    0.16600   83.53400   10.10100    1.95100    2.69800   34.08500  -39.79800
 9184.50000    0.06300    0.13000   89.26600   10.04200    1.99800    2.54300   31.22900  -39.78200
 9185.00000    0.00900    0.12100   91.60800    9.96600    2.35900    2.76800   28.61200  -40.01700
 9185.50000    0.01000    0.11900   94.01300    9.93000    2.60100    3.06200   26.21500  -39.86500
 9186.00000    0.04900    0.17100   95.58100    9.92900    2.63300    3.33100   24.01800  -39.61000
 9186.50000    0.18400    0.25600   97.20300    9.93300    2.63100    3.42200   23.08900  -39.35300
 9187.00000    0.30000    0.34400  100.81900    9.95400    2.42200    3.56000   23.51400  -39.10700
 9187.50000    0.30000    0.42100  106.12100    9.97600    2.16900    3.34100   23.89200  -38.56400
 9188.00000    0.29900    0.42100  100.92400   10.06900    1.93300    2.90700   24.19400  -37.97700
 9188.50000    0.29900    0.30100   90.76900   10.32000    1.72200    2.47500   20.99500  -37.38100
 9189.00000    0.29900    0.23500   80.56400   10.51900    1.55800    2.09700   18.68900  -36.78700
 9189.50000    0.29900    0.17000   78.17900   10.43400    1.70300    1.94200   17.44300  -36.19200
