~Version Information Block
 VERS.                2.00:     CWLS LOG ASCII STANDARD - VERSION 2.000000
 WRAP.                  NO:     One Line Per Depth Step
#
~Well Information Block
#MNEM.UNIT                     Data                         Information
#----------   ------------------------------------------   ----------------
 STRT.FT                                     8200.0000:     START DEPTH
 STOP.FT                                     9700.0000:     STOP DEPTH
 STEP.FT                                        0.1000:     STEP
 NULL.                                       -999.2500:     NULL VALUE
 COMP.                        PRESIDIO EXPLORATION INC:     COMPANY
 WELL.                                   HAY DAM 34-12:     WELL
 FLD .                                          HAYDAM:     FIELD
 LOC .                                   SEC12-23N-97W:     LOCATION
 CNTY.                                      SWEETWATER:     COUNTY
 STAT.                                         WYOMING:     STATE
 CTRY.                                             USA:     COUNTRY
 SRVC.                                    SCHLUMBERGER:     SERVICE COMPANY
 DATE.                                      26/07/1994:     DATE
 API .                                      4903723385:     API NUMBER
 UWI .                                         3723385:     UWI NUMBER
 TVD .                                              NO:     TVD flag
 WSTA.                                             LOC:     Well status
 USGS.                                            F041:     USGS Number
 LATI.DEG                                     41.97739:     LATITUDE
 LONG.DEG                                   -108.32133:     LONGITUDE
 UTM-N.                                        4650736:     Northing
 UTM-E.                                      721928.25:     Easting
 CORE.                                              -5:     Core/Log Offset
#
~Curve Information Block
#MNEM.UNIT       API CODE      Curve Description
#----------    -------------   -------------------
 DEPT.FT                   :   Depth in Feet
 ILD .OHMM     05 120 46 01:   Deep Induction Standard Processed Resistivity
 SP  .MV       01 010 01 01:   Spontaneous Potential
 RHOB.G/C3     42 350 01 01:   Bulk Density
 PEF .b/e                  :   Photo-Electric Factor
 GR  .GAPI     35 310 01 01:   Gamma Ray
 CALI.IN       70 280 01 01:   Caliper
 DPHI.V/V      45 890 01 01:   Density Porosity
 NPHI.V/V      42 890 03 01:   Neutron Porosity
 DTCO.US/F                 :   Delta-T Compressional
#
~Parameter Information Block
#MNEM.UNIT            Value               Description
#----------    --------------------    -------------------
 DATE.                  26-07-1994:    Date As Month-Day-Year
 RUN .                         ONE:    Run Number
 PDAT.                         UNK:    Permanent Datum
 EPD .FT                 6611.0000:    Elevation Of Perm. Datum
 LMF .                          KB:    Log Measured From
 FAPD.FT                   15.0000:    Feet Above Perm. Datum
 DMF .                          KB:    Drilling Measured From
 EKB .FT                 6627.0000:    Elevation Of Kelly Bushing
 EDF .FT                 6626.0000:    Elevation Of Derrick Floor
 EGL .FT                 6611.0000:    Elevation Of Ground Level
 TD  .FT                 9700.0000:    Total Depth
 DD  .FT                 9735.0000:    Depth Driller
 DL  .FT                 9729.0000:    Depth Logger
 BLI .FT                 9719.0000:    Bottom Log Interval
 TLI .FT                 1716.0000:    Top Log Interval
 CSIZ.IN                  9.625 IN:    Casing Size
 CBD1.                        1715:    Casing Bottom (Driller) 1
 CBL1.                        1716:    Casing Bottom (Logger) 1
 BS  .IN                   7.675IN:    Bit Size
 DFT .                    GEL-CHEM:    Drilling Fluid Type
 DFV .S                    45.0000:    Drilling Fluid Viscosity
 DFD .LB/G                 10.1000:    Drilling Fluid Density
 DFL .ML                    8.0000:    Drilling Fluid Loss
 DFPH.                     10.0000:    Drilling Fluid Ph
 MSS .                     MUDTANK:    Mud Sample Source
 RMS .OHMM                  1.4400:    Resistivity Of Mud Sample
 MST .DEGF                 85.0000:    Mud Sample Temperature
 RMF .OHMM                  1.1700:    Mud Filtrate Resistivity
 MFST.DEGF                 80.0000:    Mud Filtrate Sample Temperature
 RMC .OHMM                  1.3300:    Mud Cake Resistivity
 MCST.DEGF                 80.0000:    Mud Cake Sample Temperature
 RMB .OHMM                  0.7480:    Mud Resistivity At Bht
 BHT .DEGF                170.0000:    Bottom Hole Temperature
 MRT .DEGF                170.0000:    Maximum Recorded Temperature
 LUN .                        8415:    Logging Unit Number
 LUL .                      CASPER:    Logging Unit Location
 ENGI.                 CHRISTENSEN:    Engineer'S Name
 WITN.                       LYNON:    Witness' Name
 DGBY.                         R2V:    
 WSTA.                         LOC:    
#
~Other Information Block
<DescLogPlotStart>   NEURALOG PLOT DEFINITION
PLOTDEFVERSION: 3
LASFILE: C:\nds\projects\mf-nov-13\las\3723385A.las
DEPTHSCALE: 240.000000
RESOLUTION: 200
DEPTHLABELFREQ: 100.000000
HEAVYGRIDFREQ: 100.000000
MEDIUMGRIDFREQ: 50.000000
LIGHTGRIDFREQ: 10.000000
#
#   TRACK 1
#
STARTTRACK: 
 LEFTX: 0.500000 inch
 RIGHTX: 3.000000 inch
 SCALETYPE: Log
 NUMCYCLES: 4
 STARTCYCLE: 2
CURVE: ILD   0.200000   2000.000000 (0,0,255)      Solid             2     N   
ENDTRACK: 
#
#   TRACK 2
#
STARTTRACK: 
 LEFTX: 3.500000 inch
 RIGHTX: 6.000000 inch
 SCALETYPE: Linear
 NUMCHARTDIVISIONS: 10
CURVE: SP    -80.000000 20.000000  (0,131,131)    Solid             2     Y    
BACKUP: 20.000000  120.000000 (0,131,131)    Solid             2    
BACKUP: -180.000000 -80.000000 (0,131,131)    Solid             2    
ENDTRACK: 
#
#   TRACK 3
#
STARTTRACK: 
 LEFTX: 6.000000 inch
 RIGHTX: 11.000000 inch
 SCALETYPE: Linear
 NUMCHARTDIVISIONS: 10
CURVE: RHOB  2.000000   3.000000   (255,0,255)    Solid             2     Y    
BACKUP: 1.000000   2.000000   (255,0,255)    Solid             2    
CURVE: PEF   0.000000   10.000000  (255,0,0)      Dot               2     N    
ENDTRACK: 
#
#   TRACK 4
#
STARTTRACK: 
 LEFTX: 11.000000 inch
 RIGHTX: 13.500000 inch
 SCALETYPE: Linear
 NUMCHARTDIVISIONS: 10
CURVE: GR    0.000000   150.000000 (255,131,0)    Solid             2     Y    
BACKUP: 150.000000 300.000000 (255,131,0)    Solid             2    
CURVE: CALI  6.000000   16.000000  (255,255,0)    Dot               2     Y    
BACKUP: 16.000000  26.000000  (255,255,0)    Dot               2    
ENDTRACK: 
#
#   TRACK 5
#
STARTTRACK: 
 LEFTX: 13.500000 inch
 RIGHTX: 18.500000 inch
 SCALETYPE: Linear
 NUMCHARTDIVISIONS: 10
CURVE: DPHI  0.300000   -0.100000  (0,0,255)      Solid             2     N    
CURVE: NPHI  0.300000   -0.100000  (0,131,131)    Dot               2     Y    
BACKUP: 0.700000   0.300000   (0,131,131)    Dot               2    
ENDTRACK: 
#
#   TRACK 6
#
STARTTRACK: 
 LEFTX: 13.500000 inch
 RIGHTX: 18.500000 inch
 SCALETYPE: Linear
 NUMCHARTDIVISIONS: 10
CURVE: DTCO  240.000000 40.000000  (255,0,255)    Solid             2     N    
ENDTRACK: 
<DescLogPlotEnd>
~A DEPTH     ILD              SP               RHOB             PEF              GR               CALI             DPHI             NPHI             DTCO            
# ...
    9297.600 26.02469209      -6.09380092      2.67501053       3.19092791       78.48215091      8.66028591       -0.01566969      0.08549849       60.42319277     
    9297.700 26.27265066      -6.12240670      2.67440760       3.18737321       78.94997746      8.66019688       -0.01588117      0.08899924       60.34563253     
    9297.800 26.27265066      -6.14941103      2.67393090       3.18357363       79.55621346      8.66010786       -0.01601208      0.09172205       60.26807229     
    9297.900 26.27265066      -6.15176029      2.67353911       3.17948887       80.75054053      8.66001883       -0.01572004      0.09444486       60.18072289     
    9298.000 26.27265066      -6.11978126      2.67307099       3.17604017       82.53432667      8.65992981       -0.01550856      0.09716767       60.21686747     
    9298.100 26.27265066      -6.07095272      2.67257418       3.17424514       84.44404964      8.65984078       -0.01529708      0.09989048       60.25823293     
    9298.200 26.00860826      -6.02657654      2.67213345       3.17394266       86.22477690      8.65975175       -0.01508560      0.10261329       60.29959839     
    9298.300 25.81323745      -5.98861565      2.67168514       3.17407839       87.97927105      8.65966273       -0.01487412      0.10533610       60.34096386     
    9298.400 25.61933422      -5.94862879      2.67118362       3.17412660       89.79485612      8.65957370       -0.01466264      0.10805891       60.38232932     
    9298.500 25.42688755      -5.90552238      2.67076795       3.17423161       91.62561049      8.65948468       -0.01445116      0.11078172       60.42369478     
    9298.600 25.23588649      -5.86369538      2.67060937       3.17422195       93.43658670      8.65939565       -0.01423968      0.11350453       60.46506024     
    9298.700 25.04632019      -5.82348258      2.67069647       3.17393148       95.22425914      8.65930663       -0.01399799      0.11622734       60.50642570     
    9298.800 24.85817787      -5.78246643      2.67087726       3.17405418       97.00179608      8.65921760       -0.01399799      0.11895015       60.54779116     
    9298.900 24.66932719      -5.74065603      2.67103691       3.17476311       98.82447881      8.65912857       -0.01399849      0.12167296       60.58232932     
    9299.000 24.49707845      -5.69930641      2.67115651       3.17376101       100.68455113     8.65903955       -0.01398909      0.12439577       61.02409639     
    9299.100 24.29860564      -5.65830517      2.67127266       3.16792170       102.45676974     8.65895052       -0.01399822      0.12698892       61.40327979     
    9299.200 24.13112982      -5.61707164      2.67146616       3.15706453       104.15177116     8.65886150       -0.01398730      0.12931335       61.78246319     
    9299.300 23.94770567      -5.57570148      2.67183221       3.14432019       106.02593508     8.65877247       -0.01400109      0.13153211       62.16164659     
    9299.400 23.51204583      -5.53444738      2.67238416       3.13244081       108.13852209     8.65868344       -0.01398284      0.13375088       62.54082999     
    9299.500 23.08546425      -5.49327071      2.67301793       3.12120732       110.05391399     8.65859442       -0.01410765      0.13596965       62.80003893     
    9299.600 22.69304004      -5.45208198      2.67361986       3.10918422       111.37169553     8.65850539       -0.01416391      0.13818842       63.09040460     
    9299.700 22.28467131      -5.41089325      2.67418571       3.09673711       112.32306675     8.65841637       -0.01428273      0.14040719       63.32827164     
    9299.800 21.90210747      -5.36971021      2.67478403       3.08531206       113.42143305     8.65832734       -0.01433281      0.14262596       63.55323197     
    9299.900 21.51212416      -5.32847372      2.67541644       3.07426006       114.73463607     8.65823832       -0.01441661      0.14484473       63.77867429     
    9300.000 21.13916537      -5.28721588      2.67600218       3.06147078       115.96050486     8.65814929       -0.01517631      0.14706349       64.01544639     
    9300.100 20.76519174      -5.24610631      2.67654151       3.04761411       117.05219347     8.65806026       -0.01575379      0.14928226       64.23046497     
    9300.200 20.40446242      -5.20504875      2.67716696       3.03656211       118.26989652     8.65797124       -0.01629306      0.15150103       64.47562086     
    9300.300 20.04227247      -5.16365098      2.67789417       3.03106802       119.65182825     8.65788219       -0.01684824      0.15371980       64.79105834     
    9300.400 19.69464916      -5.12219524      2.67844275       3.03103793       120.85892702     8.65779188       -0.01741325      0.15639476       64.88498672     
    9300.500 19.34969321      -5.08147291      2.67852976       3.03556094       121.61875724     8.65770061       -0.01801818      0.15800892       65.00377703     
    9300.600 19.01077922      -5.04074240      2.67826744       3.04297374       122.06309790     8.65761188       -0.01799605      0.16004086       65.15942554     
    9300.700 18.67780139      -4.99860178      2.67801289       3.05009205       122.53856055     8.65752496       -0.01787288      0.16207280       65.28243134     
    9300.800 18.35065574      -4.95668026      2.67786142       3.05554924       123.20729493     8.65743199       -0.01786346      0.16410473       65.43259947     
    9300.900 18.02924011      -4.91732158      2.67755901       3.06253534       123.89228472     8.65733588       -0.01772037      0.16613667       65.56167420     
    9301.000 17.65278079      -4.87727456      2.67691348       3.07450835       124.27549393     8.65725287       -0.01772612      0.16816861       65.70586011     
    9301.100 17.58516556      -4.83231287      2.67603404       3.09016758       124.22310875     8.65717430       -0.01758991      0.16968781       65.84109164     
    9301.200 17.50161752      -4.78872353      2.67512363       3.10592047       123.90653893     8.65707021       -0.01686361      0.16968781       65.97937203     
    9301.300 17.41846641      -4.75805363      2.67425200       3.12080352       123.59026148     8.65696127       -0.01613091      0.16968781       66.11765243     
    9301.400 17.33571036      -4.73821701      2.67339075       3.13595896       123.34994616     8.65689975       -0.01556492      0.16928499       66.25593282     
    9301.500 17.25334748      -4.71329585      2.67251258       3.15156455       123.08906845     8.65684113       -0.01483944      0.16885065       66.39421322     
    9301.600 17.17137592      -4.67522504      2.67161120       3.16692469       122.78899067     8.65668861       -0.01403028      0.16855081       66.53249361     
    9301.700 17.08979381      -4.63228385      2.67071758       3.18206141       122.58589895     8.65654309       -0.01365118      0.16825097       66.67077401     
    9301.800 17.01174527      -4.59320912      2.66986981       3.19744896       122.56066500     8.65671070       -0.01320570      0.16795114       66.80905440     
    9301.900 16.95572932      -4.55619161      2.66901415       3.21293398       122.59986563     8.65732830       -0.01267315      0.16765130       66.94733479     
    9302.000 16.90198166      -4.51706705      2.66806723       3.22805017       122.56743004     8.65816709       -0.01220256      0.16735146       67.08561519     
    9302.100 16.84840438      -4.47697423      2.66715634       3.24314056       122.52738693     8.65894159       -0.01170997      0.16705162       67.22389558     
    9302.200 16.79499693      -4.43809709      2.66658243       3.25883690       122.67310281     8.65962688       -0.01121738      0.16675178       67.36217598     
    9302.300 16.74175877      -4.39964259      2.66642631       3.27444748       123.06886711     8.66033999       -0.01077543      0.16645195       67.50045637     
    9302.400 16.68868938      -4.36052479      2.66643927       3.28899027       123.57677941     8.66109656       -0.01077543      0.16615211       67.63873677     
