~Version ---------------------------------------------------
VERS.   2.0 : CWLS log ASCII Standard -VERSION 2.0
WRAP.    NO : One line per depth step
DLM . SPACE : Column Data Section Delimiter
~Well ------------------------------------------------------
STRT.FT   8950.0     : START DEPTH
STOP.FT  10550.0     : STOP DEPTH
STEP.FT      0.5     : STEP
NULL.    -999.25     : NULL VALUE
COMP.        HRM     : COMPANY
WELL.57 Hay Reservoir: WELL
FLD .  Hay Reservoir : FIELD
LOC .     24N 97W    : LOCATION
CNTY.     Sweetwater : COUNTY
STAT.         WY     : STATE
CTRY.          USA   : COUNTRY
SRVC.           SLB? : SERVICE COMPANY
DATE. 11/14/2019     : DATE
API . 4903723193     : API NUMBER
UWI .   3723193A     : UWI NUMBER
TVD .         NO     : TVD flag
WSTA.        LOC     : Well status
USGS.            E952: USGS Number
LATI.DEG     42.04063: LATITUDE
LONG.DEG   -108.36672: LONGITUDE
UTM-N.     4657642.54: Northing
UTM-E.      717951.25: Easting
CORE.              -4: Core/Log Offset
~Curve Information -----------------------------------------
DEPT.FT                : Depth in Feet
DPHI.V/V  45 890 01 01 : Density Porosity
NPHI.V/V  42 890 03 01 : Neutron Porosity
GR  .API  35 310 01 01 : Gamma Ray
CALI.IN   70 280 01 01 : Caliper
RHOB.G/CC 42 350 01 01 : Bulk Density
PEF .BARN              : Photoelectric Effect
ILD .                  : Deep Induction
SP  .                  : Spontaneous Potential
~Params ----------------------------------------------------
~Other -----------------------------------------------------
~ASCII -----------------------------------------------------
# ...
 9270.00000   -0.01100    0.12500  103.54300    9.48500    2.66400    3.48900   21.68000  -22.88000
 9270.50000   -0.01400    0.12400  105.19300    9.48500    2.66400    3.52000   21.84000  -22.81500
 9271.00000   -0.01800    0.12200  101.75600    9.48500    2.66900    3.43500   21.96200  -22.64000
 9271.50000   -0.02000    0.12100   99.12300    9.48500    2.67400    3.32400   22.17000  -22.46900
 9272.00000   -0.01900    0.11900   99.18100    9.48500    2.68000    3.21600   22.37900  -22.49300
 9272.50000   -0.01600    0.11700  100.37900    9.48500    2.68200    3.15900   22.59100  -22.90100
 9273.00000   -0.01200    0.11400  101.35700    9.48500    2.67800    3.15600   22.80500  -23.29900
 9273.50000   -0.00900    0.11100  100.80800    9.48500    2.67100    3.19800   23.02000  -23.52800
 9274.00000   -0.00800    0.10800   99.09700    9.48500    2.66600    3.22300   23.23800  -23.72300
 9274.50000   -0.00900    0.10600   96.87700    9.48500    2.66400    3.23200   23.45800  -23.91700
 9275.00000   -0.00900    0.10700   95.34500    9.48500    2.66400    3.09300   23.67900  -24.28000
 9275.50000   -0.01000    0.10900   95.67200    9.48500    2.66500    3.01000   23.90300  -24.69000
 9276.00000   -0.01200    0.11100   95.77200    9.48500    2.66600    3.21600   23.96100  -25.10000
 9276.50000   -0.01400    0.11300   94.87700    9.48500    2.66900    3.44300   23.54800  -25.51100
 9277.00000   -0.01700    0.11300   94.76400    9.48300    2.67300    3.48300   23.25300  -25.92000
 9277.50000   -0.01800    0.11400   97.02500    9.47300    2.67800    3.48700   22.65900  -26.30200
 9278.00000   -0.01700    0.11700  101.89200    9.46600    2.67800    3.53300   21.88100  -26.63400
 9278.50000   -0.01600    0.12200  107.18000    9.47500    2.67600    3.55800   21.12600  -26.96800
 9279.00000   -0.02000    0.12900  112.48100    9.48400    2.67700    3.52500   20.39900  -27.30100
 9279.50000   -0.02500    0.13600  115.98300    9.47600    2.68600    3.49900   19.69600  -27.58200
 9280.00000   -0.02600    0.14400  116.92500    9.46500    2.69500    3.55600   19.01800  -27.47900
 9280.50000   -0.02800    0.15300  119.05000    9.47100    2.69600    3.70000   18.36300  -27.38300
 9281.00000   -0.02700    0.15900  121.51400    9.47900    2.69300    3.76900   17.73100  -27.28800
 9281.50000   -0.02400    0.16400  125.62200    9.48800    2.69100    3.70500   17.12000  -27.19300
 9282.00000   -0.01400    0.16800  128.74300    9.50400    2.68100    3.64400   16.53000  -27.09800
 9282.50000    0.00300    0.16900  129.56300    9.52100    2.64900    3.59600   15.96100  -27.00600
 9283.00000    0.03400    0.17000  127.13400    9.53800    2.59300    3.59900   15.41100  -26.76500
 9283.50000    0.06400    0.17600  122.36300    9.55500    2.54000    3.60800   14.93700  -26.48800
 9284.00000    0.09200    0.18800  117.63000    9.57000    2.49800    3.54000   14.86300  -26.22600
 9284.50000    0.09900    0.20100  113.18000    9.57900    2.48500    3.46900   14.79400  -25.62300
 9285.00000    0.08100    0.20600  111.19500    9.58400    2.52800    3.43300   14.78600  -24.99400
 9285.50000    0.06400    0.18700  108.44100    9.57400    2.56100    3.39600   15.15900  -24.36300
 9286.00000    0.04800    0.16100   99.34000    9.56600    2.57300    3.30800   16.17200  -23.77800
 9286.50000    0.04400    0.13700   88.65400    9.57300    2.56300    3.18300   17.23000  -23.85200
 9287.00000    0.05800    0.13100   78.04400    9.58000    2.54400    3.05600   18.36100  -23.94700
 9287.50000    0.07000    0.12400   69.42900    9.58600    2.52400    3.00700   19.56700  -24.03800
 9288.00000    0.07900    0.11800   67.60000    9.58600    2.50700    3.03300   20.85100  -24.12800
 9288.50000    0.08400    0.11700   67.28400    9.58600    2.50700    3.06300   22.21900  -24.31600
 9289.00000    0.08300    0.11700   66.94400    9.57900    2.51700    3.09300   23.96100  -24.56400
 9289.50000    0.07600    0.11800   65.06900    9.57000    2.52900    3.09700   23.74000  -24.81200
 9290.00000    0.06900    0.11800   63.77300    9.56000    2.53800    3.06800   23.11500  -25.06300
 9290.50000    0.06700    0.12000   63.06000    9.55100    2.53900    3.00500   22.47300  -24.97900
 9291.00000    0.06600    0.12500   65.57800    9.54500    2.54100    2.94400   21.84800  -24.64300
 9291.50000    0.06300    0.12600   69.73300    9.54500    2.54600    2.90300   21.24100  -24.30200
 9292.00000    0.06000    0.12400   73.12300    9.54500    2.55100    2.89900   20.65000  -23.96200
 9292.50000    0.05800    0.12300   73.18400    9.54500    2.55600    2.96200   20.07600  -23.62200
 9293.00000    0.05200    0.12600   73.80900    9.54500    2.56700    3.02600   19.51800  -23.28200
 9293.50000    0.04100    0.13000   78.63600    9.55000    2.58600    3.08800   18.97600  -22.94200
 9294.00000    0.02900    0.13300   83.48000    9.55800    2.60900    3.14400   18.44800  -22.60200
 9294.50000    0.01800    0.13400   88.26900    9.56600    2.63100    3.16300   17.93600  -22.29700
 9295.00000    0.00700    0.13500   90.49500    9.56600    2.63900    3.18500   17.43700  -22.07400
 9295.50000    0.00200    0.13500   92.28700    9.56600    2.64500    3.33900   16.95200  -21.85500
 9296.00000    0.00000    0.13800   94.03700    9.56600    2.64900    3.49200   16.84900  -21.63200
 9296.50000   -0.00600    0.14300   94.25400    9.56600    2.66000    3.49100   16.69400  -21.64200
 9297.00000   -0.01400    0.14800   94.41700    9.56600    2.67100    3.45300   16.50000  -21.78900
 9297.50000   -0.01800    0.14800   95.90700    9.56600    2.67800    3.50400   16.43900  -21.93800
 9298.00000   -0.01700    0.14400   98.13700    9.56700    2.67600    3.58400   16.37800  -22.08900
 9298.50000   -0.01400    0.14100  100.10300    9.57300    2.67200    3.59700   16.31700  -22.01200
 9299.00000   -0.01500    0.14100  100.80400    9.58000    2.67300    3.56100   16.25800  -21.76800
 9299.50000   -0.01700    0.14200  100.89600    9.58500    2.67600    3.54000   16.23600  -21.52300
 9300.00000   -0.01600    0.14200  100.99300    9.57700    2.67600    3.56300   16.84900  -21.42000
 9300.50000   -0.01500    0.13900  100.75000    9.56800    2.67600    3.61300   17.39600  -21.74000
 9301.00000   -0.01600    0.13500   97.63800    9.56600    2.67500    3.66300   17.97800  -21.85400
 9301.50000   -0.01400    0.12900   93.18300    9.56600    2.67500    3.71400   18.83200  -21.96100
 9302.00000   -0.01100    0.12100   89.72300    9.56900    2.67000    3.76000   19.54200  -22.06900
 9302.50000   -0.00800    0.11200   87.64000    9.57700    2.66500    3.74000   19.54200  -22.17700
 9303.00000   -0.00800    0.11000   89.18300    9.58600    2.66200    3.75400   19.52100  -22.28600
 9303.50000   -0.00800    0.11600   90.43000    9.63100    2.66300    3.78000   19.44900  -22.48700
 9304.00000   -0.01000    0.12400   91.08500    9.68000    2.66500    3.77000   19.36200  -22.86100
 9304.50000   -0.01200    0.12600   92.69300    9.68700    2.66600    3.72100   19.36600  -23.23200
 9305.00000   -0.01400    0.12500   94.27000    9.68700    2.67000    3.67100   19.00400  -23.60300
 9305.50000   -0.01600    0.12600   95.83700    9.68800    2.67300    3.67600   18.43000  -23.97400
 9306.00000   -0.01500    0.13500   97.48800    9.69600    2.67500    3.68000   17.87600  -24.35000
 9306.50000   -0.01500    0.14300  101.11300    9.70300    2.67300    3.62300   17.33900  -24.93600
 9307.00000   -0.01400    0.15000  104.86100    9.71200    2.67300    3.56700   16.86600  -25.84900
 9307.50000   -0.01300    0.15100  106.17600    9.72100    2.67300    3.55100   16.48800  -26.26000
 9308.00000   -0.01000    0.15200  103.51600    9.73100    2.67100    3.63700   16.11800  -26.58700
 9308.50000   -0.00700    0.15900   99.99100    9.74000    2.66500    3.77200   15.75600  -26.91900
 9309.00000   -0.00700    0.16500   97.91800    9.74800    2.66100    3.90700   15.64600  -27.03400
 9309.50000   -0.00800    0.16800   99.27600    9.74700    2.66200    3.94700   15.64600  -27.10000
