~Version Information Block
 VERS.                2.00:     CWLS LOG ASCII STANDARD - VERSION 2.000000
 WRAP.                  NO:     One Line Per Depth Step
#
~Well Information Block
#MNEM.UNIT                     Data                         Information
#----------   ------------------------------------------   ----------------
 STRT.FT                                    12600.0000:     START DEPTH
 STOP.FT                                    13950.0000:     STOP DEPTH
 STEP.FT                                        0.1000:     STEP
 NULL.                                       -999.2500:     NULL VALUE
 COMP.                        PRESIDIO EXPLORATION INC:     COMPANY
 WELL.                          PICKETLAKE UNIT #40-13:     WELL
 FLD .                                         WILDCAT:     FIELD
 LOC .                           1320' FSL & 1320' FEL:     LOCATION
 CNTY.                                      SWEETWATER:     COUNTY
 STAT.                                         WYOMING:     STATE
 CTRY.                                             USA:     COUNTRY
 SRVC.                                                :     SERVICE COMPANY
 DATE.                                      15/05/1995:     DATE
 API .                                      4903723472:     API NUMBER
 UWI .                                         3723472:     UWI NUMBER
 TVD .                                              NO:     TVD flag
 WSTA.                                             LOC:     Well status
 USGS.                                            F042:     USGS Number
 LATI.DEG                                     42.22387:     LATITUDE
 LONG.DEG                                   -108.34765:     LONGITUDE
 UTM-N.                                     4678038.95:     Northing
 UTM-E.                                       718897.4:     Easting
 CORE.                                              +5:     Core/Log Offset
#
~Curve Information Block
#MNEM.UNIT       API CODE      Curve Description
#----------    -------------   -------------------
 DEPT.FT                   :   Depth in Feet
 DTCO.US/F     60 520 08 01:   DTCO
 SPHI.V/V      61 890 01 01:   Sonic Porosity
 GR  .GAPI     35 310 01 01:   Gamma Ray
 CALI.IN       70 280 01 01:   Caliper
 ILD .OHMM     05 120 46 01:   Deep Induction Standard Processed Resistivity
 SP  .MV       01 010 01 01:   Spontaneous Potential
 PEF .b/e                  :   Photo-Electric Factor
 RHOB.G/C3     42 350 01 01:   Bulk Density
 DPHI.V/V      45 890 01 01:   Density Porosity
 NPHI.V/V      42 890 03 01:   Neutron Porosity
#
~Parameter Information Block
#MNEM.UNIT            Value               Description
#----------    --------------------    -------------------
 DATE.                  15-05-1995:    Date As Month-Day-Year
 RUN .                         ONE:    Run Number
 PDAT.                         UNK:    Permanent Datum
 EPD .FT                 7224.0000:    Elevation Of Perm. Datum
 LMF .                          KB:    Log Measured From
 FAPD.FT                   15.0000:    Feet Above Perm. Datum
 DMF .                          KB:    Drilling Measured From
 EKB .FT                 7240.0000:    Elevation Of Kelly Bushing
 EDF .FT                 7239.0000:    Elevation Of Derrick Floor
 EGL .FT                 7224.0000:    Elevation Of Ground Level
 TD  .FT                13950.0000:    Total Depth
 DD  .FT                13957.0000:    Depth Driller
 DL  .FT                13952.0000:    Depth Logger
 BLI .FT                13925.0000:    Bottom Log Interval
 TLI .FT                10000.0000:    Top Log Interval
 CSIZ.IN                   9.625IN:    Casing Size
 CBD1.                        2520:    Casing Bottom (Driller) 1
 CBL1.                        2518:    Casing Bottom (Logger) 1
 BS  .IN                   7.875IN:    Bit Size
 DFT .                         WTD:    Drilling Fluid Type
 DFV .S                    74.0000:    Drilling Fluid Viscosity
 DFD .LB/G                 10.8000:    Drilling Fluid Density
 DFL .ML                    7.2000:    Drilling Fluid Loss
 DFPH.                      9.5000:    Drilling Fluid Ph
 MSS .                     MUDTANK:    Mud Sample Source
 RMS .OHMM                  4.3300:    Resistivity Of Mud Sample
 MST .DEGF                 65.0000:    Mud Sample Temperature
 RMF .OHMM                  3.3800:    Mud Filtrate Resistivity
 MFST.DEGF                 65.0000:    Mud Filtrate Sample Temperature
 RMC .OHMM                  4.5000:    Mud Cake Resistivity
 MCST.DEGF                 65.0000:    Mud Cake Sample Temperature
 RMB .OHMM                  1.3760:    Mud Resistivity At Bht
 BHT .DEGF                219.0000:    Bottom Hole Temperature
 MRT .DEGF                219.0000:    Maximum Recorded Temperature
 LUN .                        8415:    Logging Unit Number
 LUL .                      CASPER:    Logging Unit Location
 ENGI.               T.CHRISTENSEN:    Engineer'S Name
 WITN.                STEVE HEFNER:    Witness' Name
 DGBY.                         R2V:    
 WSTA.                         LOC:    
#
~Other Information Block
<DescLogPlotStart>   NEURALOG PLOT DEFINITION
PLOTDEFVERSION: 3
LASFILE: C:\nds\projects\mf-nov-13\las\3723472C.las
DEPTHSCALE: 240.000000
RESOLUTION: 200
DEPTHLABELFREQ: 100.000000
HEAVYGRIDFREQ: 100.000000
MEDIUMGRIDFREQ: 50.000000
LIGHTGRIDFREQ: 10.000000
#
#   TRACK 1
#
STARTTRACK: 
 LEFTX: 0.500000 inch
 RIGHTX: 3.000000 inch
 SCALETYPE: Linear
 NUMCHARTDIVISIONS: 10
CURVE: DTCO  140.000000 40.000000  (0,0,255)      Solid             2     N    
CURVE: SPHI  0.300000   -0.100000  (0,131,131)    Dot               2     N    
ENDTRACK: 
#
#   TRACK 2
#
STARTTRACK: 
 LEFTX: 3.500000 inch
 RIGHTX: 6.000000 inch
 SCALETYPE: Linear
 NUMCHARTDIVISIONS: 10
CURVE: GR    0.000000   150.000000 (255,0,255)    Solid             2     Y    
BACKUP: 150.000000 300.000000 (255,0,255)    Solid             2    
CURVE: CALI  6.000000   16.000000  (255,0,0)      Dot               2     N    
ENDTRACK: 
#
#   TRACK 3
#
STARTTRACK: 
 LEFTX: 6.000000 inch
 RIGHTX: 11.000000 inch
 SCALETYPE: Log
 NUMCYCLES: 4
 STARTCYCLE: 2
CURVE: ILD   0.200000   2000.000000 (255,131,0)    Solid             2     N   
ENDTRACK: 
#
#   TRACK 4
#
STARTTRACK: 
 LEFTX: 11.000000 inch
 RIGHTX: 13.500000 inch
 SCALETYPE: Linear
 NUMCHARTDIVISIONS: 10
CURVE: SP    -80.000000 20.000000  (255,255,0)    Solid             2     N    
ENDTRACK: 
#
#   TRACK 5
#
STARTTRACK: 
 LEFTX: 13.500000 inch
 RIGHTX: 18.500000 inch
 SCALETYPE: Linear
 NUMCHARTDIVISIONS: 10
CURVE: PEF   0.000000   10.000000  (0,0,255)      Solid             2     N    
CURVE: RHOB  2.000000   3.000000   (0,131,131)    Dot               2     Y    
BACKUP: 1.000000   2.000000   (0,131,131)    Dot               2    
ENDTRACK: 
#
#   TRACK 6
#
STARTTRACK: 
 LEFTX: 18.500000 inch
 RIGHTX: 23.500000 inch
 SCALETYPE: Linear
 NUMCHARTDIVISIONS: 10
CURVE: DPHI  0.300000   -0.100000  (255,0,255)    Solid             2     N    
CURVE: NPHI  0.300000   -0.100000  (255,0,0)      Dot               2     Y    
BACKUP: 0.700000   0.300000   (255,0,0)      Dot               2    
ENDTRACK: 
<DescLogPlotEnd>
~A DEPTH     DTCO             SPHI             GR               CALI             ILD              SP               PEF              RHOB             DPHI             NPHI            
# ...
   13048.800 63.66620327      0.08772722       92.68338355      9.17754409       26.37965986      -23.59261271     3.21478198       2.65209194       0.00125954       0.11323656      
   13048.900 63.74420760      0.08810962       93.66378682      9.17743161       26.50737560      -23.61609584     3.20780546       2.64852777       0.00326824       0.11297787      
   13049.000 63.82221192      0.08849608       94.77534305      9.17731914       26.63570968      -23.63956969     3.20242131       2.64511147       0.00501338       0.11271917      
   13049.100 63.90021625      0.08888285       96.08265044      9.17720666       26.76466508      -23.66304354     3.19731684       2.64183767       0.00713879       0.11246048      
   13049.200 63.94578313      0.08926536       97.58307502      9.17709419       26.89424480      -23.68651739     3.18714385       2.63825585       0.00877969       0.11220178      
   13049.300 63.91625705      0.08965577       99.13002684      9.17698171       27.02445189      -23.70999124     3.16707189       2.63431946       0.01098754       0.11194309      
   13049.400 63.89522398      0.09003213       100.55509772     9.17686923       27.15549722      -23.73346509     3.13802217       2.63073788       0.01368209       0.11168439      
   13049.500 63.87669059      0.09041640       101.92192397     9.17675676       27.28633368      -23.75693894     3.10550117       2.62809963       0.01368209       0.11142570      
   13049.600 63.85361042      0.09080068       103.47167434     9.17664428       27.41982940      -23.78041279     3.07401728       2.62606870       0.01570225       0.11116700      
   13049.700 63.83444386      0.09118495       105.20646948     9.17653180       27.55107385      -23.80388664     3.04406975       2.62388041       0.01704903       0.11090831      
   13049.800 63.81215113      0.09156922       106.75017868     9.17641933       27.68585200      -23.82736050     3.01365381       2.62130797       0.01839580       0.11064961      
   13049.900 63.79217006      0.09176707       107.79946854     9.17630685       27.81873646      -23.85083435     2.98165237       2.61873450       0.01974258       0.11026157      
   13050.000 63.77063654      0.09176707       108.52400736     9.17619438       27.95421031      -23.87430820     2.94981099       2.61643991       0.02108935       0.11026157      
   13050.100 63.75000282      0.09136546       109.30877226     9.17608190       28.09016153      -23.89777501     2.92025748       2.61419111       0.02243612       0.11026157      
   13050.200 63.72911859      0.09096386       110.27215581     9.17596942       28.22533267      -23.92130052     2.89086646       2.61162280       0.02378290       0.11026157      
   13050.300 63.70808868      0.09056225       111.24799762     9.17585695       28.36423046      -23.94484073     2.85726285       2.60883645       0.02512967       0.11075453      
   13050.400 63.68743026      0.09017135       112.11060173     9.17574447       28.49838268      -23.96827951     2.82175496       2.60639637       0.02647645       0.11108652      
   13050.500 63.66630228      0.08990629       112.88631096     9.17563200       28.64146007      -23.99168607     2.79549192       2.60464822       0.02782322       0.11141851      
   13050.600 63.64558417      0.08964123       113.60365326     9.17551952       28.77383953      -24.01532500     2.78777812       2.60330348       0.02857143       0.11175050      
   13050.700 63.62472725      0.08937617       114.24378561     9.17540704       28.92129250      -24.03903229     2.79714477       2.60188254       0.03005116       0.11208249      
   13050.800 63.60351620      0.08911111       114.83072409     9.17529457       29.05244516      -24.06225293     2.81597141       2.60028638       0.03107560       0.11241449      
   13050.900 63.58366847      0.08884605       115.42322138     9.17518209       29.20301823      -24.08534175     2.83927683       2.59866805       0.03210003       0.11274648      
   13051.000 63.56173760      0.08858099       116.00138177     9.17506962       29.37662300      -24.10935541     2.86535846       2.59707878       0.03312446       0.11307847      
   13051.100 63.54088352      0.08831593       116.49703083     9.17495714       29.38573711      -24.13361214     2.89230314       2.59552051       0.03414889       0.11341046      
   13051.200 63.52002943      0.08805087       116.96949500     9.17484466       29.37775252      -24.15617355     2.91826333       2.59404484       0.03517333       0.11374245      
   13051.300 63.49917535      0.08778581       117.61640235     9.17473219       29.38408298      -24.17826066     2.94347558       2.59275761       0.03581489       0.11407445      
   13051.400 63.47832126      0.08752075       118.53061871     9.17461971       29.37951752      -24.20369493     2.96928957       2.59198193       0.03581489       0.11428571      
   13051.500 63.45746718      0.08725569       119.55703877     9.17450723       29.38220081      -24.23058023     2.99586826       2.59221503       0.03581489       0.11359429      
   13051.600 63.44377510      0.08699063       120.50168342     9.17439476       29.29373192      -24.24864216     3.02193692       2.59349265       0.03581489       0.11308725      
   13051.700 63.33451990      0.08672557       121.35918943     9.17428228       29.18516723      -24.25025173     3.04693997       2.59518103       0.03367404       0.11258021      
   13051.800 63.25319460      0.08646051       122.23718748     9.17416981       29.07831255      -24.24022155     3.07258603       2.59693512       0.03208048       0.11207317      
   13051.900 63.17186930      0.08619545       123.16009195     9.17405733       28.96924995      -24.22932230     3.10013216       2.59938097       0.03098592       0.11156612      
   13052.000 63.09054399      0.08593039       124.07258672     9.17394485       28.86368433      -24.22177020     3.12625700       2.60314082       0.02713711       0.11105908      
   13052.100 63.00921869      0.08574297       124.95957555     9.17383238       28.75556063      -24.21456509     3.14448189       2.60776342       0.02420609       0.11055204      
   13052.200 62.92789339      0.08488621       125.85303327     9.17371990       28.65023746      -24.20566464     3.15214877       2.61231077       0.02127508       0.11004500      
   13052.300 62.84656809      0.08422356       126.76340881     9.17360743       28.54356478      -24.19658052     3.15291823       2.61655501       0.01834406       0.10953796      
   13052.400 62.76524279      0.08356091       127.66873610     9.17349495       28.43823691      -24.18842125     3.15259342       2.62084081       0.01541305       0.10903091      
   13052.500 62.68391749      0.08289826       128.56251342     9.17338247       28.33252978      -24.18036004     3.15492618       2.62522597       0.01248204       0.10860158      
   13052.600 62.60259219      0.08223561       129.46103798     9.17327000       28.22794062      -24.17181218     3.16110019       2.62955386       0.00955102       0.10733220      
   13052.700 62.54016064      0.08172691       130.37456532     9.17315752       28.12373755      -24.16321557     3.17080919       2.63392757       0.00662001       0.10621174      
   13052.800 62.48912316      0.08116157       131.28124253     9.17304505       28.01991915      -24.15485134     3.18325670       2.63839991       0.00368899       0.10517216      
   13052.900 62.44770750      0.08070281       132.13972643     9.17293257       27.91648399      -24.14650924     3.19728345       2.64266743       0.00075798       0.10411047      
   13053.000 62.40629183      0.08024405       132.92653600     9.17282009       27.81343066      -24.13806572     3.21000124       2.64674047       -0.00217304      0.10300284      
   13053.100 62.36487617      0.07978530       133.64605651     9.17270762       27.71075775      -24.12961081     3.21874971       2.65128877       -0.00510405      0.10202774      
