~Version Information Block
 VERS.                2.00:     CWLS LOG ASCII STANDARD - VERSION 2.000000
 WRAP.                  NO:     One Line Per Depth Step
#
~Well Information Block
#MNEM.UNIT                     Data                         Information
#----------   ------------------------------------------   ----------------
 STRT.FT                                     8200.0000:     START DEPTH
 STOP.FT                                     9700.0000:     STOP DEPTH
 STEP.FT                                        0.1000:     STEP
 NULL.                                       -999.2500:     NULL VALUE
 COMP.                        PRESIDIO EXPLORATION INC:     COMPANY
 WELL.                                   HAY DAM 34-12:     WELL
 FLD .                                          HAYDAM:     FIELD
 LOC .                                   SEC12-23N-97W:     LOCATION
 CNTY.                                      SWEETWATER:     COUNTY
 STAT.                                         WYOMING:     STATE
 CTRY.                                             USA:     COUNTRY
 SRVC.                                    SCHLUMBERGER:     SERVICE COMPANY
 DATE.                                      26/07/1994:     DATE
 API .                                      4903723385:     API NUMBER
 UWI .                                         3723385:     UWI NUMBER
 TVD .                                              NO:     TVD flag
 WSTA.                                             LOC:     Well status
 USGS.                                            F041:     USGS Number
 LATI.DEG                                     41.97739:     LATITUDE
 LONG.DEG                                   -108.32133:     LONGITUDE
 UTM-N.                                        4650736:     Northing
 UTM-E.                                      721928.25:     Easting
 CORE.                                              -5:     Core/Log Offset
#
~Curve Information Block
#MNEM.UNIT       API CODE      Curve Description
#----------    -------------   -------------------
 DEPT.FT                   :   Depth in Feet
 ILD .OHMM     05 120 46 01:   Deep Induction Standard Processed Resistivity
 SP  .MV       01 010 01 01:   Spontaneous Potential
 RHOB.G/C3     42 350 01 01:   Bulk Density
 PEF .b/e                  :   Photo-Electric Factor
 GR  .GAPI     35 310 01 01:   Gamma Ray
 CALI.IN       70 280 01 01:   Caliper
 DPHI.V/V      45 890 01 01:   Density Porosity
 NPHI.V/V      42 890 03 01:   Neutron Porosity
 DTCO.US/F                 :   Delta-T Compressional
#
~Parameter Information Block
#MNEM.UNIT            Value               Description
#----------    --------------------    -------------------
 DATE.                  26-07-1994:    Date As Month-Day-Year
 RUN .                         ONE:    Run Number
 PDAT.                         UNK:    Permanent Datum
 EPD .FT                 6611.0000:    Elevation Of Perm. Datum
 LMF .                          KB:    Log Measured From
 FAPD.FT                   15.0000:    Feet Above Perm. Datum
 DMF .                          KB:    Drilling Measured From
 EKB .FT                 6627.0000:    Elevation Of Kelly Bushing
 EDF .FT                 6626.0000:    Elevation Of Derrick Floor
 EGL .FT                 6611.0000:    Elevation Of Ground Level
 TD  .FT                 9700.0000:    Total Depth
 DD  .FT                 9735.0000:    Depth Driller
 DL  .FT                 9729.0000:    Depth Logger
 BLI .FT                 9719.0000:    Bottom Log Interval
 TLI .FT                 1716.0000:    Top Log Interval
 CSIZ.IN                  9.625 IN:    Casing Size
 CBD1.                        1715:    Casing Bottom (Driller) 1
 CBL1.                        1716:    Casing Bottom (Logger) 1
 BS  .IN                   7.675IN:    Bit Size
 DFT .                    GEL-CHEM:    Drilling Fluid Type
 DFV .S                    45.0000:    Drilling Fluid Viscosity
 DFD .LB/G                 10.1000:    Drilling Fluid Density
 DFL .ML                    8.0000:    Drilling Fluid Loss
 DFPH.                     10.0000:    Drilling Fluid Ph
 MSS .                     MUDTANK:    Mud Sample Source
 RMS .OHMM                  1.4400:    Resistivity Of Mud Sample
 MST .DEGF                 85.0000:    Mud Sample Temperature
 RMF .OHMM                  1.1700:    Mud Filtrate Resistivity
 MFST.DEGF                 80.0000:    Mud Filtrate Sample Temperature
 RMC .OHMM                  1.3300:    Mud Cake Resistivity
 MCST.DEGF                 80.0000:    Mud Cake Sample Temperature
 RMB .OHMM                  0.7480:    Mud Resistivity At Bht
 BHT .DEGF                170.0000:    Bottom Hole Temperature
 MRT .DEGF                170.0000:    Maximum Recorded Temperature
 LUN .                        8415:    Logging Unit Number
 LUL .                      CASPER:    Logging Unit Location
 ENGI.                 CHRISTENSEN:    Engineer'S Name
 WITN.                       LYNON:    Witness' Name
 DGBY.                         R2V:    
 WSTA.                         LOC:    
#
~Other Information Block
<DescLogPlotStart>   NEURALOG PLOT DEFINITION
PLOTDEFVERSION: 3
LASFILE: C:\nds\projects\mf-nov-13\las\3723385A.las
DEPTHSCALE: 240.000000
RESOLUTION: 200
DEPTHLABELFREQ: 100.000000
HEAVYGRIDFREQ: 100.000000
MEDIUMGRIDFREQ: 50.000000
LIGHTGRIDFREQ: 10.000000
#
#   TRACK 1
#
STARTTRACK: 
 LEFTX: 0.500000 inch
 RIGHTX: 3.000000 inch
 SCALETYPE: Log
 NUMCYCLES: 4
 STARTCYCLE: 2
CURVE: ILD   0.200000   2000.000000 (0,0,255)      Solid             2     N   
ENDTRACK: 
#
#   TRACK 2
#
STARTTRACK: 
 LEFTX: 3.500000 inch
 RIGHTX: 6.000000 inch
 SCALETYPE: Linear
 NUMCHARTDIVISIONS: 10
CURVE: SP    -80.000000 20.000000  (0,131,131)    Solid             2     Y    
BACKUP: 20.000000  120.000000 (0,131,131)    Solid             2    
BACKUP: -180.000000 -80.000000 (0,131,131)    Solid             2    
ENDTRACK: 
#
#   TRACK 3
#
STARTTRACK: 
 LEFTX: 6.000000 inch
 RIGHTX: 11.000000 inch
 SCALETYPE: Linear
 NUMCHARTDIVISIONS: 10
CURVE: RHOB  2.000000   3.000000   (255,0,255)    Solid             2     Y    
BACKUP: 1.000000   2.000000   (255,0,255)    Solid             2    
CURVE: PEF   0.000000   10.000000  (255,0,0)      Dot               2     N    
ENDTRACK: 
#
#   TRACK 4
#
STARTTRACK: 
 LEFTX: 11.000000 inch
 RIGHTX: 13.500000 inch
 SCALETYPE: Linear
 NUMCHARTDIVISIONS: 10
CURVE: GR    0.000000   150.000000 (255,131,0)    Solid             2     Y    
BACKUP: 150.000000 300.000000 (255,131,0)    Solid             2    
CURVE: CALI  6.000000   16.000000  (255,255,0)    Dot               2     Y    
BACKUP: 16.000000  26.000000  (255,255,0)    Dot               2    
ENDTRACK: 
#
#   TRACK 5
#
STARTTRACK: 
 LEFTX: 13.500000 inch
 RIGHTX: 18.500000 inch
 SCALETYPE: Linear
 NUMCHARTDIVISIONS: 10
CURVE: DPHI  0.300000   -0.100000  (0,0,255)      Solid             2     N    
CURVE: NPHI  0.300000   -0.100000  (0,131,131)    Dot               2     Y    
BACKUP: 0.700000   0.300000   (0,131,131)    Dot               2    
ENDTRACK: 
#
#   TRACK 6
#
STARTTRACK: 
 LEFTX: 13.500000 inch
 RIGHTX: 18.500000 inch
 SCALETYPE: Linear
 NUMCHARTDIVISIONS: 10
CURVE: DTCO  240.000000 40.000000  (255,0,255)    Solid             2     N    
ENDTRACK: 
<DescLogPlotEnd>
~A DEPTH     ILD              SP               RHOB             PEF              GR               CALI             DPHI             NPHI             DTCO            
# ...
    9694.500 9.39945997       24.76414012      2.58086206       3.15852641       172.05672579     -999.25000000    0.03640687       0.22165156       78.71942315     
    9694.600 9.37142006       24.75496458      2.57965310       3.16971984       172.06075388     -999.25000000    0.03744522       0.22165156       79.13727638     
    9694.700 9.34346380       24.73421406      2.57840647       3.17955574       172.06478197     -999.25000000    0.03848037       0.22129909       79.65863454     
    9694.800 9.31559094       24.69271570      2.57711478       3.18993749       172.06881005     -999.25000000    0.03951813       0.22059416       79.71352075     
    9694.900 9.28780122       24.63631159      2.57584877       3.20097561       172.07283814     -999.25000000    0.04055404       0.21988922       79.78647925     
    9695.000 9.26009441       24.57807008      2.57460019       3.21168529       172.07686622     -999.25000000    0.04159093       0.21918429       79.85943775     
    9695.100 9.23247024       24.52307440      2.57333001       3.22205931       172.08089431     -999.25000000    0.04262776       0.21847936       79.93239625     
    9695.200 9.20492849       24.46812000      2.57206429       3.23263480       172.08492239     -999.25000000    0.04366375       0.21777442       80.00535475     
    9695.300 9.17746889       24.41168514      2.57082038       3.24337266       172.08895048     -999.25000000    0.04470140       0.21706949       80.07831325     
    9695.400 9.15529971       24.35567130      2.56954855       3.25399635       172.09297857     -999.25000000    0.04573669       0.21636455       80.15127175     
    9695.500 9.15529971       24.29997758      2.56825086       3.26454806       172.09700665     -999.25000000    0.04677486       0.21565962       80.22423025     
    9695.600 9.15529971       24.24340089      2.56701448       3.27517057       172.10103474     -999.25000000    0.04780940       0.21495468       80.29718876     
    9695.700 9.15529971       24.18783072      2.56581329       3.28585860       172.10506282     -999.25000000    0.04884189       0.21424975       80.37014726     
    9695.800 9.15529971       24.13383703      2.56448374       3.29651365       172.10909091     -999.25000000    0.04987772       0.21354481       80.44310576     
    9695.900 9.15529971       24.07704972      2.56308853       3.30708031       172.11311899     -999.25000000    0.05091354       0.21319235       80.51606426     
    9696.000 9.15529971       24.01778041      2.56206676       3.31767812       172.11714708     -999.25000000    0.05194936       0.21319235       80.58902276     
    9696.100 9.15529971       23.96434470      2.56173676       3.32843728       172.12117517     -999.25000000    0.05275680       0.21319235       80.66265060     
    9696.200 9.15529971       23.91477790      2.56184297       3.33912304       172.12520325     -999.25000000    0.05333585       0.21319235       80.63166954     
    9696.300 9.15529971       23.85296085      2.56188298       3.34949182       172.12923134     -999.25000000    0.05391490       0.21319235       80.60040161     
    9696.400 9.15529971       23.78328516      2.56170356       3.36003477       172.13325942     -999.25000000    0.05449396       0.21319235       80.56913368     
    9696.500 9.15529971       23.74704269      2.56149155       3.37114954       172.13728751     -999.25000000    0.05507301       0.21319235       80.53786575     
    9696.600 9.15529971       23.77554923      2.56135679       3.38187957       172.14131559     -999.25000000    0.05565206       0.21319235       80.50659782     
    9696.700 9.15529971       23.84826535      2.56122809       3.39156933       172.14534368     -999.25000000    0.05623112       0.21339376       80.46184739     
    9696.800 9.15529971       23.92575966      2.56105881       3.40213964       172.14937177     -999.25000000    0.05681017       0.21359517       80.43072289     
    9696.900 9.15529971       23.99771827      2.56088938       3.41490760       172.15339985     -999.25000000    0.05738922       0.21377420       80.37600402     
    9697.000 9.15529971       24.06791528      2.56074177       3.42515852       172.15742794     -999.25000000    0.05796828       0.21413226       80.32128514     
    9697.100 9.15529971       24.12122643      2.56059373       3.42492961       172.16145602     -999.25000000    0.05854733       0.21449032       80.26104418     
    9697.200 9.15529971       24.14050496      2.56043405       3.41265829       172.16548411     -999.25000000    0.05912638       0.21484838       80.10361446     
    9697.300 9.15529971       24.13532995      2.56027384       3.39529534       172.16951220     -999.25000000    0.05970544       0.21520645       79.92851406     
    9697.400 9.15529971       24.12814914      2.56012137       3.37911636       172.17354028     -999.25000000    0.06028449       0.21556451       79.75341365     
    9697.500 9.15529971       24.12938851      2.55997071       3.36372737       172.17756837     -999.25000000    0.06086354       0.21592257       79.57831325     
    9697.600 9.15529971       24.14095856      2.55981114       3.34728942       172.18159645     -999.25000000    0.06144260       0.21628063       79.45783133     
    9697.700 9.15529971       24.16474878      2.55964743       3.33127190       172.18562454     -999.25000000    0.06173212       0.21663869       78.94096386     
    9697.800 9.15529971       24.19668479      2.55949668       3.31628550       172.18965262     -999.25000000    0.06173212       0.21828354       78.54698795     
    9697.900 9.15529971       24.22751803      2.55935156       3.29946511       172.19368071     -999.25000000    0.06173212       0.22121517       78.15301205     
    9698.000 9.15529971       24.25452265      2.55918136       3.28102161       172.19770880     -999.25000000    0.06173212       0.22414681       77.75903614     
    9698.100 9.15529971       24.28185960      2.55900137       3.26806942       172.20173688     -999.25000000    0.06168177       0.22707844       77.36506024     
    9698.200 9.15529971       24.31076476      2.55888433       3.26641461       172.20576497     -999.25000000    0.06158107       0.23001007       76.97108434     
    9698.300 9.15529971       24.33909874      2.55885315       3.27259817       172.20979305     -999.25000000    0.06148036       0.23294170       76.57710843     
    9698.400 9.15529971       24.36714109      2.55882119       3.27899087       172.21382310     -999.25000000    0.06137966       0.23587334       76.18313253     
    9698.500 9.15529971       24.39577818      2.55869967       3.28310244       172.21785830     -999.25000000    0.06127895       0.23880497       75.84337349     
    9698.600 9.15529971       24.42356403      2.55850893       3.28728660       172.22189302     -999.25000000    0.06117825       0.24173660       75.53212851     
    9698.700 9.15529971       24.45081265      2.55832468       3.29263112       172.22591807     -999.25000000    0.06107754       0.24466823       75.25853414     
    9698.800 9.15529971       24.48059553      2.55816791       3.29789476       172.22994598     -999.25000000    0.06097684       0.24761330       74.98493976     
    9698.900 9.15529971       24.51091917      2.55800719       3.30254169       172.23399539     -999.25000000    0.06087613       0.25053887       74.71134538     
    9699.000 9.15529971       24.53240728      2.55782960       3.30723652       172.23803661     -999.25000000    0.06077543       0.25348708       74.43775100     
    9699.100 9.15529971       24.53926275      2.55765484       3.31225839       172.24203459     -999.25000000    0.06067472       0.25641034       74.16415663     
    9699.200 9.15529971       24.53717791      2.55749410       3.31730901       172.24605284     -999.25000000    0.06057402       0.25935962       73.83534137     
    9699.300 9.15529971       24.53551032      2.55733095       3.32218027       172.25015014     -999.25000000    0.06047331       0.26228384       73.77710843     
