~Version ---------------------------------------------------
VERS.   2.0 : CWLS log ASCII Standard -VERSION 2.0
WRAP.    NO : One line per depth step
DLM . SPACE : Column Data Section Delimiter
~Well ------------------------------------------------------
STRT.FT   8950.0     : START DEPTH
STOP.FT  10550.0     : STOP DEPTH
STEP.FT      0.5     : STEP
NULL.    -999.25     : NULL VALUE
COMP.        HRM     : COMPANY
WELL.57 Hay Reservoir: WELL
FLD .  Hay Reservoir : FIELD
LOC .     24N 97W    : LOCATION
CNTY.     Sweetwater : COUNTY
STAT.         WY     : STATE
CTRY.          USA   : COUNTRY
SRVC.           SLB? : SERVICE COMPANY
DATE. 11/14/2019     : DATE
API . 4903723193     : API NUMBER
UWI .   3723193A     : UWI NUMBER
TVD .         NO     : TVD flag
WSTA.        LOC     : Well status
USGS.            E952: USGS Number
LATI.DEG     42.04063: LATITUDE
LONG.DEG   -108.36672: LONGITUDE
UTM-N.     4657642.54: Northing
UTM-E.      717951.25: Easting
CORE.              -4: Core/Log Offset
~Curve Information -----------------------------------------
DEPT.FT                : Depth in Feet
DPHI.V/V  45 890 01 01 : Density Porosity
NPHI.V/V  42 890 03 01 : Neutron Porosity
GR  .API  35 310 01 01 : Gamma Ray
CALI.IN   70 280 01 01 : Caliper
RHOB.G/CC 42 350 01 01 : Bulk Density
PEF .BARN              : Photoelectric Effect
ILD .                  : Deep Induction
SP  .                  : Spontaneous Potential
~Params ----------------------------------------------------
~Other -----------------------------------------------------
~ASCII -----------------------------------------------------
# ...
 9590.00000    0.03900    0.12900   82.39800    9.74200    2.58500    3.27800   28.81100   -9.48600
 9590.50000    0.04100    0.12700   84.76200    9.74400    2.58200    3.24200   29.07600   -9.50500
 9591.00000    0.04200    0.12600   86.87900    9.73500    2.58000    3.17000   29.34400   -9.52400
 9591.50000    0.04100    0.12700   88.03700    9.72800    2.58200    3.14900   29.61500   -9.54300
 9592.00000    0.03700    0.12800   87.70100    9.73700    2.59000    3.22000   29.88800   -9.56100
 9592.50000    0.03100    0.12900   86.29100    9.74500    2.60000    3.29700   30.16300   -9.58000
 9593.00000    0.02700    0.13100   84.86900    9.75700    2.60400    3.32300   30.44100   -9.59800
 9593.50000    0.02200    0.13100   85.16000    9.77100    2.61000    3.33800   30.72200   -9.61700
 9594.00000    0.01800    0.12600   86.04900    9.78500    2.61700    3.33200   31.00500   -9.63600
 9594.50000    0.01500    0.11900   86.81900    9.79500    2.62600    3.26800   31.29100   -9.65400
 9595.00000    0.01300    0.11300   87.36400    9.80500    2.63100    3.22900   31.57900   -9.66900
 9595.50000    0.01100    0.11500   87.17500    9.80800    2.63300    3.20800   31.87000   -9.96600
 9596.00000    0.00800    0.11600   86.87500    9.80800    2.63400    3.23400   31.93400  -10.26300
 9596.50000    0.00600    0.11600   87.15100    9.80800    2.63700    3.27400   31.46700  -10.09600
 9597.00000    0.00700    0.11500   89.06400    9.80800    2.64000    3.28500   30.90500   -9.93900
 9597.50000    0.01000    0.11300   89.72700    9.80800    2.63500    3.32600   30.35400   -9.78200
 9598.00000    0.01300    0.11300   90.16200    9.80800    2.63000    3.39500   29.81300   -9.62600
 9598.50000    0.01300    0.11600   90.79100    9.80800    2.62900    3.52400   29.37900   -9.46900
 9599.00000    0.00800    0.11800   93.21200    9.80800    2.63600    3.53800   28.57800   -9.31200
 9599.50000    0.00400    0.12000   96.27100    9.80800    2.64200    3.49100   27.60600   -9.15500
 9600.00000    0.00500    0.11900   98.64300    9.80800    2.64100    3.47900   26.66800   -9.03400
 9600.50000    0.00600    0.11700   98.63800    9.80800    2.64000    3.47900   25.76100   -8.94900
 9601.00000    0.00200    0.12000   98.63700    9.81400    2.64500    3.46500   24.88500   -8.86500
 9601.50000   -0.00300    0.12400   98.60700    9.82300    2.65100    3.39500   24.03900   -8.78100
 9602.00000   -0.00500    0.12900   99.76500    9.83200    2.65700    3.33700   23.22200   -8.69100
 9602.50000   -0.00700    0.13200  101.20300    9.84000    2.66000    3.34200   22.24900   -8.76500
 9603.00000   -0.00800    0.13400  102.88700    9.84800    2.66200    3.57900   22.30000   -8.89600
 9603.50000   -0.00800    0.13700  105.60100    9.84900    2.66300    3.88400   22.36800   -9.02900
 9604.00000   -0.00900    0.14300  109.23500    9.84800    2.66400    4.20000   22.45600   -9.16000
 9604.50000   -0.00800    0.14800  115.16300    9.84800    2.66400    4.28000   22.45800   -9.30400
 9605.00000   -0.00400    0.14900  119.14600    9.84800    2.65600    4.03300   22.44800   -9.50100
 9605.50000    0.00000    0.14500  119.44000    9.84800    2.64900    3.84500   23.66200   -9.70300
 9606.00000    0.00400    0.13600  109.77300    9.84800    2.64500    3.65800   24.94300   -9.90400
 9606.50000    0.01100    0.12700  101.06800    9.84800    2.63500    3.47200   26.29000  -10.11500
 9607.00000    0.02000    0.11800   92.34600    9.84800    2.62400    3.30800   27.71100  -10.35200
 9607.50000    0.03000    0.11200   83.65000    9.84800    2.60500    3.19200   29.13300  -10.59900
 9608.00000    0.04100    0.10700   74.93600    9.84800    2.58400    3.07700   30.40000  -10.60300
 9608.50000    0.05100    0.10300   66.92900    9.84800    2.56200    2.89400   31.72200  -10.48200
 9609.00000    0.05500    0.09800   65.30700    9.84900    2.55900    2.69400   32.82800  -10.35700
 9609.50000    0.05300    0.09000   65.28600    9.86000    2.56300    2.72000   31.35800  -10.23300
 9610.00000    0.04700    0.07900   64.25900    9.87100    2.57800    2.86900   30.17100  -10.10800
 9610.50000    0.04100    0.06900   59.43900    9.88000    2.58400    3.00800   29.02700   -9.98300
 9611.00000    0.04100    0.07000   53.86700    9.88900    2.57400    3.08000   27.92600   -9.94100
 9611.50000    0.04800    0.08100   53.29300    9.89600    2.56600    2.95200   26.87000  -10.40500
 9612.00000    0.05100    0.08900   56.05600    9.90400    2.56300    2.78200   25.56600  -10.45900
 9612.50000    0.05200    0.09700   59.48300    9.91100    2.56200    2.67200   25.63700  -10.43000
 9613.00000    0.05300    0.10000   62.91900    9.91900    2.55800    2.66700   25.77300  -10.39800
 9613.50000    0.05500    0.10000   65.06500    9.92700    2.55800    2.69900   25.91000  -10.36800
 9614.00000    0.05500    0.09700   65.04600    9.92900    2.55800    2.75000   26.04700  -10.33800
 9614.50000    0.05500    0.09400   64.72800    9.92900    2.55700    2.77000   26.18500  -10.30800
 9615.00000    0.05600    0.09100   64.40300    9.93400    2.55600    2.71900   26.32400  -10.25500
 9615.50000    0.05700    0.09000   64.12800    9.94400    2.55400    2.66600   26.46400  -10.05800
 9616.00000    0.05700    0.09400   65.29900    9.95000    2.55100    2.69500   26.60400   -9.86000
 9616.50000    0.05900    0.10100   66.47000    9.94900    2.54800    2.76200   26.74500   -9.66200
 9617.00000    0.06100    0.10700   66.04500    9.94900    2.54200    2.82500   26.77900   -9.46400
 9617.50000    0.06400    0.10700   65.62000    9.94900    2.53800    2.82700   26.77900   -9.26500
 9618.00000    0.06800    0.10400   65.81300    9.95000    2.53600    2.77600   26.77900   -9.08100
 9618.50000    0.06800    0.10300   65.49800    9.95300    2.53700    2.70200   26.77900   -9.15000
 9619.00000    0.06800    0.10200   64.72300    9.96300    2.53700    2.68600   26.77900   -9.22700
 9619.50000    0.06800    0.10100   64.07200    9.97400    2.54000    2.68600   26.77900   -9.30200
 9620.00000    0.06600    0.09900   64.09100    9.98400    2.54000    2.68300   26.77900   -9.37800
 9620.50000    0.06600    0.10000   64.19400    9.99400    2.53900    2.66800   26.77800   -9.45300
 9621.00000    0.06600    0.10000   65.28300   10.00500    2.53900    2.65800   26.85600   -9.52800
 9621.50000    0.06700    0.09900   66.60100   10.01500    2.53800    2.69600   26.99100   -9.60300
 9622.00000    0.06800    0.09800   67.21900   10.02600    2.53500    2.85800   27.12800   -9.68200
 9622.50000    0.06800    0.09600   62.46800   10.03600    2.53400    2.87400   27.26500   -9.86600
 9623.00000    0.07000    0.09500   60.52700   10.04600    2.53400    2.84500   27.40200  -10.05300
 9623.50000    0.07000    0.09300   59.83200   10.05700    2.53800    2.77400   27.53400  -10.24600
 9624.00000    0.06900    0.09500   61.92100   10.06700    2.53900    2.69400   27.53400  -10.17400
 9624.50000    0.06700    0.09800   65.19100   10.07100    2.53400    2.61600   27.53300  -10.03400
 9625.00000    0.06800    0.09900   66.89800   10.07100    2.53100    2.58400   27.53800   -9.89300
 9625.50000    0.07200    0.09900   66.61000   10.07100    2.53100    2.58600   27.52400   -9.75200
 9626.00000    0.07200    0.09900   65.05600   10.07100    2.54000    2.64600   28.17900   -9.61200
 9626.50000    0.07000    0.10100   64.31400   10.07100    2.54700    2.83200   28.64000   -9.47100
 9627.00000    0.06300    0.10200   63.62400   10.07100    2.54300    2.90200   29.10800   -9.33000
 9627.50000    0.06300    0.10400   62.86100   10.07100    2.53700    2.84400   29.58400   -9.18900
 9628.00000    0.06700    0.10300   62.87900   10.07100    2.53800    2.73100   29.92800   -9.09400
 9628.50000    0.06900    0.09900   62.88500   10.07100    2.55100    2.69800   28.90600   -9.24000
 9629.00000    0.05700    0.09500   62.86400   10.07100    2.57300    2.72400   28.09300   -9.38100
 9629.50000    0.04500    0.09200   61.57600   10.08400    2.59400    2.87100   26.87100   -9.52100
