~Version Information Block
 VERS.                2.00:     CWLS LOG ASCII STANDARD - VERSION 2.000000
 WRAP.                  NO:     One Line Per Depth Step
#
~Well Information Block
#MNEM.UNIT                     Data                         Information
#----------   ------------------------------------------   ----------------
 STRT.FT                                     8200.0000:     START DEPTH
 STOP.FT                                     9700.0000:     STOP DEPTH
 STEP.FT                                        0.1000:     STEP
 NULL.                                       -999.2500:     NULL VALUE
 COMP.                        PRESIDIO EXPLORATION INC:     COMPANY
 WELL.                                   HAY DAM 34-12:     WELL
 FLD .                                          HAYDAM:     FIELD
 LOC .                                   SEC12-23N-97W:     LOCATION
 CNTY.                                      SWEETWATER:     COUNTY
 STAT.                                         WYOMING:     STATE
 CTRY.                                             USA:     COUNTRY
 SRVC.                                    SCHLUMBERGER:     SERVICE COMPANY
 DATE.                                      26/07/1994:     DATE
 API .                                      4903723385:     API NUMBER
 UWI .                                         3723385:     UWI NUMBER
 TVD .                                              NO:     TVD flag
 WSTA.                                             LOC:     Well status
 USGS.                                            F041:     USGS Number
 LATI.DEG                                     41.97739:     LATITUDE
 LONG.DEG                                   -108.32133:     LONGITUDE
 UTM-N.                                        4650736:     Northing
 UTM-E.                                      721928.25:     Easting
 CORE.                                              -5:     Core/Log Offset
#
~Curve Information Block
#MNEM.UNIT       API CODE      Curve Description
#----------    -------------   -------------------
 DEPT.FT                   :   Depth in Feet
 ILD .OHMM     05 120 46 01:   Deep Induction Standard Processed Resistivity
 SP  .MV       01 010 01 01:   Spontaneous Potential
 RHOB.G/C3     42 350 01 01:   Bulk Density
 PEF .b/e                  :   Photo-Electric Factor
 GR  .GAPI     35 310 01 01:   Gamma Ray
 CALI.IN       70 280 01 01:   Caliper
 DPHI.V/V      45 890 01 01:   Density Porosity
 NPHI.V/V      42 890 03 01:   Neutron Porosity
 DTCO.US/F                 :   Delta-T Compressional
#
~Parameter Information Block
#MNEM.UNIT            Value               Description
#----------    --------------------    -------------------
 DATE.                  26-07-1994:    Date As Month-Day-Year
 RUN .                         ONE:    Run Number
 PDAT.                         UNK:    Permanent Datum
 EPD .FT                 6611.0000:    Elevation Of Perm. Datum
 LMF .                          KB:    Log Measured From
 FAPD.FT                   15.0000:    Feet Above Perm. Datum
 DMF .                          KB:    Drilling Measured From
 EKB .FT                 6627.0000:    Elevation Of Kelly Bushing
 EDF .FT                 6626.0000:    Elevation Of Derrick Floor
 EGL .FT                 6611.0000:    Elevation Of Ground Level
 TD  .FT                 9700.0000:    Total Depth
 DD  .FT                 9735.0000:    Depth Driller
 DL  .FT                 9729.0000:    Depth Logger
 BLI .FT                 9719.0000:    Bottom Log Interval
 TLI .FT                 1716.0000:    Top Log Interval
 CSIZ.IN                  9.625 IN:    Casing Size
 CBD1.                        1715:    Casing Bottom (Driller) 1
 CBL1.                        1716:    Casing Bottom (Logger) 1
 BS  .IN                   7.675IN:    Bit Size
 DFT .                    GEL-CHEM:    Drilling Fluid Type
 DFV .S                    45.0000:    Drilling Fluid Viscosity
 DFD .LB/G                 10.1000:    Drilling Fluid Density
 DFL .ML                    8.0000:    Drilling Fluid Loss
 DFPH.                     10.0000:    Drilling Fluid Ph
 MSS .                     MUDTANK:    Mud Sample Source
 RMS .OHMM                  1.4400:    Resistivity Of Mud Sample
 MST .DEGF                 85.0000:    Mud Sample Temperature
 RMF .OHMM                  1.1700:    Mud Filtrate Resistivity
 MFST.DEGF                 80.0000:    Mud Filtrate Sample Temperature
 RMC .OHMM                  1.3300:    Mud Cake Resistivity
 MCST.DEGF                 80.0000:    Mud Cake Sample Temperature
 RMB .OHMM                  0.7480:    Mud Resistivity At Bht
 BHT .DEGF                170.0000:    Bottom Hole Temperature
 MRT .DEGF                170.0000:    Maximum Recorded Temperature
 LUN .                        8415:    Logging Unit Number
 LUL .                      CASPER:    Logging Unit Location
 ENGI.                 CHRISTENSEN:    Engineer'S Name
 WITN.                       LYNON:    Witness' Name
 DGBY.                         R2V:    
 WSTA.                         LOC:    
#
~Other Information Block
<DescLogPlotStart>   NEURALOG PLOT DEFINITION
PLOTDEFVERSION: 3
LASFILE: C:\nds\projects\mf-nov-13\las\3723385A.las
DEPTHSCALE: 240.000000
RESOLUTION: 200
DEPTHLABELFREQ: 100.000000
HEAVYGRIDFREQ: 100.000000
MEDIUMGRIDFREQ: 50.000000
LIGHTGRIDFREQ: 10.000000
#
#   TRACK 1
#
STARTTRACK: 
 LEFTX: 0.500000 inch
 RIGHTX: 3.000000 inch
 SCALETYPE: Log
 NUMCYCLES: 4
 STARTCYCLE: 2
CURVE: ILD   0.200000   2000.000000 (0,0,255)      Solid             2     N   
ENDTRACK: 
#
#   TRACK 2
#
STARTTRACK: 
 LEFTX: 3.500000 inch
 RIGHTX: 6.000000 inch
 SCALETYPE: Linear
 NUMCHARTDIVISIONS: 10
CURVE: SP    -80.000000 20.000000  (0,131,131)    Solid             2     Y    
BACKUP: 20.000000  120.000000 (0,131,131)    Solid             2    
BACKUP: -180.000000 -80.000000 (0,131,131)    Solid             2    
ENDTRACK: 
#
#   TRACK 3
#
STARTTRACK: 
 LEFTX: 6.000000 inch
 RIGHTX: 11.000000 inch
 SCALETYPE: Linear
 NUMCHARTDIVISIONS: 10
CURVE: RHOB  2.000000   3.000000   (255,0,255)    Solid             2     Y    
BACKUP: 1.000000   2.000000   (255,0,255)    Solid             2    
CURVE: PEF   0.000000   10.000000  (255,0,0)      Dot               2     N    
ENDTRACK: 
#
#   TRACK 4
#
STARTTRACK: 
 LEFTX: 11.000000 inch
 RIGHTX: 13.500000 inch
 SCALETYPE: Linear
 NUMCHARTDIVISIONS: 10
CURVE: GR    0.000000   150.000000 (255,131,0)    Solid             2     Y    
BACKUP: 150.000000 300.000000 (255,131,0)    Solid             2    
CURVE: CALI  6.000000   16.000000  (255,255,0)    Dot               2     Y    
BACKUP: 16.000000  26.000000  (255,255,0)    Dot               2    
ENDTRACK: 
#
#   TRACK 5
#
STARTTRACK: 
 LEFTX: 13.500000 inch
 RIGHTX: 18.500000 inch
 SCALETYPE: Linear
 NUMCHARTDIVISIONS: 10
CURVE: DPHI  0.300000   -0.100000  (0,0,255)      Solid             2     N    
CURVE: NPHI  0.300000   -0.100000  (0,131,131)    Dot               2     Y    
BACKUP: 0.700000   0.300000   (0,131,131)    Dot               2    
ENDTRACK: 
#
#   TRACK 6
#
STARTTRACK: 
 LEFTX: 13.500000 inch
 RIGHTX: 18.500000 inch
 SCALETYPE: Linear
 NUMCHARTDIVISIONS: 10
CURVE: DTCO  240.000000 40.000000  (255,0,255)    Solid             2     N    
ENDTRACK: 
<DescLogPlotEnd>
~A DEPTH     ILD              SP               RHOB             PEF              GR               CALI             DPHI             NPHI             DTCO            
# ...
    9596.500 11.53304214      30.92220339      2.61138294       3.10531382       134.82611182     8.17778091       0.02159114       0.20096677       74.03614458     
    9596.600 11.57035033      30.93967380      2.61191992       3.09886313       134.90295998     8.17863539       0.02104733       0.20130060       73.91566265     
    9596.700 11.60643001      30.95612738      2.61246424       3.09225826       134.66286045     8.17948987       0.02104733       0.20163444       73.79518072     
    9596.800 11.64651098      30.97290891      2.61296141       3.08581097       134.08115317     8.18034434       0.02131952       0.20196828       73.67469880     
    9596.900 11.68492872      30.99015391      2.61342122       3.07966359       133.37198866     8.18119882       0.02164235       0.20230211       73.55421687     
    9597.000 11.72379541      31.00722107      2.61399653       3.07314805       132.69971795     8.18205330       0.02196518       0.20263595       73.43373494     
    9597.100 11.76334785      31.02409667      2.61466946       3.06610285       132.05533263     8.18290777       0.02228802       0.20296979       73.46497100     
    9597.200 11.80208044      31.04106482      2.61501084       3.05984193       131.40967670     8.18376225       0.02261085       0.20330363       73.49620705     
    9597.300 11.84198653      31.05813189      2.61459309       3.05446781       130.76475396     8.18461673       0.02293368       0.20363746       73.52744311     
    9597.400 11.88113582      31.07519741      2.61354107       3.04747720       130.08099407     8.18547121       0.02325651       0.20397130       73.55867916     
    9597.500 11.92110322      31.09226292      2.61237284       3.03878326       129.35821068     8.18632568       0.02357934       0.20430514       73.58991522     
    9597.600 11.96068331      31.10932843      2.61137809       3.03364956       128.73512772     8.18718016       0.02390217       0.20463897       73.62115127     
    9597.700 12.00059073      31.12639395      2.61042339       3.03543041       128.32974467     8.18803464       0.02422500       0.20497281       73.65238733     
    9597.800 12.04081400      31.14345946      2.60932870       3.03978672       128.05556149     8.18888911       0.02454783       0.20530665       73.68362338     
    9597.900 12.08066575      31.16052498      2.60818962       3.04237156       127.75925279     8.18974359       0.02487067       0.20564048       73.71485944     
    9598.000 12.12109517      31.17759049      2.60726483       3.04716443       127.46412730     8.19059807       0.02519350       0.20594159       73.74609549     
    9598.100 12.16151401      31.19465600      2.60666434       3.05990547       127.33457171     8.19145254       0.02551633       0.20594159       73.77733155     
    9598.200 12.20206763      31.21172152      2.60624670       3.07819349       127.45942276     8.19230702       0.02583916       0.20553877       73.80856760     
    9598.300 12.24275647      31.22878703      2.60581494       3.09540477       127.77770331     8.19316150       0.02616199       0.20553877       73.83980366     
    9598.400 12.28358100      31.24585255      2.60532386       3.11020136       128.17442624     8.19401597       0.02648482       0.20553877       73.87103971     
    9598.500 12.32454165      31.26291806      2.60484021       3.12567248       128.57400244     8.19487045       0.02680765       0.20553877       73.90227577     
    9598.600 12.36563890      31.27998357      2.60438493       3.14255600       128.96164759     8.19572493       0.02713048       0.20521126       73.93351183     
    9598.700 12.42231925      31.29704909      2.60392378       3.15891214       129.35384127     8.19657941       0.02745332       0.20493745       73.96474788     
    9598.800 12.43209329      31.31411460      2.60345123       3.17432167       129.75034112     8.19743388       0.02777615       0.20466363       73.99598394     
    9598.900 12.44771617      31.33117290      2.60298338       3.19028172       130.12542296     8.19828836       0.02809898       0.20438981       74.02721999     
    9599.000 12.46335868      31.34825347      2.60251415       3.20718031       130.47056740     8.19914263       0.02842181       0.20411600       74.05845605     
    9599.100 12.47902085      31.36537594      2.60204491       3.22280397       130.81039642     8.19999801       0.02874464       0.20384218       74.08969210     
    9599.200 12.49470270      31.38244845      2.60159258       3.23355521       131.15318349     8.20085505       0.02906747       0.20356836       74.12092816     
    9599.300 12.51040426      31.39942265      2.60113123       3.23683157       131.45504717     8.20171004       0.02939030       0.20329455       74.15216421     
    9599.400 12.52612555      31.41651782      2.60063230       3.23283379       131.66355974     8.20256166       0.02971313       0.20302073       74.18340027     
    9599.500 12.54186659      31.43380818      2.60015827       3.22438055       131.78188801     8.20341849       0.02990937       0.20274691       74.21463632     
    9599.600 12.55762742      31.45081326      2.59975171       3.21482942       131.86033998     8.20428196       0.03006910       0.20247309       74.23694779     
    9599.700 12.57340805      31.46746934      2.59928530       3.20594540       131.93515249     8.20513353       0.03018384       0.20219928       74.32087606     
    9599.800 12.58920851      31.48472075      2.59869113       3.19757418       132.01197407     8.20597368       0.03029857       0.20192546       74.38615360     
    9599.900 12.60502883      31.50254646      2.59825779       3.18902671       132.09574985     8.20683796       0.03041331       0.20165164       74.45143114     
    9600.000 12.62086903      31.51920425      2.59833329       3.18024838       132.18577488     8.20772021       0.03052805       0.20137783       74.51670867     
    9600.100 12.63672913      31.53491248      2.59878603       3.17157363       132.25896567     8.20855599       0.03064279       0.20110401       74.58198621     
    9600.200 12.65260917      31.55301823      2.59913900       3.16302224       132.31689055     8.20936342       0.03075753       0.20083019       74.64726375     
    9600.300 12.66850916      31.57340572      2.59917072       3.15440143       132.41295893     8.21026606       0.03087226       0.20055637       74.71254129     
    9600.400 12.68442913      31.58890199      2.59903625       3.14570404       132.53948086     8.21123419       0.03098700       0.20028256       74.77781883     
    9600.500 12.70036911      31.59415363      2.59896260       3.13703545       132.53570224     8.21196514       0.03111782       0.20000874       74.84309637     
    9600.600 12.71632912      31.59430578      2.59916815       3.12841789       132.25084186     8.21222273       0.03080900       0.19973492       74.90837391     
    9600.700 12.73230919      31.59849629      2.59982292       3.11981448       131.77053941     8.21215761       0.03044982       0.19946111       74.97365145     
    9600.800 12.74830933      31.60826491      2.60076429       3.11115284       131.31419040     8.21209164       0.03009063       0.19918729       75.04016064     
    9600.900 12.76432959      31.61863351      2.60158594       3.10242665       130.91537882     8.21212525       0.02973145       0.19891347       75.02275770     
    9601.000 12.78036997      31.62717459      2.60228669       3.09382059       130.39051629     8.21215370       0.02937227       0.19869084       75.00502008     
    9601.100 12.79643051      31.63567111      2.60340427       3.08536382       129.63840048     8.21213199       0.02910373       0.19869084       74.98728246     
    9601.200 12.81251124      31.64513753      2.60523386       3.07668854       128.77861462     8.21211647       0.02782175       0.19869084       74.96954485     
    9601.300 12.82861217      31.65454753      2.60737229       3.06775079       127.95294750     8.21212787       0.02679809       0.19940081       74.95180723     
