~Version ---------------------------------------------------
VERS. 2.0 : CWLS log ASCII Standard -VERSION 2.0
WRAP.  NO : One Line Per Depth Step
~Well ------------------------------------------------------
STRT .FT              8400.0 : START DEPTH
STOP .FT              9700.0 : STOP DEPTH
STEP .FT  0.1000000000003638 : STEP
NULL .               -999.25 : NULL VALUE
COMP .  PRESIDIO OIL COMPANY : COMPANY
WELL .     J.T. FEDERAL NO.5 : WELL
FLD  .   SOUTH HAY RESOURCES : FIELD
LOC  . 1266' FNL & 1684' FEL : LOCATION
CNTY .            SWEETWATER : COUNTY
STAT .               WYOMING : STATE
CTRY .                   USA : COUNTRY
SRVC .                       : SERVICE COMPANY
DATE .            30/06/1993 : DATE
API  .            4903723152 : API NUMBER
UWI  .               3723152 : UWI NUMBER
TVD  .                    NO : TVD flag
WSTA .                   LOC : Well status
USGS .                  S179 : USGS Number
LATI .DEG           41.97079 : LATITUDE
LONG .DEG           -108.322 : LONGITUDE
UTM-N.            4650002.36 : Northing
UTM-E.             721895.66 : Easting
CORE .                   N/A : Core/Log Offset
~Curve Information -----------------------------------------
DEPT    .FT                : Depth in Feet
GR      .GAPI 35 310 01 01 : Gamma Ray
SP      .MV   01 010 01 01 : Spontaneous Potential
CALI    .IN   70 280 01 01 : Caliper
ILD     .OHMM 05 120 46 01 : Deep Induction Standard Processed Resistivity
DPHI    .V/V  45 890 01 01 : Density Porosity
NPHI    .V/V  42 890 03 01 : Neutron Porosity
PE      .B/E               : PE
DT      .US/F 60 520 08 01 : Delta-T
ACOUSTIC.DEC               : ACOUSTIC
~Params ----------------------------------------------------
DATE. 30-06-1993 : Date As Month-Day-Year
RUN .        ONE : Run Number
PDAT.        UNK : Permanent Datum
EPD .FT   6607.0 : Elevation Of Perm. Datum
LMF .         KB : Log Measured From
FAPD.FT     16.0 : Feet Above Perm. Datum
DMF .         KB : Drilling Measured From
EKB .FT   6623.0 : Elevation Of Kelly Bushing
EDF .FT   6622.0 : Elevation Of Derrick Floor
EGL .FT   6607.0 : Elevation Of Ground Level
TD  .FT   9700.0 : Total Depth
DD  .FT   9780.0 : Depth Driller
DL  .FT   9724.0 : Depth Logger
BLI .FT   9720.0 : Bottom Log Interval
CSIZ.IN  9.625IN : Casing Size
CBD1.       1698 : Casing Bottom (Driller) 1
CBL1.       1697 : Casing Bottom (Logger) 1
BS  .IN  7.875IN : Bit Size
DFT .        GEL : Drilling Fluid Type
DFV .S      55.0 : Drilling Fluid Viscosity
DFD .LB/G   10.2 : Drilling Fluid Density
DFL .ML      7.6 : Drilling Fluid Loss
DFPH.        9.5 : Drilling Fluid Ph
MSS .   FLOWLINE : Mud Sample Source
RMS .OHMM    1.5 : Resistivity Of Mud Sample
MST .DEGF   74.0 : Mud Sample Temperature
RMF .OHMM    1.8 : Mud Filtrate Resistivity
MFST.DEGF   66.0 : Mud Filtrate Sample Temperature
RMC .OHMM   2.44 : Mud Cake Resistivity
MCST.DEGF   69.0 : Mud Cake Sample Temperature
RMB .OHMM    0.6 : Mud Resistivity At Bht
BHT .DEGF  197.0 : Bottom Hole Temperature
MRT .DEGF  197.0 : Maximum Recorded Temperature
LUN .      52546 : Logging Unit Number
LUL .      VERNL : Logging Unit Location
ENGI.    K EVATT : Engineer'S Name
WITN.    HEFFNER : Witness' Name
DGBY.        R2V : 
WSTA.        LOC : 
~Other -----------------------------------------------------
<DescLogPlotStart>   NEURALOG PLOT DEFINITION
PLOTDEFVERSION: 3
LASFILE: C:\nds\projects\mf-nov-13\las\3723152A.las
DEPTHSCALE: 240.000000
RESOLUTION: 200
DEPTHLABELFREQ: 100.000000
HEAVYGRIDFREQ: 100.000000
MEDIUMGRIDFREQ: 50.000000
LIGHTGRIDFREQ: 10.000000
#
#   TRACK 1
#
STARTTRACK:
LEFTX: 0.500000 inch
RIGHTX: 3.000000 inch
SCALETYPE: Linear
NUMCHARTDIVISIONS: 10
CURVE: GR    0.000000   150.000000 (0,0,255)      Solid             2     N
CURVE: SP    -100.000000 0.000000   (0,131,131)    Dot               2     N
ENDTRACK:
#
#   TRACK 2
#
STARTTRACK:
LEFTX: 0.500000 inch
RIGHTX: 3.000000 inch
SCALETYPE: Linear
NUMCHARTDIVISIONS: 10
CURVE: CALI  6.000000   16.000000  (255,0,255)    Solid             2     Y
BACKUP: -4.000000  6.000000   (255,0,255)    Solid             2
ENDTRACK:
#
#   TRACK 3
#
STARTTRACK:
LEFTX: 3.500000 inch
RIGHTX: 8.500000 inch
SCALETYPE: Log
NUMCYCLES: 4
STARTCYCLE: 2
CURVE: ILD   0.200000   2000.000000 (255,0,0)      Solid             2     N
ENDTRACK:
#
#   TRACK 4
#
STARTTRACK:
LEFTX: 3.500000 inch
RIGHTX: 8.500000 inch
SCALETYPE: Linear
NUMCHARTDIVISIONS: 10
CURVE: DPHI  0.300000   -0.100000  (255,131,0)    Solid             2     Y
BACKUP: 0.700000   0.300000   (255,131,0)    Solid             2
CURVE: NPHI  0.300000   -0.100000  (255,255,0)    Dot               2     Y
BACKUP: 0.700000   0.300000   (255,255,0)    Dot               2
ENDTRACK:
#
#   TRACK 5
#
STARTTRACK:
LEFTX: 3.500000 inch
RIGHTX: 6.000000 inch
SCALETYPE: Linear
NUMCHARTDIVISIONS: 10
CURVE: PE    0.000000   10.000000  (0,0,255)      Solid             2     N
ENDTRACK:
#
#   TRACK 6
#
STARTTRACK:
LEFTX: 8.500000 inch
RIGHTX: 13.500000 inch
SCALETYPE: Linear
NUMCHARTDIVISIONS: 10
CURVE: DT    140.000000 40.000000  (0,131,131)    Solid             2     Y
BACKUP: 40.000000  -60.000000 (0,131,131)    Solid             2
CURVE: ACOUSTIC 0.300000   -0.100000  (255,0,255)    Dot               2     Y
BACKUP: 0.700000   0.300000   (255,0,255)    Dot               2
BACKUP: -0.100000  -0.500000  (255,0,255)    Dot               2
ENDTRACK:
<DescLogPlotEnd>
~ASCII -----------------------------------------------------
# ...
 8911.00000  119.89915  -23.74780    9.85518   35.79811   -0.03475    0.12727    3.54203   65.04686    0.09980
 8911.10000  119.71105  -23.70915    9.85678   35.94334   -0.03491    0.12724    3.54414   65.00000    0.09980
 8911.20000  119.24677  -23.66872    9.85831   36.10484   -0.03518    0.12720    3.54873   65.01586    0.09975
 8911.30000  118.48768  -23.62803    9.85985   36.25599   -0.03607    0.12717    3.55383   65.03485    0.09969
 8911.40000  117.45708  -23.59040    9.86149   36.41446   -0.03707    0.12713    3.55896   65.05384    0.09962
 8911.50000  116.21008  -23.55338    9.86315   36.57083   -0.03803    0.12710    3.57001   65.07284    0.09961
 8911.60000  114.84806  -23.51052    9.86458   36.72786   -0.03899    0.12706    3.59162   65.09183    0.09949
 8911.70000  113.46765  -23.46571    9.86595   36.88557   -0.03995    0.12703    3.61688   65.11082    0.09950
 8911.80000  112.12564  -23.43722    9.86780   37.04396   -0.04091    0.12582    3.63438   65.12982    0.09937
 8911.90000  110.83627  -23.43797    9.87039   37.20303   -0.04187    0.12479    3.64470   65.14881    0.09809
 8912.00000  109.53027  -23.45896    9.87332   37.36278   -0.04283    0.12376    3.65866   65.16780    0.09673
 8912.10000  108.11168  -23.48126    9.87606   37.52322   -0.04379    0.12273    3.67937   65.18680    0.09550
 8912.20000  106.68637  -23.49772    9.87859   37.68435   -0.04475    0.12170    3.69781   65.20284    0.09413
 8912.30000  105.59810  -23.51367    9.88116   37.84616   -0.04533    0.12067    3.70804   64.86089    0.09290
 8912.40000  105.03246  -23.53259    9.88384   37.97391   -0.04681    0.11964    3.71540   64.56491    0.09154
 8912.50000  104.76282  -23.55176    9.88650   37.75241   -0.04736    0.11861    3.72620   64.26893    0.09030
 8912.60000  104.49057  -23.56934    9.88910   37.57086   -0.04861    0.11758    3.73873   63.97295    0.08894
 8912.70000  104.25904  -23.58682    9.89171   37.39019   -0.04980    0.11655    3.74908   63.67698    0.08771
 8912.80000  104.27179  -23.60514    9.89436   37.21038   -0.05005    0.11552    3.75847   63.38100    0.08677
 8912.90000  104.47170  -23.62342    9.89699   37.03144   -0.05047    0.11449    3.77003   63.08502    0.08538
 8913.00000  104.62610  -23.64136    9.89961   36.92242   -0.05089    0.11346    3.78199   62.78905    0.08428
 8913.10000  104.71540  -23.65947    9.90224   36.46107   -0.05132    0.11243    3.78861   62.49307    0.08320
 8913.20000  104.88703  -23.67766    9.90487   36.13235   -0.05174    0.11118    3.78686   62.19709    0.08211
 8913.30000  105.08296  -23.69540    9.90750   35.80659   -0.05224    0.11137    3.77984   61.75456    0.08154
 8913.40000  105.11811  -23.71327    9.91013   35.48377   -0.05200    0.11161    3.77354   61.71941    0.08129
 8913.50000  105.15605  -23.73199    9.91276   35.16386   -0.05172    0.11185    3.77142   61.64976    0.08113
 8913.60000  105.70100  -23.75030    9.91538   34.84683   -0.05142    0.11209    3.77287   61.55172    0.08096
 8913.70000  106.96742  -23.76704    9.91801   34.53266   -0.05050    0.11234    3.77574   61.63421    0.08073
 8913.80000  108.58880  -23.78455    9.92064   34.22132   -0.04952    0.11258    3.77842   61.77350    0.08138
 8913.90000  110.11562  -23.80519    9.92327   33.91279   -0.04854    0.11280    3.78047   61.95740    0.08276
 8914.00000  111.49712  -23.82359    9.92589   33.60705   -0.04756    0.11540    3.78244   62.29660    0.08367
 8914.10000  112.89759  -23.82898    9.92852   33.30405   -0.04658    0.11785    3.78527   62.79570    0.08500
 8914.20000  114.35329  -23.81795    9.93115   33.00379   -0.04561    0.12030    3.78851   63.29479    0.08634
 8914.30000  115.81410  -23.79913    9.93377   32.70624   -0.04463    0.12275    3.78966   63.79389    0.08768
 8914.40000  117.28129  -23.78235    9.93639   32.41137   -0.04365    0.12521    3.78654   64.29299    0.08925
 8914.50000  118.71959  -23.76869    9.93903   32.11916   -0.04267    0.12766    3.77993   64.79209    0.09149
 8914.60000  120.00616  -23.75430    9.94167   31.82958   -0.04169    0.13011    3.77252   65.29119    0.09421
 8914.70000  121.07831  -23.73833    9.94427   31.54262   -0.04071    0.13256    3.76584   65.79029    0.09692
 8914.80000  121.97271  -23.72274    9.94687   31.25824   -0.03973    0.13501    3.75942   66.31846    0.09980
 8914.90000  122.67624  -23.70801    9.94954   30.97642   -0.03875    0.13747    3.75265   66.49062    0.10148
 8915.00000  123.09706  -23.69308    9.95222   30.69715   -0.03777    0.13992    3.74574   66.67343    0.10327
 8915.10000  123.22638  -23.67769    9.95475   30.42039   -0.03679    0.14237    3.73902   66.85624    0.10507
 8915.20000  123.21855  -23.66241    9.95728   30.14613   -0.03581    0.14482    3.73238   67.02840    0.10686
 8915.30000  123.26694  -23.64734    9.96008   29.87434   -0.03484    0.14817    3.72564   67.08367    0.10865
 8915.40000  123.44763  -23.63223    9.96289   29.60500   -0.03354    0.14875    3.71885   67.13590    0.11044
 8915.50000  123.74630  -23.61702    9.96517   29.33809   -0.03346    0.14965    3.71208   67.18813    0.11197
 8915.60000  124.19303  -23.60183    9.96729   29.07358   -0.03333    0.15056    3.70538   67.23124    0.11273
 8915.70000  124.84362  -23.58670    9.97052   28.81147   -0.03321    0.15146    3.69868   67.25169    0.11340
 8915.80000  125.55752  -23.57156    9.97541   28.55171   -0.03309    0.15237    3.69190   67.26910    0.11407
 8915.90000  125.93035  -23.55642    9.98095   28.29430   -0.03297    0.15328    3.68506   67.28651    0.11474
 8916.00000  125.64472  -23.54129    9.98593   28.03920   -0.03285    0.15427    3.67802   67.30392    0.11521
 8916.10000  124.83386  -23.52615    9.99039   27.78641   -0.03270    0.15400    3.66975   67.32099    0.11553
 8916.20000  123.92117  -23.51101    9.99500   27.62319   -0.03238    0.15360    3.65873   67.33605    0.11577
 8916.30000  123.14103  -23.49587    9.99987   27.47656   -0.03203    0.15331    3.64464   67.40195    0.11602
 8916.40000  122.39978  -23.48073   10.00467   27.36841   -0.03165    0.15291    3.62900   67.45839    0.11626
 8916.50000  121.57036  -23.46559   10.00932   27.26068   -0.03135    0.15260    3.61323   67.50638    0.11650
 8916.60000  120.71773  -23.45045   10.01402   27.15337   -0.03092    0.15223    3.59747   67.56292    0.11675
 8916.70000  119.95068  -23.43529   10.01879   27.04649   -0.03074    0.15189    3.58183   67.61073    0.11699
 8916.80000  119.20387  -23.42013   10.02354   26.94003   -0.03060    0.15154    3.56686   67.66764    0.11723
 8916.90000  118.33569  -23.40501   10.02825   26.83399   -0.03076    0.15119    3.55170   67.71509    0.11748
 8917.00000  117.43378  -23.38987   10.03297   26.72836   -0.03138    0.15085    3.53487   67.77270    0.11772
 8917.10000  116.84657  -23.37465   10.03771   26.62315   -0.03200    0.15060    3.51855   67.81943    0.11805
 8917.20000  116.79583  -23.35946   10.04245   26.51836   -0.03358    0.15043    3.50881   67.87765    0.11800
 8917.30000  117.08686  -23.34445   10.04717   26.41398   -0.03511    0.15027    3.50878   67.93985    0.11792
 8917.40000  117.36387  -23.32939   10.05190   26.31000   -0.03628    0.15015    3.51448   67.88620    0.11783
 8917.50000  117.54055  -23.31398   10.05663   26.20644   -0.03776    0.14998    3.51992   67.79573    0.11775
 8917.60000  117.76129  -23.29865   10.06136   26.10329   -0.03963    0.14980    3.52353   67.71209    0.11765
 8917.70000  118.03101  -23.28398   10.06609   26.00054   -0.04034    0.14982    3.52724   67.62722    0.11741
 8917.80000  118.13893  -23.26914   10.07082   25.89819   -0.04161    0.14987    3.53188   67.54234    0.11711
 8917.90000  117.96387  -23.25300   10.07555   25.79625   -0.04329    0.14992    3.53647   67.45747    0.11680
 8918.00000  117.63725  -23.23742   10.08028   25.69471   -0.04335    0.14996    3.54057   67.37259    0.11651
 8918.10000  117.34079  -23.22695   10.08501   25.59357   -0.04343    0.15001    3.54466   67.28772    0.11618
 8918.20000  117.09399  -23.22374   10.08975   25.49283   -0.04352    0.15006    3.54899   67.20284    0.11591
