~Version Information Block
 VERS.                2.00:     CWLS LOG ASCII STANDARD - VERSION 2.000000
 WRAP.                  NO:     One Line Per Depth Step
#
~Well Information Block
#MNEM.UNIT                     Data                         Information
#----------   ------------------------------------------   ----------------
 STRT.FT                                     8200.0000:     START DEPTH
 STOP.FT                                     9700.0000:     STOP DEPTH
 STEP.FT                                        0.1000:     STEP
 NULL.                                       -999.2500:     NULL VALUE
 COMP.                        PRESIDIO EXPLORATION INC:     COMPANY
 WELL.                                   HAY DAM 34-12:     WELL
 FLD .                                          HAYDAM:     FIELD
 LOC .                                   SEC12-23N-97W:     LOCATION
 CNTY.                                      SWEETWATER:     COUNTY
 STAT.                                         WYOMING:     STATE
 CTRY.                                             USA:     COUNTRY
 SRVC.                                    SCHLUMBERGER:     SERVICE COMPANY
 DATE.                                      26/07/1994:     DATE
 API .                                      4903723385:     API NUMBER
 UWI .                                         3723385:     UWI NUMBER
 TVD .                                              NO:     TVD flag
 WSTA.                                             LOC:     Well status
 USGS.                                            F041:     USGS Number
 LATI.DEG                                     41.97739:     LATITUDE
 LONG.DEG                                   -108.32133:     LONGITUDE
 UTM-N.                                        4650736:     Northing
 UTM-E.                                      721928.25:     Easting
 CORE.                                              -5:     Core/Log Offset
#
~Curve Information Block
#MNEM.UNIT       API CODE      Curve Description
#----------    -------------   -------------------
 DEPT.FT                   :   Depth in Feet
 ILD .OHMM     05 120 46 01:   Deep Induction Standard Processed Resistivity
 SP  .MV       01 010 01 01:   Spontaneous Potential
 RHOB.G/C3     42 350 01 01:   Bulk Density
 PEF .b/e                  :   Photo-Electric Factor
 GR  .GAPI     35 310 01 01:   Gamma Ray
 CALI.IN       70 280 01 01:   Caliper
 DPHI.V/V      45 890 01 01:   Density Porosity
 NPHI.V/V      42 890 03 01:   Neutron Porosity
 DTCO.US/F                 :   Delta-T Compressional
#
~Parameter Information Block
#MNEM.UNIT            Value               Description
#----------    --------------------    -------------------
 DATE.                  26-07-1994:    Date As Month-Day-Year
 RUN .                         ONE:    Run Number
 PDAT.                         UNK:    Permanent Datum
 EPD .FT                 6611.0000:    Elevation Of Perm. Datum
 LMF .                          KB:    Log Measured From
 FAPD.FT                   15.0000:    Feet Above Perm. Datum
 DMF .                          KB:    Drilling Measured From
 EKB .FT                 6627.0000:    Elevation Of Kelly Bushing
 EDF .FT                 6626.0000:    Elevation Of Derrick Floor
 EGL .FT                 6611.0000:    Elevation Of Ground Level
 TD  .FT                 9700.0000:    Total Depth
 DD  .FT                 9735.0000:    Depth Driller
 DL  .FT                 9729.0000:    Depth Logger
 BLI .FT                 9719.0000:    Bottom Log Interval
 TLI .FT                 1716.0000:    Top Log Interval
 CSIZ.IN                  9.625 IN:    Casing Size
 CBD1.                        1715:    Casing Bottom (Driller) 1
 CBL1.                        1716:    Casing Bottom (Logger) 1
 BS  .IN                   7.675IN:    Bit Size
 DFT .                    GEL-CHEM:    Drilling Fluid Type
 DFV .S                    45.0000:    Drilling Fluid Viscosity
 DFD .LB/G                 10.1000:    Drilling Fluid Density
 DFL .ML                    8.0000:    Drilling Fluid Loss
 DFPH.                     10.0000:    Drilling Fluid Ph
 MSS .                     MUDTANK:    Mud Sample Source
 RMS .OHMM                  1.4400:    Resistivity Of Mud Sample
 MST .DEGF                 85.0000:    Mud Sample Temperature
 RMF .OHMM                  1.1700:    Mud Filtrate Resistivity
 MFST.DEGF                 80.0000:    Mud Filtrate Sample Temperature
 RMC .OHMM                  1.3300:    Mud Cake Resistivity
 MCST.DEGF                 80.0000:    Mud Cake Sample Temperature
 RMB .OHMM                  0.7480:    Mud Resistivity At Bht
 BHT .DEGF                170.0000:    Bottom Hole Temperature
 MRT .DEGF                170.0000:    Maximum Recorded Temperature
 LUN .                        8415:    Logging Unit Number
 LUL .                      CASPER:    Logging Unit Location
 ENGI.                 CHRISTENSEN:    Engineer'S Name
 WITN.                       LYNON:    Witness' Name
 DGBY.                         R2V:    
 WSTA.                         LOC:    
#
~Other Information Block
<DescLogPlotStart>   NEURALOG PLOT DEFINITION
PLOTDEFVERSION: 3
LASFILE: C:\nds\projects\mf-nov-13\las\3723385A.las
DEPTHSCALE: 240.000000
RESOLUTION: 200
DEPTHLABELFREQ: 100.000000
HEAVYGRIDFREQ: 100.000000
MEDIUMGRIDFREQ: 50.000000
LIGHTGRIDFREQ: 10.000000
#
#   TRACK 1
#
STARTTRACK: 
 LEFTX: 0.500000 inch
 RIGHTX: 3.000000 inch
 SCALETYPE: Log
 NUMCYCLES: 4
 STARTCYCLE: 2
CURVE: ILD   0.200000   2000.000000 (0,0,255)      Solid             2     N   
ENDTRACK: 
#
#   TRACK 2
#
STARTTRACK: 
 LEFTX: 3.500000 inch
 RIGHTX: 6.000000 inch
 SCALETYPE: Linear
 NUMCHARTDIVISIONS: 10
CURVE: SP    -80.000000 20.000000  (0,131,131)    Solid             2     Y    
BACKUP: 20.000000  120.000000 (0,131,131)    Solid             2    
BACKUP: -180.000000 -80.000000 (0,131,131)    Solid             2    
ENDTRACK: 
#
#   TRACK 3
#
STARTTRACK: 
 LEFTX: 6.000000 inch
 RIGHTX: 11.000000 inch
 SCALETYPE: Linear
 NUMCHARTDIVISIONS: 10
CURVE: RHOB  2.000000   3.000000   (255,0,255)    Solid             2     Y    
BACKUP: 1.000000   2.000000   (255,0,255)    Solid             2    
CURVE: PEF   0.000000   10.000000  (255,0,0)      Dot               2     N    
ENDTRACK: 
#
#   TRACK 4
#
STARTTRACK: 
 LEFTX: 11.000000 inch
 RIGHTX: 13.500000 inch
 SCALETYPE: Linear
 NUMCHARTDIVISIONS: 10
CURVE: GR    0.000000   150.000000 (255,131,0)    Solid             2     Y    
BACKUP: 150.000000 300.000000 (255,131,0)    Solid             2    
CURVE: CALI  6.000000   16.000000  (255,255,0)    Dot               2     Y    
BACKUP: 16.000000  26.000000  (255,255,0)    Dot               2    
ENDTRACK: 
#
#   TRACK 5
#
STARTTRACK: 
 LEFTX: 13.500000 inch
 RIGHTX: 18.500000 inch
 SCALETYPE: Linear
 NUMCHARTDIVISIONS: 10
CURVE: DPHI  0.300000   -0.100000  (0,0,255)      Solid             2     N    
CURVE: NPHI  0.300000   -0.100000  (0,131,131)    Dot               2     Y    
BACKUP: 0.700000   0.300000   (0,131,131)    Dot               2    
ENDTRACK: 
#
#   TRACK 6
#
STARTTRACK: 
 LEFTX: 13.500000 inch
 RIGHTX: 18.500000 inch
 SCALETYPE: Linear
 NUMCHARTDIVISIONS: 10
CURVE: DTCO  240.000000 40.000000  (255,0,255)    Solid             2     N    
ENDTRACK: 
<DescLogPlotEnd>
~A DEPTH     ILD              SP               RHOB             PEF              GR               CALI             DPHI             NPHI             DTCO            
# ...
    9395.600 10.78518937      17.52651816      2.62895298       3.07619036       129.74813306     8.77432124       0.01191082       0.17173541       70.12605979     
    9395.700 10.96084599      17.50783507      2.62893709       3.08827743       130.36220603     8.76994138       0.01192054       0.17169310       70.06749219     
    9395.800 11.13936350      17.48896323      2.62906035       3.10438300       130.96092137     8.76542884       0.01195756       0.17173870       70.00892459     
    9395.900 11.32078849      17.47016250      2.62926471       3.11734644       131.64279801     8.76079726       0.01203383       0.17169936       69.95035698     
    9396.000 11.50516833      17.45144724      2.62923938       3.12345950       132.40856960     8.75642379       0.01202610       0.17133263       69.89178938     
    9396.100 11.69255112      17.43269443      2.62869330       3.12428371       133.02693803     8.75224557       0.01212830       0.17089994       69.83322178     
    9396.200 11.88298580      17.41390667      2.62765355       3.12358047       133.30490251     8.74753442       0.01210640       0.17092350       69.77465417     
    9396.300 12.07652205      17.39513840      2.62644596       3.12385833       133.35940499     8.74233803       0.01220448       0.17050553       69.71608657     
    9396.400 12.27321039      17.37638889      2.62530945       3.12463589       133.40256403     8.73829427       0.01315128       0.16919808       69.65751896     
    9396.500 12.47310216      17.35764624      2.62421765       3.12313634       133.42705457     8.73681134       0.01398072       0.16814559       69.59895136     
    9396.600 12.67624954      17.33894231      2.62309025       3.11739495       133.30581143     8.73715793       0.01477370       0.16710862       69.54038376     
    9396.700 12.88270555      17.32028287      2.62194836       3.10852727       133.00281044     8.73754428       0.01556668       0.16607164       69.48181615     
    9396.800 13.13103842      17.30157787      2.62082160       3.09914062       132.50424339     8.73736314       0.01635966       0.16503467       69.41767068     
    9396.900 13.14949311      17.28279671      2.61969534       3.09036362       131.75235834     8.73719379       0.01715264       0.16364552       69.30866322     
    9397.000 13.17208406      17.26413303      2.61857658       3.08166505       130.79361635     8.73731162       0.01794562       0.16279960       69.18818130     
    9397.100 13.19471383      17.24563008      2.61746683       3.07266371       129.79935178     8.73740371       0.01873860       0.16151863       69.06769937     
    9397.200 13.21738248      17.22686779      2.61632203       3.06366135       128.85120852     8.73734100       0.01953158       0.16023766       68.94721744     
    9397.300 13.24009007      17.20780046      2.61515844       3.05479834       127.89398234     8.73730336       0.02032456       0.15895670       68.82673551     
    9397.400 13.26283667      17.18925604      2.61406920       3.04588608       126.92509252     8.73734523       0.02111754       0.15767573       68.70625359     
    9397.500 13.28562235      17.17122549      2.61304850       3.03695336       126.03117399     8.73736880       0.02191052       0.15639476       68.58577166     
    9397.600 13.30844718      17.15217207      2.61205203       3.02810883       125.24531412     8.73735572       0.02265861       0.15511380       68.46528973     
    9397.700 13.33131122      17.13234083      2.61134552       3.01917784       124.54532575     8.73735331       0.02265861       0.15383283       68.34480780     
    9397.800 13.35421454      17.11466577      2.61142457       3.01012303       123.93666437     8.73736631       0.02265861       0.15255186       68.22432587     
    9397.900 13.37715721      17.09758901      2.61237521       3.00131048       123.38004528     8.73737374       0.02265861       0.15156093       68.10384395     
    9398.000 13.40013930      17.07018804      2.61366742       2.99270920       122.75397596     8.73737374       0.02265861       0.15115811       67.98336202     
    9398.100 13.42316086      17.02170232      2.61479386       2.98358051       122.05819657     8.73737374       0.02225579       0.15114009       67.81124498     
    9398.200 13.44622199      16.95464227      2.61576396       2.97373617       121.50869015     8.73737374       0.02185297       0.15105698       67.80371486     
    9398.300 13.46932272      16.88178193      2.61679445       2.96418751       121.27581829     8.73737374       0.02080967       0.15097574       67.79053715     
    9398.400 13.50041954      16.81149891      2.61789733       2.95563791       121.28931048     8.73737374       0.02006244       0.15091608       67.77735944     
    9398.500 13.53534342      16.74271815      2.61897523       2.94730306       121.43022760     8.73737374       0.01931521       0.15083614       67.76418173     
    9398.600 13.58870886      16.67248809      2.62001897       2.93819263       121.71426974     8.73737374       0.01856798       0.15077539       67.75100402     
    9398.700 13.64228470      16.60145999      2.62105758       2.92855135       122.15996974     8.73737374       0.01782075       0.15069562       67.73871950     
    9398.800 13.69607177      16.53137474      2.62211077       2.91912382       122.67581248     8.73737374       0.01707351       0.15063624       67.72274320     
    9398.900 13.75007090      16.46195514      2.62321034       2.90994251       123.17548887     8.73737374       0.01621349       0.15055434       67.71134967     
    9399.000 13.80428294      16.39169297      2.62429682       2.90066526       123.64723504     8.73737374       0.01595704       0.15049761       67.69745752     
    9399.100 13.85870871      16.32054937      2.62516720       2.89127630       124.09780468     8.73737374       0.01565499       0.15041294       67.68458624     
    9399.200 13.91334907      16.25059051      2.62569617       2.88187651       124.56611024     8.73737374       0.01535293       0.15035996       67.67160355     
    9399.300 13.96820486      16.18200188      2.62601599       2.87250162       125.10621586     8.73737374       0.01505088       0.15034515       67.65828119     
    9399.400 14.02327693      16.11129979      2.62634238       2.86325572       125.60816750     8.73737374       0.01474883       0.15010913       67.64543936     
    9399.500 14.07856613      16.03842744      2.62672897       2.85402681       125.78800646     8.73737374       0.01444678       0.14985853       67.63213610     
    9399.600 14.13407331      15.96956956      2.62710689       2.84448307       125.52317487     8.73737374       0.01413811       0.14963693       67.61923642     
    9399.700 14.18979934      15.90444078      2.62745522       2.83486857       125.03565019     8.73737374       0.01384154       0.14938842       67.60604708     
    9399.800 14.24574508      15.83109396      2.62781028       2.82590952       124.60083767     8.73737374       0.01353730       0.14916233       67.59275232     
    9399.900 14.30191140      15.74712387      2.62818149       2.81758246       124.24721503     8.73737374       0.01323655       0.14891868       67.57959218     
    9400.000 14.35829916      15.67381349      2.62854856       2.80955649       123.86645727     8.73738050       0.01293514       0.14868713       67.56627592     
    9400.100 14.41490924      15.63104532      2.62890683       2.80322163       123.44487398     8.73739347       0.01263269       0.14844962       67.55312174     
    9400.200 14.47174252      15.60932640      2.62926679       2.80080271       123.04290322     8.73739351       0.01233194       0.14821104       67.53985742     
    9400.300 14.52879987      15.58504209      2.62963379       2.80155703       122.66335714     8.73738174       0.01202795       0.14798163       67.52654223     
    9400.400 14.58608218      15.55200938      2.63000278       2.80185954       122.26587628     8.73740123       0.01172699       0.14773386       67.51359718     
