~Version ---------------------------------------------------
VERS. 2.0 : CWLS log ASCII Standard -VERSION 2.0
WRAP.  NO : One Line Per Depth Step
~Well ------------------------------------------------------
STRT .FT              12000.0 : START DEPTH
STOP .FT              13400.0 : STOP DEPTH
STEP .FT   0.1000000000003638 : STEP
NULL .                -999.25 : NULL VALUE
COMP . ENRON OIL &GAS COMPANY : COMPANY
WELL .       CEPO-LEWIS 21-38 : WELL
FLD  .             CEPO-LEWIS : FIELD
LOC  .   1205' FWL &1300' FSL : LOCATION
CNTY .             SWEETWATER : COUNTY
STAT .                WYOMING : STATE
CTRY .                    USA : COUNTRY
SRVC .                        : SERVICE COMPANY
DATE .             25/05/1998 : DATE
API  .             4903724185 : API NUMBER
UWI  .                3724185 : UWI NUMBER
TVD  .                     NO : TVD flag
WSTA .                    LOC : Well status
USGS .                   CEPO : USGS Number
LATI .DEG            41.18194 : LATITUDE
LONG .DEG          -108.14139 : LONGITUDE
UTM-N.             4562894.53 : Northing
UTM-E.              739764.57 : Easting
CORE .FT                 -3.9 : Core/Log Offset
~Curve Information -----------------------------------------
DEPT .FT                : Depth in Feet
GR   .GAPI 35 310 01 01 : Gamma Ray
SP   .MV   01 010 01 01 : Spontaneous Potential
CALI .IN   70 280 01 01 : Caliper
AHT90.OHMM              : 
ILD  .OHMM 05 120 46 01 : Deep Induction Standard Processed Resistivity
HCAL .IN                : 
DPHI .V/V  45 890 01 01 : Density Porosity
NPOR .V/V               : Neutron Porosity Output From An Application Program
RHOB .G/C3 42 350 01 01 : Bulk Density
PEF  .b/e               : Photo-Electric Factor
DT   .US/F 60 520 08 01 : Delta-T
SPHI .V/V  61 890 01 01 : Sonic Porosity
RESD .OHMM              : Deep Resistivity - Merged AHT90 & ILD
~Params ----------------------------------------------------
DATE.  25-05-1998 : Date As Month-Day-Year
RUN .         ONE : Run Number
PDAT.         UNK : Permanent Datum
EPD .FT    6416.0 : Elevation Of Perm. Datum
LMF .          KB : Log Measured From
FAPD.FT      21.0 : Feet Above Perm. Datum
DMF .          KB : Drilling Measured From
EKB .FT    6437.0 : Elevation Of Kelly Bushing
EDF .FT    6436.0 : Elevation Of Derrick Floor
EGL .FT    6416.0 : Elevation Of Ground Level
TD  .FT   13400.0 : Total Depth
DD  .FT   12587.0 : Depth Driller
DL  .FT   12616.0 : Depth Logger
BLI .FT   12602.0 : Bottom Log Interval
TLI .FT    2346.0 : Top Log Interval
DFT .    GEL-CHEM : Drilling Fluid Type
LUN .        8269 : Logging Unit Number
LUL . ROCK SPRING : Logging Unit Location
DGBY.         R2V : 
WSTA.         LOC : 
~Other -----------------------------------------------------
<DescLogPlotStart>   NEURALOG PLOT DEFINITION
PLOTDEFVERSION: 3
LASFILE: C:\nds\projects\mf-nov-13\las\3724185G.las
DEPTHSCALE: 240.000000
RESOLUTION: 200
DEPTHLABELFREQ: 100.000000
HEAVYGRIDFREQ: 100.000000
MEDIUMGRIDFREQ: 50.000000
LIGHTGRIDFREQ: 10.000000
#
#   TRACK 1
#
STARTTRACK:
LEFTX: 0.500000 inch
RIGHTX: 3.000000 inch
SCALETYPE: Linear
NUMCHARTDIVISIONS: 10
CURVE: GR    0.000000   150.000000 (0,0,255)      Solid             2     N
CURVE: SP    -100.000000 0.000000   (0,131,131)    Dot               2     Y
BACKUP: 0.000000   100.000000 (0,131,131)    Dot               2
BACKUP: 100.000000 200.000000 (0,131,131)    Dot               2
BACKUP: 200.000000 300.000000 (0,131,131)    Dot               2
BACKUP: 300.000000 400.000000 (0,131,131)    Dot               2
CURVE: CALI  4.000000   14.000000  (255,0,255)    Short_Dash        2     N
CURVE: HCAL  4.000000   14.000000  (255,0,0)      Medium_Dash       2     Y
BACKUP: -6.000000  4.000000   (255,0,0)      Medium_Dash       2
ENDTRACK:
#
#   TRACK 2
#
STARTTRACK:
LEFTX: 3.500000 inch
RIGHTX: 8.500000 inch
SCALETYPE: Log
NUMCYCLES: 4
STARTCYCLE: 2
CURVE: AHT90 0.200000   2000.000000 (255,131,0)    Solid             2     N
CURVE: ILD   0.200000   2000.000000 (255,255,0)    Dot               2     N
ENDTRACK:
#
#   TRACK 3
#
STARTTRACK:
LEFTX: 3.500000 inch
RIGHTX: 8.500000 inch
SCALETYPE: Linear
NUMCHARTDIVISIONS: 10
CURVE: DPHI  0.300000   -0.100000  (0,0,255)      Solid             2     Y
BACKUP: 0.700000   0.300000   (0,0,255)      Solid             2
CURVE: NPOR  0.300000   -0.100000  (0,131,131)    Dot               2     Y
BACKUP: 0.700000   0.300000   (0,131,131)    Dot               2
ENDTRACK:
#
#   TRACK 4
#
STARTTRACK:
LEFTX: 3.500000 inch
RIGHTX: 8.500000 inch
SCALETYPE: Linear
NUMCHARTDIVISIONS: 10
CURVE: RHOB  2.000000   3.000000   (255,0,255)    Solid             2     Y
BACKUP: 1.000000   2.000000   (255,0,255)    Solid             2
BACKUP: 3.000000   4.000000   (255,0,255)    Solid             2
CURVE: PEF   0.000000   20.000000  (255,0,0)      Dot               2     N
ENDTRACK:
#
#   TRACK 5
#
STARTTRACK:
LEFTX: 3.500000 inch
RIGHTX: 8.500000 inch
SCALETYPE: Linear
NUMCHARTDIVISIONS: 10
CURVE: DT    140.000000 40.000000  (255,131,0)    Solid             2     Y
BACKUP: 240.000000 140.000000 (255,131,0)    Solid             2
ENDTRACK:
<DescLogPlotEnd>
~ASCII -----------------------------------------------------
# ...
 12182.00000  -36.92800  -23.07558    8.61336   13.05404    -999.25    -999.25    0.08510    0.15023    2.53724    2.22208   70.60914    0.14089   13.05404
 12182.10000  -37.11965  -23.35025    8.61403   13.09952    -999.25    -999.25    0.08626    0.14905    2.53629    2.29496   70.55220    0.14047   13.09952
 12182.20000  -37.29923  -23.62494    8.61451   13.15788    -999.25    -999.25    0.08731    0.14786    2.53420    2.34894   70.49557    0.14006   13.15788
 12182.30000  -37.48797  -23.86244    8.61467   13.21145    -999.25    -999.25    0.08836    0.14668    2.53216    2.37030   70.43888    0.13965   13.21145
 12182.40000  -37.68311  -24.01118    8.61463   13.26728    -999.25    -999.25    0.08941    0.14552    2.53034    2.37030   70.38212    0.13924   13.26728
 12182.50000  -37.86092  -24.05610    8.61459   13.32485    -999.25    -999.25    0.09047    0.14524    2.52846    2.37025   70.32547    0.13883   13.32485
 12182.60000  -38.03634  -24.03988    8.61461   13.37743    -999.25    -999.25    0.09154    0.14496    2.52682    2.37683   70.26871    0.13842   13.37743
 12182.70000  -38.24583  -24.01792    8.61463   13.43912    -999.25    -999.25    0.09180    0.14468    2.52590    2.38331   70.21205    0.13801   13.43912
 12182.80000  -38.45227  -24.00654    8.61461   13.48913    -999.25    -999.25    0.09206    0.14441    2.52548    2.38644   70.15521    0.13763   13.48913
 12182.90000  -38.54031  -23.99210    8.61460   13.54924    -999.25    -999.25    0.09232    0.14413    2.52492    2.38969   70.09859    0.13719   13.54924
 12183.00000  -38.44897  -23.97157    8.61461   13.73436    -999.25    -999.25    0.09259    0.14385    2.52420    2.39473   70.04198    0.13678   13.73436
 12183.10000  -38.25330  -23.95634    8.61461   13.92368    -999.25    -999.25    0.09285    0.14358    2.52370    2.39966   69.98536    0.13637   13.92368
 12183.20000  -38.06376  -23.94427    8.61461   14.10048    -999.25    -999.25    0.09315    0.14330    2.52329    2.40368   69.92874    0.13596   14.10048
 12183.30000  -37.90818  -23.92288    8.61461   14.29268    -999.25    -999.25    0.09422    0.14303    2.52223    2.40774   69.87213    0.13555   14.29268
 12183.40000  -37.75091  -23.90076    8.61461   14.47726    -999.25    -999.25    0.09546    0.14270    2.52015    2.41226   69.81551    0.13514   14.47726
 12183.50000  -37.57686  -23.89458    8.61461   14.67078    -999.25    -999.25    0.09670    0.14201    2.51756    2.41670   69.75890    0.13473   14.67078
 12183.60000  -37.40118  -23.88667    8.61461   14.86455    -999.25    -999.25    0.09794    0.14118    2.51513    2.42000   69.70228    0.13432   14.86455
 12183.70000  -37.23394  -23.84768    8.61460   15.05875    -999.25    -999.25    0.09918    0.14034    2.51292    2.42076   69.64567    0.13400   15.05875
 12183.80000  -37.07349  -23.81538    8.61460   15.26223    -999.25    -999.25    0.10042    0.13950    2.51062    2.41805   69.58905    0.13400   15.26223
 12183.90000  -36.90905  -23.88661    8.61460   15.45759    -999.25    -999.25    0.10201    0.13866    2.50820    2.41158   69.53244    0.13400   15.45759
 12184.00000  -36.72838  -24.10281    8.61460   15.66992    -999.25    -999.25    0.10258    0.13782    2.50589    2.40179   69.47582    0.13374   15.66992
 12184.10000  -36.55807  -24.39363    8.61460   15.86782    -999.25    -999.25    0.10337    0.13698    2.50364    2.39142   69.41920    0.13360   15.86782
 12184.20000  -36.46032  -24.66267    8.61460   16.01731    -999.25    -999.25    0.10416    0.13585    2.50122    2.38515   69.36259    0.13333   16.01731
 12184.30000  -36.45355  -24.88959    8.61460   16.15689    -999.25    -999.25    0.10495    0.13559    2.49888    2.38308   69.32596    0.13313   16.15689
 12184.40000  -36.50041  -25.12217    8.61460   16.15777    -999.25    -999.25    0.10574    0.13520    2.49746    2.37695   69.36761    0.13292   16.15777
 12184.50000  -36.62346  -25.39023    8.61460   16.13157    -999.25    -999.25    0.10653    0.13480    2.49760    2.35872   69.39839    0.13280   16.13157
 12184.60000  -36.93182  -25.65838    8.61460   16.11250    -999.25    -999.25    0.10765    0.13441    2.49900    2.33141   69.42918    0.13280   16.11250
 12184.70000  -37.46182  -25.87905    8.61460   16.09346    -999.25    -999.25    0.10715    0.13401    2.50064    2.30470   69.45996    0.13280   16.09346
 12184.80000  -38.09590  -26.08008    8.61460   16.07444    -999.25    -999.25    0.10628    0.13362    2.50188    2.28233   69.49074    0.13280   16.07444
 12184.90000  -38.70306  -26.35382    8.61460   16.05544    -999.25    -999.25    0.10540    0.13322    2.50293    2.26093   69.52153    0.13280   16.05544
 12185.00000  -39.25514  -26.73830    8.61460   16.03646    -999.25    -999.25    0.10452    0.13283    2.50431    2.23852   69.55231    0.13320   16.03646
 12185.10000  -39.77987  -27.16165    8.61460   16.00860    -999.25    -999.25    0.10364    0.13244    2.50595    2.21606   69.58310    0.13347   16.00860
 12185.20000  -40.31993  -27.54135    8.61460   15.86889    -999.25    -999.25    0.10277    0.13223    2.50718    2.19280   69.62777    0.13375   15.86889
 12185.30000  -40.92977  -27.88341    8.61460   15.60832    -999.25    -999.25    0.10189    0.13223    2.50751    2.16769   69.63903    0.13402   15.60832
 12185.40000  -41.58028  -28.23761    8.61460   15.35203    -999.25    -999.25    0.10101    0.13223    2.50729    2.14338   69.65956    0.13429   15.35203
 12185.50000  -42.09840  -28.61061    8.61460   15.09995    -999.25    -999.25    0.10013    0.13223    2.50706    2.12283   69.68008    0.13457   15.09995
 12185.60000  -42.33079  -28.97711    8.61460   14.85201    -999.25    -999.25    0.09960    0.13320    2.50687    2.10410   69.70060    0.13484   14.85201
 12185.70000  -42.31679  -29.33324    8.61460   14.60814    -999.25    -999.25    0.10056    0.13389    2.50662    2.08335   69.72837    0.13511   14.60814
 12185.80000  -42.18976  -29.69325    8.61460   14.36827    -999.25    -999.25    0.10125    0.13458    2.50667    2.06057   69.77264    0.13539   14.36827
 12185.90000  -41.98156  -30.05863    8.61460   14.05913    -999.25    -999.25    0.10194    0.13505    2.50754    2.03838   69.84105    0.13566   14.05913
 12186.00000  -41.61990  -30.42178    8.61460   14.05913    -999.25    -999.25    0.10242    0.13595    2.50915    2.01727   69.90946    0.13602   14.05913
 12186.10000  -41.03837  -30.78245    8.61460   14.04037    -999.25    -999.25    0.10109    0.13663    2.51091    1.99564   69.97787    0.13631   14.04037
 12186.20000  -40.21791  -31.14447    8.61460   14.01382    -999.25    -999.25    0.10008    0.13731    2.51256    1.97332   70.04628    0.13672   14.01382
 12186.30000  -39.19820  -31.50759    8.61460   13.98733    -999.25    -999.25    0.09906    0.13800    2.51445    1.95173   70.11469    0.13713   13.98733
 12186.40000  -38.08363  -31.86986    8.61460   13.96089    -999.25    -999.25    0.09805    0.13868    2.51694    1.93073   70.18310    0.13754   13.96089
 12186.50000  -36.97905  -32.23147    8.61460   13.92933    -999.25    -999.25    0.09703    0.13936    2.51992    1.90855   70.25151    0.13803   13.92933
 12186.60000  -35.90428  -32.59423    8.61460   13.92933    -999.25    -999.25    0.09602    0.14004    2.52305    1.88566   70.33199    0.13877   13.92933
 12186.70000  -34.82221  -32.95713    8.61460   13.88599    -999.25    -999.25    0.09517    0.14072    2.52612    1.86483   70.50101    0.13969   13.88599
 12186.80000  -33.72411  -33.31819    8.61460   13.83354    -999.25    -999.25    0.09293    0.14140    2.52916    1.84507   70.70624    0.14062   13.83354
 12186.90000  -32.63370  -33.67907    8.61460   13.78129    -999.25    -999.25    0.09100    0.14209    2.53226    1.82126   70.91147    0.14154   13.78129
 12187.00000  -31.55289  -34.04342    8.61460   13.72923    -999.25    -999.25    0.08908    0.14270    2.53538    1.79542   71.11670    0.14246   13.72923
 12187.10000  -30.46057  -34.40798    8.61460   13.67332    -999.25    -999.25    0.08715    0.14422    2.53842    1.78218   71.32193    0.14339   13.67332
