~Version ---------------------------------------------------
VERS. 2.0 : CWLS log ASCII Standard -VERSION 2.0
WRAP.  NO : One Line Per Depth Step
~Well ------------------------------------------------------
STRT .FT              12000.0 : START DEPTH
STOP .FT              13400.0 : STOP DEPTH
STEP .FT   0.1000000000003638 : STEP
NULL .                -999.25 : NULL VALUE
COMP . ENRON OIL &GAS COMPANY : COMPANY
WELL .       CEPO-LEWIS 21-38 : WELL
FLD  .             CEPO-LEWIS : FIELD
LOC  .   1205' FWL &1300' FSL : LOCATION
CNTY .             SWEETWATER : COUNTY
STAT .                WYOMING : STATE
CTRY .                    USA : COUNTRY
SRVC .                        : SERVICE COMPANY
DATE .             25/05/1998 : DATE
API  .             4903724185 : API NUMBER
UWI  .                3724185 : UWI NUMBER
TVD  .                     NO : TVD flag
WSTA .                    LOC : Well status
USGS .                   CEPO : USGS Number
LATI .DEG            41.18194 : LATITUDE
LONG .DEG          -108.14139 : LONGITUDE
UTM-N.             4562894.53 : Northing
UTM-E.              739764.57 : Easting
CORE .FT                 -3.9 : Core/Log Offset
~Curve Information -----------------------------------------
DEPT .FT                : Depth in Feet
GR   .GAPI 35 310 01 01 : Gamma Ray
SP   .MV   01 010 01 01 : Spontaneous Potential
CALI .IN   70 280 01 01 : Caliper
AHT90.OHMM              : 
ILD  .OHMM 05 120 46 01 : Deep Induction Standard Processed Resistivity
HCAL .IN                : 
DPHI .V/V  45 890 01 01 : Density Porosity
NPOR .V/V               : Neutron Porosity Output From An Application Program
RHOB .G/C3 42 350 01 01 : Bulk Density
PEF  .b/e               : Photo-Electric Factor
DT   .US/F 60 520 08 01 : Delta-T
SPHI .V/V  61 890 01 01 : Sonic Porosity
RESD .OHMM              : Deep Resistivity - Merged AHT90 & ILD
~Params ----------------------------------------------------
DATE.  25-05-1998 : Date As Month-Day-Year
RUN .         ONE : Run Number
PDAT.         UNK : Permanent Datum
EPD .FT    6416.0 : Elevation Of Perm. Datum
LMF .          KB : Log Measured From
FAPD.FT      21.0 : Feet Above Perm. Datum
DMF .          KB : Drilling Measured From
EKB .FT    6437.0 : Elevation Of Kelly Bushing
EDF .FT    6436.0 : Elevation Of Derrick Floor
EGL .FT    6416.0 : Elevation Of Ground Level
TD  .FT   13400.0 : Total Depth
DD  .FT   12587.0 : Depth Driller
DL  .FT   12616.0 : Depth Logger
BLI .FT   12602.0 : Bottom Log Interval
TLI .FT    2346.0 : Top Log Interval
DFT .    GEL-CHEM : Drilling Fluid Type
LUN .        8269 : Logging Unit Number
LUL . ROCK SPRING : Logging Unit Location
DGBY.         R2V : 
WSTA.         LOC : 
~Other -----------------------------------------------------
<DescLogPlotStart>   NEURALOG PLOT DEFINITION
PLOTDEFVERSION: 3
LASFILE: C:\nds\projects\mf-nov-13\las\3724185G.las
DEPTHSCALE: 240.000000
RESOLUTION: 200
DEPTHLABELFREQ: 100.000000
HEAVYGRIDFREQ: 100.000000
MEDIUMGRIDFREQ: 50.000000
LIGHTGRIDFREQ: 10.000000
#
#   TRACK 1
#
STARTTRACK:
LEFTX: 0.500000 inch
RIGHTX: 3.000000 inch
SCALETYPE: Linear
NUMCHARTDIVISIONS: 10
CURVE: GR    0.000000   150.000000 (0,0,255)      Solid             2     N
CURVE: SP    -100.000000 0.000000   (0,131,131)    Dot               2     Y
BACKUP: 0.000000   100.000000 (0,131,131)    Dot               2
BACKUP: 100.000000 200.000000 (0,131,131)    Dot               2
BACKUP: 200.000000 300.000000 (0,131,131)    Dot               2
BACKUP: 300.000000 400.000000 (0,131,131)    Dot               2
CURVE: CALI  4.000000   14.000000  (255,0,255)    Short_Dash        2     N
CURVE: HCAL  4.000000   14.000000  (255,0,0)      Medium_Dash       2     Y
BACKUP: -6.000000  4.000000   (255,0,0)      Medium_Dash       2
ENDTRACK:
#
#   TRACK 2
#
STARTTRACK:
LEFTX: 3.500000 inch
RIGHTX: 8.500000 inch
SCALETYPE: Log
NUMCYCLES: 4
STARTCYCLE: 2
CURVE: AHT90 0.200000   2000.000000 (255,131,0)    Solid             2     N
CURVE: ILD   0.200000   2000.000000 (255,255,0)    Dot               2     N
ENDTRACK:
#
#   TRACK 3
#
STARTTRACK:
LEFTX: 3.500000 inch
RIGHTX: 8.500000 inch
SCALETYPE: Linear
NUMCHARTDIVISIONS: 10
CURVE: DPHI  0.300000   -0.100000  (0,0,255)      Solid             2     Y
BACKUP: 0.700000   0.300000   (0,0,255)      Solid             2
CURVE: NPOR  0.300000   -0.100000  (0,131,131)    Dot               2     Y
BACKUP: 0.700000   0.300000   (0,131,131)    Dot               2
ENDTRACK:
#
#   TRACK 4
#
STARTTRACK:
LEFTX: 3.500000 inch
RIGHTX: 8.500000 inch
SCALETYPE: Linear
NUMCHARTDIVISIONS: 10
CURVE: RHOB  2.000000   3.000000   (255,0,255)    Solid             2     Y
BACKUP: 1.000000   2.000000   (255,0,255)    Solid             2
BACKUP: 3.000000   4.000000   (255,0,255)    Solid             2
CURVE: PEF   0.000000   20.000000  (255,0,0)      Dot               2     N
ENDTRACK:
#
#   TRACK 5
#
STARTTRACK:
LEFTX: 3.500000 inch
RIGHTX: 8.500000 inch
SCALETYPE: Linear
NUMCHARTDIVISIONS: 10
CURVE: DT    140.000000 40.000000  (255,131,0)    Solid             2     Y
BACKUP: 240.000000 140.000000 (255,131,0)    Solid             2
ENDTRACK:
<DescLogPlotEnd>
~ASCII -----------------------------------------------------
# ...
 12369.20000  -11.96314  -21.40404    8.69701    9.57229    -999.25    -999.25    0.01759    0.17251    2.64848    2.26590   67.81052    0.11849    9.57229
 12369.30000  -11.34730  -21.40335    8.69731    9.53364    -999.25    -999.25    0.01687    0.17568    2.64946    2.26024   67.93858    0.11958    9.53364
 12369.40000  -10.77958  -21.39872    8.69763    9.49428    -999.25    -999.25    0.01615    0.17807    2.65046    2.26303   68.02334    0.12066    9.49428
 12369.50000  -10.28436  -21.39751    8.69794    9.45577    -999.25    -999.25    0.01543    0.18045    2.65160    2.27566   68.13603    0.12174    9.45577
 12369.60000   -9.69447  -21.40483    8.69825    9.41696    -999.25    -999.25    0.01501    0.18283    2.65259    2.29050   68.22989    0.12233    9.41696
 12369.70000   -8.89369  -21.40867    8.69856    9.37860    -999.25    -999.25    0.01501    0.18419    2.65294    2.30071   68.30537    0.12316    9.37860
 12369.80000   -8.10001  -21.38388    8.69887    9.34036    -999.25    -999.25    0.01574    0.18419    2.65255    2.30762   68.39879    0.12373    9.34036
 12369.90000   -7.70334  -21.32226    8.69918    9.30220    -999.25    -999.25    0.01625    0.18459    2.65186    2.31553   68.47526    0.12430    9.30220
 12370.00000   -7.84155  -21.24560    8.69948    9.26433    -999.25    -999.25    0.01676    0.18459    2.65129    2.32487   68.52497    0.12515    9.26433
 12370.10000   -8.31425  -21.17771    8.69979    9.22651    -999.25    -999.25    0.01727    0.18141    2.65084    2.33364   68.58806    0.12536    9.22651
 12370.20000   -8.88300  -21.11852    8.70010    9.18880    -999.25    -999.25    0.01778    0.17927    2.65035    2.34166   68.63880    0.12576    9.18880
 12370.30000   -9.46716  -21.05628    8.70041    9.15144    -999.25    -999.25    0.01829    0.17613    2.64980    2.35003   68.68153    0.12617    9.15144
 12370.40000  -10.05608  -20.98974    8.70072    9.11354    -999.25    -999.25    0.01903    0.17508    2.64926    2.35881   68.72874    0.12658    9.11354
 12370.50000  -10.62008  -20.92517    8.70103    9.07704    -999.25    -999.25    0.01866    0.17312    2.64872    2.36732   68.77492    0.12698    9.07704
 12370.60000  -11.14420  -20.86284    8.70134    9.03877    -999.25    -999.25    0.01799    0.17115    2.64821    2.37564   68.82111    0.12739    9.03877
 12370.70000  -11.63618  -20.79880    8.70165    9.00325    -999.25    -999.25    0.01731    0.16918    2.64793    2.38420   68.86729    0.12779    9.00325
 12370.80000  -12.08376  -20.73380    8.70196    8.96450    -999.25    -999.25    0.01663    0.16722    2.64818    2.39285   68.91348    0.12837    8.96450
 12370.90000  -12.47203  -20.67088    8.70226    8.92999    -999.25    -999.25    0.01595    0.16445    2.64903    2.40114   68.95967    0.12873    8.92999
 12371.00000  -12.82507  -20.60800    8.70257    8.89095    -999.25    -999.25    0.01501    0.16445    2.65030    2.40957   69.02414    0.12934    8.89095
 12371.10000  -13.16610  -20.54191    8.70288    8.84316    -999.25    -999.25    0.01420    0.16445    2.65167    2.41973   69.06506    0.12995    8.84316
 12371.20000  -13.45853  -20.47668    8.70319    8.81498    -999.25    -999.25    0.01382    0.16548    2.65294    2.43279   69.13280    0.13056    8.81498
 12371.30000  -13.63930  -20.41695    8.70350    8.77659    -999.25    -999.25    0.01299    0.16715    2.65417    2.44818   69.22535    0.13116    8.77659
 12371.40000  -13.70483  -20.35496    8.70381    8.73264    -999.25    -999.25    0.01277    0.16882    2.65553    2.46424   69.32193    0.13177    8.73264
 12371.50000  -13.72487  -20.28241    8.70412    8.69473    -999.25    -999.25    0.01243    0.17050    2.65690    2.47998   69.52716    0.13238    8.69473
 12371.60000  -13.75914  -20.21762    8.70442    8.65104    -999.25    -999.25    0.01208    0.17217    2.65800    2.49555   69.57143    0.13299    8.65104
 12371.70000  -13.80306  -20.19735    8.70473    8.61368    -999.25    -999.25    0.01174    0.17384    2.65865    2.51128   69.63917    0.13360    8.61368
 12371.80000  -13.82819  -20.23273    8.70504    8.57017    -999.25    -999.25    0.01140    0.17551    2.65903    2.52709   69.72837    0.13421    8.57017
 12371.90000  -13.84967  -20.29358    8.70535    8.53218    -999.25    -999.25    0.01105    0.17719    2.65942    2.54281   69.75151    0.13482    8.53218
 12372.00000  -13.90185  -20.34678    8.70566    8.49231    -999.25    -999.25    0.01071    0.17936    2.65990    2.55848   69.78538    0.13543    8.49231
 12372.10000  -13.95108  -20.38982    8.70597    8.44127    -999.25    -999.25    0.01036    0.17976    2.66037    2.57422   69.81925    0.13604    8.44127
 12372.20000  -13.91320  -20.43590    8.70628    8.44597    -999.25    -999.25    0.01002    0.17976    2.66079    2.59000   69.85312    0.13682    8.44597
 12372.30000  -13.77393  -20.48707    8.70658    8.45256    -999.25    -999.25    0.00967    0.17976    2.66123    2.60571   69.88699    0.13685    8.45256
 12372.40000  -13.61329  -20.53652    8.70689    8.45916    -999.25    -999.25    0.00933    0.17926    2.66169    2.62137   69.92958    0.13688    8.45916
 12372.50000  -13.47347  -20.58324    8.70720    8.46577    -999.25    -999.25    0.00899    0.17858    2.66214    2.63714   69.94330    0.13691    8.46577
 12372.60000  -13.29114  -20.63094    8.70751    8.47238    -999.25    -999.25    0.00856    0.17791    2.66256    2.65300   69.96177    0.13695    8.47238
 12372.70000  -13.00761  -20.68007    8.70782    8.47900    -999.25    -999.25    0.00864    0.17723    2.66302    2.66864   69.98025    0.13698    8.47900
 12372.80000  -12.66695  -20.72874    8.70813    8.48562    -999.25    -999.25    0.00874    0.17655    2.66351    2.68412   69.99872    0.13701    8.48562
 12372.90000  -12.34700  -20.77676    8.70844    8.49225    -999.25    -999.25    0.00884    0.17573    2.66390    2.70002   70.01719    0.13705    8.49225
 12373.00000  -12.06783  -20.82490    8.70875    8.49888    -999.25    -999.25    0.00896    0.17576    2.66413    2.71614   70.03567    0.13708    8.49888
 12373.10000  -11.82098  -20.87332    8.70905    8.50552    -999.25    -999.25    0.00913    0.17579    2.66425    2.73147   70.05414    0.13712    8.50552
 12373.20000  -11.61569  -20.92190    8.70936    8.51216    -999.25    -999.25    0.00933    0.17582    2.66426    2.74637   70.07262    0.13715    8.51216
 12373.30000  -11.44372  -20.97033    8.70967    8.51993    -999.25    -999.25    0.00953    0.17586    2.66400    2.76284   70.09109    0.13718    8.51993
 12373.40000  -11.26788  -21.01853    8.70998    8.50184    -999.25    -999.25    0.00977    0.17589    2.66342    2.78094   70.10957    0.13722    8.50184
 12373.50000  -11.08575  -21.06681    8.71029    8.47962    -999.25    -999.25    0.01028    0.17593    2.66268    2.79736   70.12824    0.13749    8.47962
 12373.60000  -10.93220  -21.11564    8.71060    8.45905    -999.25    -999.25    0.01098    0.17596    2.66196    2.80964   70.14682    0.13781    8.45905
 12373.70000  -10.78319  -21.16427    8.71091    8.43638    -999.25    -999.25    0.01150    0.17599    2.66125    2.81942   70.16532    0.13812    8.43638
 12373.80000  -10.53991  -21.21217    8.71121    8.41585    -999.25    -999.25    0.01219    0.17603    2.66049    2.82971   70.18367    0.13844    8.41585
 12373.90000  -10.15131  -21.26058    8.71152    8.39314    -999.25    -999.25    0.01362    0.17606    2.65958    2.84141   70.20255    0.13875    8.39314
 12374.00000   -9.68261  -21.31021    8.71183    8.37301    -999.25    -999.25    0.01525    0.17610    2.65819    2.85383   70.22038    0.13907    8.37301
 12374.10000   -9.22445  -21.35835    8.71214    8.35000    -999.25    -999.25    0.01687    0.17613    2.65592    2.86573   70.23993    0.13939    8.35000
 12374.20000   -8.79897  -21.39641    8.71245    8.33046    -999.25    -999.25    0.01850    0.17613    2.65281    2.87592   70.25704    0.13970    8.33046
 12374.30000   -8.37924  -21.41147    8.71276    8.30712    -999.25    -999.25    0.02013    0.17613    2.64936    2.88631   70.27733    0.14004    8.30712
