~Version ---------------------------------------------------
VERS. 2.0 : CWLS log ASCII Standard -VERSION 2.0
WRAP.  NO : One Line Per Depth Step
~Well ------------------------------------------------------
STRT .FT              8400.0 : START DEPTH
STOP .FT              9700.0 : STOP DEPTH
STEP .FT  0.1000000000003638 : STEP
NULL .               -999.25 : NULL VALUE
COMP .  PRESIDIO OIL COMPANY : COMPANY
WELL .     J.T. FEDERAL NO.5 : WELL
FLD  .   SOUTH HAY RESOURCES : FIELD
LOC  . 1266' FNL & 1684' FEL : LOCATION
CNTY .            SWEETWATER : COUNTY
STAT .               WYOMING : STATE
CTRY .                   USA : COUNTRY
SRVC .                       : SERVICE COMPANY
DATE .            30/06/1993 : DATE
API  .            4903723152 : API NUMBER
UWI  .               3723152 : UWI NUMBER
TVD  .                    NO : TVD flag
WSTA .                   LOC : Well status
USGS .                  S179 : USGS Number
LATI .DEG           41.97079 : LATITUDE
LONG .DEG           -108.322 : LONGITUDE
UTM-N.            4650002.36 : Northing
UTM-E.             721895.66 : Easting
CORE .                   N/A : Core/Log Offset
~Curve Information -----------------------------------------
DEPT    .FT                : Depth in Feet
GR      .GAPI 35 310 01 01 : Gamma Ray
SP      .MV   01 010 01 01 : Spontaneous Potential
CALI    .IN   70 280 01 01 : Caliper
ILD     .OHMM 05 120 46 01 : Deep Induction Standard Processed Resistivity
DPHI    .V/V  45 890 01 01 : Density Porosity
NPHI    .V/V  42 890 03 01 : Neutron Porosity
PE      .B/E               : PE
DT      .US/F 60 520 08 01 : Delta-T
ACOUSTIC.DEC               : ACOUSTIC
~Params ----------------------------------------------------
DATE. 30-06-1993 : Date As Month-Day-Year
RUN .        ONE : Run Number
PDAT.        UNK : Permanent Datum
EPD .FT   6607.0 : Elevation Of Perm. Datum
LMF .         KB : Log Measured From
FAPD.FT     16.0 : Feet Above Perm. Datum
DMF .         KB : Drilling Measured From
EKB .FT   6623.0 : Elevation Of Kelly Bushing
EDF .FT   6622.0 : Elevation Of Derrick Floor
EGL .FT   6607.0 : Elevation Of Ground Level
TD  .FT   9700.0 : Total Depth
DD  .FT   9780.0 : Depth Driller
DL  .FT   9724.0 : Depth Logger
BLI .FT   9720.0 : Bottom Log Interval
CSIZ.IN  9.625IN : Casing Size
CBD1.       1698 : Casing Bottom (Driller) 1
CBL1.       1697 : Casing Bottom (Logger) 1
BS  .IN  7.875IN : Bit Size
DFT .        GEL : Drilling Fluid Type
DFV .S      55.0 : Drilling Fluid Viscosity
DFD .LB/G   10.2 : Drilling Fluid Density
DFL .ML      7.6 : Drilling Fluid Loss
DFPH.        9.5 : Drilling Fluid Ph
MSS .   FLOWLINE : Mud Sample Source
RMS .OHMM    1.5 : Resistivity Of Mud Sample
MST .DEGF   74.0 : Mud Sample Temperature
RMF .OHMM    1.8 : Mud Filtrate Resistivity
MFST.DEGF   66.0 : Mud Filtrate Sample Temperature
RMC .OHMM   2.44 : Mud Cake Resistivity
MCST.DEGF   69.0 : Mud Cake Sample Temperature
RMB .OHMM    0.6 : Mud Resistivity At Bht
BHT .DEGF  197.0 : Bottom Hole Temperature
MRT .DEGF  197.0 : Maximum Recorded Temperature
LUN .      52546 : Logging Unit Number
LUL .      VERNL : Logging Unit Location
ENGI.    K EVATT : Engineer'S Name
WITN.    HEFFNER : Witness' Name
DGBY.        R2V : 
WSTA.        LOC : 
~Other -----------------------------------------------------
<DescLogPlotStart>   NEURALOG PLOT DEFINITION
PLOTDEFVERSION: 3
LASFILE: C:\nds\projects\mf-nov-13\las\3723152A.las
DEPTHSCALE: 240.000000
RESOLUTION: 200
DEPTHLABELFREQ: 100.000000
HEAVYGRIDFREQ: 100.000000
MEDIUMGRIDFREQ: 50.000000
LIGHTGRIDFREQ: 10.000000
#
#   TRACK 1
#
STARTTRACK:
LEFTX: 0.500000 inch
RIGHTX: 3.000000 inch
SCALETYPE: Linear
NUMCHARTDIVISIONS: 10
CURVE: GR    0.000000   150.000000 (0,0,255)      Solid             2     N
CURVE: SP    -100.000000 0.000000   (0,131,131)    Dot               2     N
ENDTRACK:
#
#   TRACK 2
#
STARTTRACK:
LEFTX: 0.500000 inch
RIGHTX: 3.000000 inch
SCALETYPE: Linear
NUMCHARTDIVISIONS: 10
CURVE: CALI  6.000000   16.000000  (255,0,255)    Solid             2     Y
BACKUP: -4.000000  6.000000   (255,0,255)    Solid             2
ENDTRACK:
#
#   TRACK 3
#
STARTTRACK:
LEFTX: 3.500000 inch
RIGHTX: 8.500000 inch
SCALETYPE: Log
NUMCYCLES: 4
STARTCYCLE: 2
CURVE: ILD   0.200000   2000.000000 (255,0,0)      Solid             2     N
ENDTRACK:
#
#   TRACK 4
#
STARTTRACK:
LEFTX: 3.500000 inch
RIGHTX: 8.500000 inch
SCALETYPE: Linear
NUMCHARTDIVISIONS: 10
CURVE: DPHI  0.300000   -0.100000  (255,131,0)    Solid             2     Y
BACKUP: 0.700000   0.300000   (255,131,0)    Solid             2
CURVE: NPHI  0.300000   -0.100000  (255,255,0)    Dot               2     Y
BACKUP: 0.700000   0.300000   (255,255,0)    Dot               2
ENDTRACK:
#
#   TRACK 5
#
STARTTRACK:
LEFTX: 3.500000 inch
RIGHTX: 6.000000 inch
SCALETYPE: Linear
NUMCHARTDIVISIONS: 10
CURVE: PE    0.000000   10.000000  (0,0,255)      Solid             2     N
ENDTRACK:
#
#   TRACK 6
#
STARTTRACK:
LEFTX: 8.500000 inch
RIGHTX: 13.500000 inch
SCALETYPE: Linear
NUMCHARTDIVISIONS: 10
CURVE: DT    140.000000 40.000000  (0,131,131)    Solid             2     Y
BACKUP: 40.000000  -60.000000 (0,131,131)    Solid             2
CURVE: ACOUSTIC 0.300000   -0.100000  (255,0,255)    Dot               2     Y
BACKUP: 0.700000   0.300000   (255,0,255)    Dot               2
BACKUP: -0.100000  -0.500000  (255,0,255)    Dot               2
ENDTRACK:
<DescLogPlotEnd>
~ASCII -----------------------------------------------------
# ...
 8487.60000   79.53211  -37.12540   10.23089   24.28169    0.00465    0.15358    3.09565   69.86136    0.13404
 8487.70000   79.80855  -37.09144   10.23121   24.31313    0.00336    0.15400    3.09590   69.84569    0.13387
 8487.80000   80.02881  -37.05748   10.23154   24.34462    0.00213    0.15427    3.09621   69.83002    0.13333
 8487.90000   80.28319  -37.02360   10.23186   24.37614    0.00140    0.15545    3.09739   69.81435    0.13267
 8488.00000   80.40808  -36.98974   10.23217   24.40771    0.00071    0.15589    3.09849   69.79868    0.13201
 8488.10000   80.23736  -36.95570   10.23248   24.43931    0.00023    0.15539    3.09785   69.78301    0.13134
 8488.20000   79.81765  -36.92162   10.23282   24.45842   -0.00028    0.15505    3.09740   69.76673    0.13068
 8488.30000   79.31149  -36.88790   10.23315   24.39689   -0.00074    0.15475    3.10248   69.59102    0.13001
 8488.40000   78.81382  -36.85428   10.23344   24.35292   -0.00123    0.15424    3.11558   69.40822    0.12935
 8488.50000   78.33464  -36.81995   10.23373   24.30903   -0.00183    0.15310    3.13285   69.22541    0.12869
 8488.60000   77.86555  -36.78546   10.23411   24.26522   -0.00110    0.15130    3.14929   69.04260    0.12802
 8488.70000   77.39434  -36.75226   10.23449   24.22148   -0.00014    0.14944    3.16423   68.85979    0.12736
 8488.80000   76.90136  -36.71939   10.23456   24.17783    0.00082    0.14870    3.17958   68.67698    0.12670
 8488.90000   76.41083  -36.68396   10.23418   24.13425    0.00178    0.14805    3.19538   68.49417    0.12603
 8489.00000   75.96190  -36.64739   10.23353   24.09075    0.00274    0.14721    3.21009   68.31136    0.12537
 8489.10000   75.51101  -36.61706   10.23289   24.04733    0.00370    0.14654    3.22342   68.12855    0.12471
 8489.20000   74.97330  -36.59811   10.23234   24.00481    0.00466    0.14573    3.23653   67.94574    0.12404
 8489.30000   74.44366  -36.58666   10.23179   24.12141    0.00549    0.14503    3.25022   67.76293    0.12338
 8489.40000   74.22412  -36.57509   10.23120   24.23641    0.00457    0.14424    3.26384   67.73834    0.12292
 8489.50000   74.50198  -36.56098   10.23060   24.35195    0.00377    0.14371    3.27514   67.86198    0.12281
 8489.60000   75.08973  -36.54681   10.23003   24.46804    0.00297    0.14384    3.28171   67.95631    0.12273
 8489.70000   75.61454  -36.53395   10.22946   24.58469    0.00216    0.14401    3.28339   68.05065    0.12264
 8489.80000   75.87407  -36.52111   10.22888   24.70244    0.00136    0.14415    3.28274   68.14498    0.12256
 8489.90000   75.89266  -36.50756   10.22830   24.81806    0.00056    0.14429    3.28227   68.23931    0.12248
 8490.00000   75.79268  -36.49401   10.22772   24.93803   -0.00024    0.14443    3.28249   68.33365    0.12239
 8490.10000   75.72986  -36.48082   10.22714   25.05647   -0.00142    0.14457    3.28276   68.42798    0.12231
 8490.20000   75.77768  -36.46764   10.22656   25.17628   -0.00142    0.14471    3.28278   68.52231    0.12222
 8490.30000   75.78289  -36.45428   10.22598   25.29682   -0.00142    0.14485    3.28245   68.65112    0.12211
 8490.40000   75.58413  -36.44092   10.22540   25.41705   -0.00142    0.14498    3.28208   68.62880    0.12243
 8490.50000   75.46063  -36.42763   10.22483   25.53937   -0.00142    0.14512    3.28318   68.59364    0.12294
 8490.60000   75.97808  -36.41435   10.22425   25.66012   -0.00142    0.14526    3.28758   68.55849    0.12346
 8490.70000   77.25551  -36.40103   10.22367   25.78430   -0.00205    0.14540    3.29520   68.52333    0.12397
 8490.80000   78.79182  -36.38770   10.22309   25.90547   -0.00304    0.14554    3.30377   68.48817    0.12448
 8490.90000   80.17256  -36.37438   10.22251   26.03125   -0.00404    0.14568    3.31140   68.45301    0.12499
 8491.00000   81.46837  -36.36106   10.22194   26.11492   -0.00503    0.14582    3.31866   68.41785    0.12550
 8491.10000   82.70088  -36.34773   10.22136   26.11733   -0.00603    0.14596    3.32703   68.38269    0.12601
 8491.20000   83.45730  -36.33441   10.22078   26.11476   -0.00702    0.14610    3.33580   68.34686    0.12652
 8491.30000   83.47691  -36.32109   10.22020   26.11690   -0.00802    0.14624    3.34212   68.51613    0.12703
 8491.40000   83.18290  -36.30776   10.21962   26.11462   -0.00901    0.14638    3.34428   68.68873    0.12754
 8491.50000   83.12227  -36.29444   10.21905   26.11462   -0.01001    0.14651    3.34376   68.86133    0.12806
 8491.60000   83.14689  -36.28112   10.21847   26.11462   -0.01118    0.14665    3.34321   69.03393    0.12856
 8491.70000   82.64893  -36.26779   10.21789   26.11462   -0.01061    0.14679    3.34346   69.20653    0.12909
 8491.80000   81.44371  -36.25447   10.21731   26.11462   -0.00992    0.14695    3.34373   69.37913    0.12958
 8491.90000   79.95189  -36.24115   10.21673   26.11462   -0.00915    0.14606    3.34359   69.55172    0.13012
 8492.00000   78.59167  -36.22783   10.21616   26.11462   -0.00988    0.14502    3.34345   69.72432    0.13060
 8492.10000   77.39401  -36.21450   10.21558   26.11462   -0.01071    0.14398    3.34353   69.89692    0.13115
 8492.20000   76.19547  -36.20118   10.21500   26.11462   -0.01159    0.14295    3.34361   70.06952    0.13143
 8492.30000   74.89108  -36.18786   10.21442   26.11462   -0.01185    0.14191    3.34356   70.17241    0.13082
 8492.40000   73.50116  -36.17453   10.21384   26.11462   -0.01212    0.14087    3.34352   69.87627    0.13029
 8492.50000   72.25358  -36.16121   10.21327   26.11462   -0.01240    0.13984    3.34356   69.66531    0.12985
 8492.60000   71.50178  -36.14789   10.21269   26.11462   -0.01178    0.13880    3.34356   69.45436    0.12933
 8492.70000   71.36062  -36.13456   10.21211   26.11462   -0.01115    0.13776    3.34350   69.24341    0.12887
 8492.80000   71.53484  -36.12124   10.21153   26.14746   -0.01053    0.13673    3.34352   69.03245    0.12837
 8492.90000   71.68668  -36.10792   10.21095   26.18175   -0.00991    0.13569    3.34362   68.82150    0.12789
 8493.00000   71.77748  -36.09459   10.21037   26.21608   -0.00929    0.13476    3.34358   68.61055    0.12741
 8493.10000   71.86996  -36.08127   10.20980   26.25046   -0.00874    0.13456    3.34341   68.34686    0.12692
 8493.20000   71.88412  -36.06795   10.20922   26.28488   -0.00835    0.13438    3.34352   68.26775    0.12644
 8493.30000   71.77077  -36.05462   10.20864   26.31934   -0.00801    0.13421    3.34388   68.16227    0.12596
 8493.40000   71.63558  -36.04130   10.20806   26.35386   -0.00766    0.13403    3.34332   68.05680    0.12548
 8493.50000   71.50425  -36.02798   10.20748   26.38841   -0.00732    0.13385    3.34050   67.94118    0.12500
 8493.60000   71.26264  -36.01466   10.20691   26.42302   -0.00697    0.13367    3.33548   67.97522    0.12451
 8493.70000   71.04161  -36.00133   10.20633   26.45766   -0.00671    0.13354    3.32966   68.01289    0.12403
 8493.80000   71.30101  -35.98803   10.20575   26.49236   -0.00633    0.13451    3.32412   68.05057    0.12355
 8493.90000   72.28896  -35.97473   10.20517   26.52710   -0.00603    0.13530    3.31883   68.08824    0.12307
 8494.00000   73.70255  -35.96139   10.20459   26.56188   -0.00573    0.13609    3.31339   68.12591    0.12258
 8494.10000   75.08669  -35.94805   10.20402   26.59671   -0.00543    0.13687    3.30783   68.16358    0.12210
 8494.20000   76.31334  -35.93480   10.20344   26.63158   -0.00513    0.13766    3.30234   68.20125    0.12170
 8494.30000   77.51488  -35.92154   10.20286   26.66651   -0.00483    0.13845    3.29690   68.23892    0.12187
 8494.40000   78.79667  -35.90812   10.20228   26.70147   -0.00453    0.13924    3.29142   68.27659    0.12201
 8494.50000   80.15297  -35.89469   10.20170   26.73649   -0.00422    0.14002    3.28595   68.31426    0.12215
 8494.60000   81.45839  -35.88159   10.20113   26.77154   -0.00392    0.14081    3.28049   68.35193    0.12229
 8494.70000   82.47202  -35.86848   10.20055   26.80665   -0.00362    0.14126    3.27493   68.38960    0.12243
 8494.80000   83.02441  -35.85479   10.19997   26.85832   -0.00346    0.14156    3.26939   68.42727    0.12257
