~Version Information Block
 VERS.                2.00:     CWLS LOG ASCII STANDARD - VERSION 2.000000
 WRAP.                  NO:     One Line Per Depth Step
#
~Well Information Block
#MNEM.UNIT                     Data                         Information
#----------   ------------------------------------------   ----------------
 STRT.FT                                     8200.0000:     START DEPTH
 STOP.FT                                     9700.0000:     STOP DEPTH
 STEP.FT                                        0.1000:     STEP
 NULL.                                       -999.2500:     NULL VALUE
 COMP.                        PRESIDIO EXPLORATION INC:     COMPANY
 WELL.                                   HAY DAM 34-12:     WELL
 FLD .                                          HAYDAM:     FIELD
 LOC .                                   SEC12-23N-97W:     LOCATION
 CNTY.                                      SWEETWATER:     COUNTY
 STAT.                                         WYOMING:     STATE
 CTRY.                                             USA:     COUNTRY
 SRVC.                                    SCHLUMBERGER:     SERVICE COMPANY
 DATE.                                      26/07/1994:     DATE
 API .                                      4903723385:     API NUMBER
 UWI .                                         3723385:     UWI NUMBER
 TVD .                                              NO:     TVD flag
 WSTA.                                             LOC:     Well status
 USGS.                                            F041:     USGS Number
 LATI.DEG                                     41.97739:     LATITUDE
 LONG.DEG                                   -108.32133:     LONGITUDE
 UTM-N.                                        4650736:     Northing
 UTM-E.                                      721928.25:     Easting
 CORE.                                              -5:     Core/Log Offset
#
~Curve Information Block
#MNEM.UNIT       API CODE      Curve Description
#----------    -------------   -------------------
 DEPT.FT                   :   Depth in Feet
 ILD .OHMM     05 120 46 01:   Deep Induction Standard Processed Resistivity
 SP  .MV       01 010 01 01:   Spontaneous Potential
 RHOB.G/C3     42 350 01 01:   Bulk Density
 PEF .b/e                  :   Photo-Electric Factor
 GR  .GAPI     35 310 01 01:   Gamma Ray
 CALI.IN       70 280 01 01:   Caliper
 DPHI.V/V      45 890 01 01:   Density Porosity
 NPHI.V/V      42 890 03 01:   Neutron Porosity
 DTCO.US/F                 :   Delta-T Compressional
#
~Parameter Information Block
#MNEM.UNIT            Value               Description
#----------    --------------------    -------------------
 DATE.                  26-07-1994:    Date As Month-Day-Year
 RUN .                         ONE:    Run Number
 PDAT.                         UNK:    Permanent Datum
 EPD .FT                 6611.0000:    Elevation Of Perm. Datum
 LMF .                          KB:    Log Measured From
 FAPD.FT                   15.0000:    Feet Above Perm. Datum
 DMF .                          KB:    Drilling Measured From
 EKB .FT                 6627.0000:    Elevation Of Kelly Bushing
 EDF .FT                 6626.0000:    Elevation Of Derrick Floor
 EGL .FT                 6611.0000:    Elevation Of Ground Level
 TD  .FT                 9700.0000:    Total Depth
 DD  .FT                 9735.0000:    Depth Driller
 DL  .FT                 9729.0000:    Depth Logger
 BLI .FT                 9719.0000:    Bottom Log Interval
 TLI .FT                 1716.0000:    Top Log Interval
 CSIZ.IN                  9.625 IN:    Casing Size
 CBD1.                        1715:    Casing Bottom (Driller) 1
 CBL1.                        1716:    Casing Bottom (Logger) 1
 BS  .IN                   7.675IN:    Bit Size
 DFT .                    GEL-CHEM:    Drilling Fluid Type
 DFV .S                    45.0000:    Drilling Fluid Viscosity
 DFD .LB/G                 10.1000:    Drilling Fluid Density
 DFL .ML                    8.0000:    Drilling Fluid Loss
 DFPH.                     10.0000:    Drilling Fluid Ph
 MSS .                     MUDTANK:    Mud Sample Source
 RMS .OHMM                  1.4400:    Resistivity Of Mud Sample
 MST .DEGF                 85.0000:    Mud Sample Temperature
 RMF .OHMM                  1.1700:    Mud Filtrate Resistivity
 MFST.DEGF                 80.0000:    Mud Filtrate Sample Temperature
 RMC .OHMM                  1.3300:    Mud Cake Resistivity
 MCST.DEGF                 80.0000:    Mud Cake Sample Temperature
 RMB .OHMM                  0.7480:    Mud Resistivity At Bht
 BHT .DEGF                170.0000:    Bottom Hole Temperature
 MRT .DEGF                170.0000:    Maximum Recorded Temperature
 LUN .                        8415:    Logging Unit Number
 LUL .                      CASPER:    Logging Unit Location
 ENGI.                 CHRISTENSEN:    Engineer'S Name
 WITN.                       LYNON:    Witness' Name
 DGBY.                         R2V:    
 WSTA.                         LOC:    
#
~Other Information Block
<DescLogPlotStart>   NEURALOG PLOT DEFINITION
PLOTDEFVERSION: 3
LASFILE: C:\nds\projects\mf-nov-13\las\3723385A.las
DEPTHSCALE: 240.000000
RESOLUTION: 200
DEPTHLABELFREQ: 100.000000
HEAVYGRIDFREQ: 100.000000
MEDIUMGRIDFREQ: 50.000000
LIGHTGRIDFREQ: 10.000000
#
#   TRACK 1
#
STARTTRACK: 
 LEFTX: 0.500000 inch
 RIGHTX: 3.000000 inch
 SCALETYPE: Log
 NUMCYCLES: 4
 STARTCYCLE: 2
CURVE: ILD   0.200000   2000.000000 (0,0,255)      Solid             2     N   
ENDTRACK: 
#
#   TRACK 2
#
STARTTRACK: 
 LEFTX: 3.500000 inch
 RIGHTX: 6.000000 inch
 SCALETYPE: Linear
 NUMCHARTDIVISIONS: 10
CURVE: SP    -80.000000 20.000000  (0,131,131)    Solid             2     Y    
BACKUP: 20.000000  120.000000 (0,131,131)    Solid             2    
BACKUP: -180.000000 -80.000000 (0,131,131)    Solid             2    
ENDTRACK: 
#
#   TRACK 3
#
STARTTRACK: 
 LEFTX: 6.000000 inch
 RIGHTX: 11.000000 inch
 SCALETYPE: Linear
 NUMCHARTDIVISIONS: 10
CURVE: RHOB  2.000000   3.000000   (255,0,255)    Solid             2     Y    
BACKUP: 1.000000   2.000000   (255,0,255)    Solid             2    
CURVE: PEF   0.000000   10.000000  (255,0,0)      Dot               2     N    
ENDTRACK: 
#
#   TRACK 4
#
STARTTRACK: 
 LEFTX: 11.000000 inch
 RIGHTX: 13.500000 inch
 SCALETYPE: Linear
 NUMCHARTDIVISIONS: 10
CURVE: GR    0.000000   150.000000 (255,131,0)    Solid             2     Y    
BACKUP: 150.000000 300.000000 (255,131,0)    Solid             2    
CURVE: CALI  6.000000   16.000000  (255,255,0)    Dot               2     Y    
BACKUP: 16.000000  26.000000  (255,255,0)    Dot               2    
ENDTRACK: 
#
#   TRACK 5
#
STARTTRACK: 
 LEFTX: 13.500000 inch
 RIGHTX: 18.500000 inch
 SCALETYPE: Linear
 NUMCHARTDIVISIONS: 10
CURVE: DPHI  0.300000   -0.100000  (0,0,255)      Solid             2     N    
CURVE: NPHI  0.300000   -0.100000  (0,131,131)    Dot               2     Y    
BACKUP: 0.700000   0.300000   (0,131,131)    Dot               2    
ENDTRACK: 
#
#   TRACK 6
#
STARTTRACK: 
 LEFTX: 13.500000 inch
 RIGHTX: 18.500000 inch
 SCALETYPE: Linear
 NUMCHARTDIVISIONS: 10
CURVE: DTCO  240.000000 40.000000  (255,0,255)    Solid             2     N    
ENDTRACK: 
<DescLogPlotEnd>
~A DEPTH     ILD              SP               RHOB             PEF              GR               CALI             DPHI             NPHI             DTCO            
# ...
    9194.700 13.34403043      -1.24071852      2.62896129       3.09454269       97.27482360      8.79943007       0.01209366       0.15035247       64.74928285     
    9194.800 13.39595780      -1.27621267      2.62853742       3.10025982       97.05923330      8.79901104       0.01239275       0.15035247       64.78026391     
    9194.900 13.44808724      -1.31156447      2.62828531       3.10795737       96.84317204      8.79859097       0.01269184       0.14994965       64.81124498     
    9195.000 13.50010090      -1.34682644      2.62823328       3.11482596       96.63482566      8.79804743       0.01299094       0.14994965       64.84222605     
    9195.100 13.55273485      -1.38216432      2.62826722       3.12082682       96.42746709      8.79720013       0.01279154       0.14954683       64.87320711     
    9195.200 13.60550450      -1.41753701      2.62827226       3.12762331       96.20580454      8.79601376       0.01259215       0.14954683       64.90418818     
    9195.300 13.65851098      -1.45287938      2.62825636       3.13492103       95.98343815      8.79465913       0.01239275       0.14874119       64.93516925     
    9195.400 13.71170771      -1.48821549      2.62826814       3.14093947       95.78723380      8.79332108       0.01219335       0.14796777       64.96615032     
    9195.500 13.76510877      -1.52356902      2.62828102       3.14654938       95.58917557      8.79202984       0.01199396       0.14717019       65.00000000     
    9195.600 13.81871776      -1.55892256      2.62825360       3.15564480       95.33987762      8.79072780       0.01179456       0.14637261       64.95783133     
    9195.700 13.87249234      -1.59428045      2.62824186       3.17023097       95.10698088      8.78940318       0.01159517       0.14557503       64.91135972     
    9195.800 13.92647618      -1.62967806      2.62837012       3.18775013       95.06474154      8.78808598       0.01137966       0.14477744       64.86488812     
    9195.900 13.98067009      -1.66510259      2.62872532       3.20464885       95.27474866      8.78678066       0.01165458       0.14397986       64.81841652     
    9196.000 14.03507490      -1.70045361      2.62928292       3.22038225       95.59354434      8.78547051       0.01195368       0.14318228       64.77194492     
    9196.100 14.08969142      -1.73575778      2.62985419       3.23642237       95.88240649      8.78415428       0.01225277       0.14238469       64.72547332     
    9196.200 14.14452047      -1.77123658      2.63012961       3.25317184       96.19249311      8.78284092       0.01255186       0.14158711       64.67900172     
    9196.300 14.19956289      -1.80679756      2.62990023       3.26965418       96.64588613      8.78153032       0.01285096       0.14068479       64.63253012     
    9196.400 14.25485945      -1.84198347      2.62926780       3.28551994       97.23724768      8.78021828       0.01315005       0.14038786       64.58605852     
    9196.500 14.31038074      -1.87705158      2.62855365       3.30170704       97.86077309      8.77890519       0.01344914       0.14004604       64.53958692     
    9196.600 14.36597865      -1.91284640      2.62796848       3.31862254       98.46228122      8.77759299       0.01374824       0.13970422       64.49311532     
    9196.700 14.42188285      -1.94876798      2.62743186       3.33500469       99.06286553      8.77628155       0.01404733       0.13936239       64.44664372     
    9196.800 14.47800461      -1.98334058      2.62676462       3.35025797       99.67391096      8.77497012       0.01434642       0.13902057       64.40017212     
    9196.900 14.53434476      -2.01787005      2.62600501       3.36659485       100.27814355     8.77365869       0.01464552       0.13867875       64.35370052     
    9197.000 14.59090415      -2.05507704      2.62541503       3.38570799       100.88028905     8.77234726       0.01500504       0.13826788       64.30722892     
    9197.100 14.64768364      -2.09165535      2.62517248       3.40402255       101.49723875     8.77103582       0.01500504       0.13826788       64.26075731     
    9197.200 14.70468408      -2.11784878      2.62519365       3.41527178       102.10666434     8.76972439       0.01500504       0.13826788       64.21373972     
    9197.300 14.76190634      -2.12869769      2.62528003       3.41766804       102.68912795     8.76841296       0.01500504       0.13867069       64.16755260     
    9197.400 14.81935127      -2.13073784      2.62529407       3.41466512       103.29425976     8.76710153       0.01500504       0.13867069       64.12029916     
    9197.500 14.87701975      -2.13337172      2.62520328       3.40939872       103.94958118     8.76579009       0.01465976       0.13907351       64.07494394     
    9197.600 14.93491263      -2.13860266      2.62514556       3.40267952       104.54087983     8.76447866       0.01420400       0.13923746       64.02665901     
    9197.700 14.99303081      -2.14336328      2.62540423       3.39548832       104.92155290     8.76316723       0.01374824       0.13945680       63.98246665     
    9197.800 15.05137515      -2.14684262      2.62609196       3.38881632       105.08413214     8.76185580       0.01329248       0.13967613       63.93298792     
    9197.900 15.08481665      -2.15066596      2.62696304       3.38173206       105.07962218     8.76054436       0.01283671       0.13989547       63.88990061     
    9198.000 15.08481665      -2.15516450      2.62776375       3.37355953       104.86137333     8.75923293       0.01238095       0.14011480       63.83952696     
    9198.100 15.08481665      -2.15943174      2.62855680       3.36682200       104.38797501     8.75792150       0.01178248       0.14032566       63.79615837     
    9198.200 15.08481665      -2.16335868      2.62942637       3.36439229       103.78766555     8.75661007       0.01172769       0.14055529       63.82767123     
    9198.300 15.08481665      -2.16742338      2.63013740       3.36508698       103.24217654     8.75529863       0.01164794       0.14077173       63.86772619     
    9198.400 15.06907551      -2.17164225      2.63043054       3.36550106       102.77863139     8.75398720       0.01156818       0.14099275       63.90055625     
    9198.500 15.04549461      -2.17578976      2.63042790       3.36495515       102.30427710     8.75267577       0.01148842       0.14121398       63.93970142     
    9198.600 15.02195060      -2.17987460      2.63043824       3.36560404       101.77750634     8.75136434       0.01140866       0.14143346       63.97365144     
    9198.700 14.99844343      -2.18399734      2.63054622       3.36864348       101.24942802     8.75005290       0.01132890       0.14165323       64.01159061     
    9198.800 14.97497305      -2.18815607      2.63064045       3.37294678       100.77061268     8.74874147       0.01124914       0.14187527       64.04670124     
    9198.900 14.95153940      -2.19231531      2.63068529       3.37694567       100.30564550     8.74743004       0.01116939       0.14209059       64.08364130     
    9199.000 14.92814242      -2.19647455      2.63074397       3.38022191       99.76933421      8.74611861       0.01108963       0.14231788       64.11950477     
    9199.100 14.90478205      -2.20063379      2.63082966       3.38355767       99.18462766      8.74480717       0.01100987       0.14252749       64.15598159     
    9199.200 14.88145824      -2.20479303      2.63089939       3.38783620       98.74517733      8.74349574       0.01093011       0.14276032       64.19201952     
    9199.300 14.85817092      -2.20895227      2.63095394       3.39226220       98.61073543      8.74218431       0.01085035       0.14296505       64.22857043     
    9199.400 14.83492005      -2.21311151      2.63102990       3.39418143       98.69707385      8.74087288       0.01077059       0.14320183       64.26435457     
    9199.500 14.81170556      -2.21727075      2.63111346       3.39187612       98.79451009      8.73956145       0.01069084       0.14350373       64.30125602     
