~Version Information Block
 VERS.                2.00:     CWLS LOG ASCII STANDARD - VERSION 2.000000
 WRAP.                  NO:     One Line Per Depth Step
#
~Well Information Block
#MNEM.UNIT                     Data                         Information
#----------   ------------------------------------------   ----------------
 STRT.FT                                     9000.0000:     START DEPTH
 STOP.FT                                    10600.0000:     STOP DEPTH
 STEP.FT                                        0.1000:     STEP
 NULL.                                       -999.2500:     NULL VALUE
 COMP.                            PRESIDIO OIL COMPANY:     COMPANY
 WELL.                          HAY RESERVIOR UNIT #58:     WELL
 FLD .                              HAY RESERVIOR UNIT:     FIELD
 LOC .                               1500' FSL 10' FWL:     LOCATION
 CNTY.                                      SWEETWATER:     COUNTY
 STAT.                                         WYOMING:     STATE
 CTRY.                                             USA:     COUNTRY
 SRVC.                                    SCHLUMBERGER:     SERVICE COMPANY
 DATE.                                      22/02/1994:     DATE
 API .                                      4903723301:     API NUMBER
 UWI .                                         3723301:     UWI NUMBER
 TVD .                                              NO:     TVD flag
 WSTA.                                             LOC:     Well status
 USGS.                                            E945:     USGS Number
 LATI.DEG                                     42.05082:     LATITUDE
 LONG.DEG                                   -108.37861:     LONGITUDE
 UTM-N.                                     4658743.82:     Northing
 UTM-E.                                      716932.37:     Easting
 CORE.FT                                          -9.2:     Core/Log Offset
#
~Curve Information Block
#MNEM.UNIT       API CODE      Curve Description
#----------    -------------   -------------------
 DEPT.FT                   :   Depth in Feet
 ILD .OHMM     05 120 46 01:   Deep Induction Standard Processed Resistivity
 SP  .MV       01 010 01 01:   Spontaneous Potential
 DPHI.DEC      42 890 03 01:   DPHI
 NPHI.DEC      42 890 03 01:   Neutron Porosity
 CALI.IN       70 280 01 01:   Caliper
 GR  .GAPI     35 310 01 01:   Gamma Ray
 RHOB.G/C3     42 350 01 01:   Bulk Density
 PEF .B/E                  :   Photo-Electric Factor
 DT4P.US/F                 :   
#
~Parameter Information Block
#MNEM.UNIT            Value               Description
#----------    --------------------    -------------------
 DATE.                  22-02-1994:    Date As Month-Day-Year
 RUN .                         ONE:    Run Number
 PDAT.                         UNK:    Permanent Datum
 EPD .FT                 6799.0000:    Elevation Of Perm. Datum
 LMF .                          KB:    Log Measured From
 FAPD.FT                   14.0000:    Feet Above Perm. Datum
 DMF .                          KB:    Drilling Measured From
 EKB .FT                 6813.0000:    Elevation Of Kelly Bushing
 EDF .FT                 6812.0000:    Elevation Of Derrick Floor
 EGL .FT                 6799.0000:    Elevation Of Ground Level
 TD  .FT                10600.0000:    Total Depth
 DD  .FT                10625.0000:    Depth Driller
 DL  .FT                10623.0000:    Depth Logger
 BLI .FT                 1061.0000:    Bottom Log Interval
 CSIZ.IN                     9.625:    Casing Size
 CBD1.                        1702:    Casing Bottom (Driller) 1
 CBL1.                        1700:    Casing Bottom (Logger) 1
 BS  .IN                     7.875:    Bit Size
 DFV .S                    45.0000:    Drilling Fluid Viscosity
 DFD .LB/G                 10.5000:    Drilling Fluid Density
 DFL .ML                    7.2000:    Drilling Fluid Loss
 DFPH.                      9.5000:    Drilling Fluid Ph
 MSS .                    MUD TANK:    Mud Sample Source
 RMS .OHMM                  4.6200:    Resistivity Of Mud Sample
 MST .DEGF                 50.0000:    Mud Sample Temperature
 RMF .OHMM                  3.0700:    Mud Filtrate Resistivity
 MFST.DEGF                 50.0000:    Mud Filtrate Sample Temperature
 RMC .OHMM                  7.1400:    Mud Cake Resistivity
 MCST.DEGF                 50.0000:    Mud Cake Sample Temperature
 RMB .OHMM                  1.0990:    Mud Resistivity At Bht
 BHT .DEGF                212.0000:    Bottom Hole Temperature
 MRT .DEGF                212.0000:    Maximum Recorded Temperature
 LUN .                        8415:    Logging Unit Number
 LUL .                      CASPER:    Logging Unit Location
 ENGI.               CHRIS PRESMYK:    Engineer'S Name
 WITN.                STEVE HEFNER:    Witness' Name
 DGBY.                         R2V:    
 WSTA.                         LOC:    
#
~Other Information Block
<DescLogPlotStart>   NEURALOG PLOT DEFINITION
PLOTDEFVERSION: 3
LASFILE: C:\nds\projects\mf-nov-13\las\3723301A.las
DEPTHSCALE: 240.000000
RESOLUTION: 200
DEPTHLABELFREQ: 100.000000
HEAVYGRIDFREQ: 100.000000
MEDIUMGRIDFREQ: 50.000000
LIGHTGRIDFREQ: 10.000000
#
#   TRACK 1
#
STARTTRACK: 
 LEFTX: 0.500000 inch
 RIGHTX: 3.000000 inch
 SCALETYPE: Log
 NUMCYCLES: 4
 STARTCYCLE: 2
CURVE: ILD   0.200000   2000.000000 (0,0,255)      Solid             2     N   
ENDTRACK: 
#
#   TRACK 2
#
STARTTRACK: 
 LEFTX: 3.500000 inch
 RIGHTX: 6.000000 inch
 SCALETYPE: Linear
 NUMCHARTDIVISIONS: 10
CURVE: SP    -80.000000 20.000000  (0,131,131)    Solid             2     Y    
BACKUP: -180.000000 -80.000000 (0,131,131)    Solid             2    
ENDTRACK: 
#
#   TRACK 3
#
STARTTRACK: 
 LEFTX: 6.000000 inch
 RIGHTX: 11.000000 inch
 SCALETYPE: Linear
 NUMCHARTDIVISIONS: 10
CURVE: DPHI  0.300000   -0.100000  (255,0,255)    Solid             2     N    
CURVE: NPHI  0.300000   -0.100000  (255,0,0)      Dot               2     Y    
BACKUP: 0.700000   0.300000   (255,0,0)      Dot               2    
ENDTRACK: 
#
#   TRACK 4
#
STARTTRACK: 
 LEFTX: 11.000000 inch
 RIGHTX: 13.500000 inch
 SCALETYPE: Linear
 NUMCHARTDIVISIONS: 10
CURVE: CALI  6.000000   16.000000  (255,131,0)    Solid             2     N    
CURVE: GR    0.000000   150.000000 (255,255,0)    Dot               2     Y    
BACKUP: 150.000000 300.000000 (255,255,0)    Dot               2    
ENDTRACK: 
#
#   TRACK 5
#
STARTTRACK: 
 LEFTX: 13.500000 inch
 RIGHTX: 18.500000 inch
 SCALETYPE: Linear
 NUMCHARTDIVISIONS: 10
CURVE: RHOB  2.000000   3.000000   (0,0,255)      Solid             2     Y    
BACKUP: 1.000000   2.000000   (0,0,255)      Solid             2    
CURVE: PEF   0.000000   10.000000  (0,131,131)    Dot               2     N    
ENDTRACK: 
#
#   TRACK 6
#
STARTTRACK: 
 LEFTX: 13.500000 inch
 RIGHTX: 18.500000 inch
 SCALETYPE: Linear
 NUMCHARTDIVISIONS: 10
CURVE: DT4P  240.000000 40.000000  (255,0,255)    Solid             2     N    
ENDTRACK: 
<DescLogPlotEnd>
~A DEPTH     ILD              SP               DPHI             NPHI             CALI             GR               RHOB             PEF              DT4P            
# ...
   10063.300 16.79463195      -21.40087182     -0.04864594      0.15408726       8.48694604       110.39004204     2.73140097       3.29403765       65.09456740     
   10063.400 16.77755649      -21.40852849     -0.04804413      0.15463892       8.48807456       110.83226937     2.73000162       3.29645112       65.23004695     
   10063.500 16.76049839      -21.42361836     -0.04804413      0.15519057       8.48920308       111.30616817     2.72844438       3.29952298       65.36552649     
   10063.600 16.74345763      -21.43479886     -0.04684052      0.15574223       8.49033159       111.74192993     2.72697243       3.30221677       65.50100604     
   10063.700 16.72643420      -21.42110915     -0.04603811      0.15656971       8.49146011       112.04537120     2.72540122       3.30443809       65.65392354     
   10063.800 16.70942807      -21.37851788     -0.04523571      0.15656971       8.49258767       112.26032877     2.72348776       3.30730921       65.71551045     
   10063.900 16.69243924      -21.32615178     -0.04403210      0.15697894       8.49371810       112.47981824     2.72137315       3.31066915       65.78619543     
   10064.000 16.67546768      -21.28163562     -0.04403210      0.15725176       8.49484324       112.64540175     2.71932608       3.31284434       65.85688041     
   10064.100 16.65851337      -21.24343320     -0.04159478      0.15752457       8.49596572       112.59673889     2.71734636       3.31431264       65.92756539     
   10064.200 16.64157631      -21.20257625     -0.03996991      0.15779739       8.49709643       112.31062521     2.71534622       3.31956303       65.99825037     
   10064.300 16.62465646      -21.15851337     -0.03834504      0.15807021       8.49823452       111.94828431     2.71339723       3.33193896       66.06893535     
   10064.400 16.60775382      -21.11581914     -0.03672016      0.15834303       8.49935302       111.64890868     2.71147582       3.34792491       66.13962033     
   10064.500 16.59086836      -21.07490739     -0.03509529      0.15861585       8.50045685       111.40192748     2.70926700       3.36122813       66.21030531     
   10064.600 16.57400007      -21.03314838     -0.03347041      0.15888867       8.50160323       111.13802622     2.70655758       3.37283110       66.28099029     
   10064.700 16.55714892      -20.99039372     -0.03184554      0.15916148       8.50277573       110.83725399     2.70356271       3.39199967       66.35167527     
   10064.800 16.53998174      -20.94821083     -0.03022066      0.15943430       8.50386634       110.53398745     2.70060943       3.42449827       66.42236025     
   10064.900 16.38894970      -20.90663627     -0.02859579      0.15970712       8.50491036       110.26881520     2.69773748       3.46437197       66.49304523     
   10065.000 16.23628762      -20.86444913     -0.02697091      0.15997994       8.50610059       110.02605779     2.69485073       3.50200382       66.56373021     
   10065.100 16.08504758      -20.82170360     -0.02534604      0.16025276       8.50738795       109.72696671     2.69197230       3.53682980       66.63441519     
   10065.200 15.93521632      -20.77995256     -0.02372116      0.16052558       8.50845674       109.35596582     2.68910677       3.57506276       66.70510017     
   10065.300 15.78678074      -20.73901814     -0.02209629      0.16079840       8.50940607       109.06947012     2.68614208       3.61553439       66.77578515     
   10065.400 15.63972782      -20.69631146     -0.02047141      0.16107121       8.51097719       109.04672860     2.68314036       3.64634753       66.84647013     
   10065.500 15.49404470      -20.65229431     -0.01884654      0.16134403       8.51363278       109.25479629     2.68051170       3.65954516       66.91715510     
   10065.600 15.34971860      -20.61146370     -0.01722166      0.16161685       8.51684207       109.51476640     2.67861584       3.66244694       66.98784008     
   10065.700 15.20673689      -20.57318094     -0.01559679      0.16188967       8.51978496       109.73842306     2.67728860       3.66777947       67.05852506     
   10065.800 15.06508705      -20.52862000     -0.01397192      0.16216249       8.52235890       109.95375920     2.67596792       3.67657984       67.12921004     
   10065.900 14.92475667      -20.47641973     -0.01153460      0.16243531       8.52498194       110.20099858     2.67431275       3.67852794       67.19989502     
   10066.000 14.79944017      -20.43392409     -0.01153460      0.16270812       8.52779077       110.58179623     2.67260223       3.66740013       67.26358149     
   10066.100 14.59788155      -20.41964431     -0.01162719      0.16298094       8.53057798       111.26043426     2.67145678       3.64850705       67.46064623     
   10066.200 14.41686762      -20.42937527     -0.01168891      0.16339017       8.53326354       112.20582538     2.67116755       3.62996251       67.63995739     
   10066.300 14.24065578      -20.44269257     -0.01175064      0.16339017       8.53596178       113.09317714     2.67141187       3.61356108       67.81926855     
   10066.400 14.06025635      -20.44880525     -0.01181236      0.16436810       8.53871389       113.68372305     2.67167101       3.59682927       67.99857971     
   10066.500 13.88883644      -20.45287589     -0.01187408      0.16502006       8.54145816       114.13892937     2.67177665       3.57897051       68.17789087     
   10066.600 13.71442241      -20.46037692     -0.01193581      0.16567202       8.54417656       114.75029143     2.67188627       3.56134372       68.35720204     
   10066.700 13.54575795      -20.46895250     -0.01199753      0.16632397       8.54689916       115.54310141     2.67207759       3.54437388       68.53651320     
   10066.800 13.37692419      -20.47566983     -0.01205925      0.16697593       8.54963282       116.34005901     2.67224703       3.52712426       68.71582436     
   10066.900 13.21140570      -20.48181186     -0.01212098      0.16762788       8.55236536       117.03572697     2.67236833       3.50945955       68.89513552     
   10067.000 13.04744940      -20.48893496     -0.01218270      0.16860582       8.55509094       117.64479279     2.67253671       3.49224836       69.07444668     
   10067.100 12.88557232      -20.49634638     -0.01224443      0.16860582       8.55781883       118.22652135     2.67273646       3.47540689       69.25375784     
   10067.200 12.72587430      -20.50328478     -0.01233701      0.17101304       8.56054673       118.84988858     2.67283987       3.45772333       69.43306900     
   10067.300 12.56792155      -20.51009131     -0.01233701      0.17261785       8.56327463       119.50674020     2.67292101       3.43898360       69.61238016     
   10067.400 12.41214771      -20.51710039     -0.01354062      0.17422267       8.56600252       120.05367370     2.67333694       3.42074005       69.79169132     
   10067.500 12.25812304      -20.52419355     -0.01354062      0.17582748       8.56873042       120.38995932     2.67435120       3.40363998       69.97100249     
   10067.600 12.10614758      -20.53126997     -0.01459378      0.17743230       8.57145832       120.63529868     2.67585550       3.38602240       70.15031365     
   10067.700 11.95603118      -20.53826789     -0.01529589      0.17903711       8.57418621       120.97402596     2.67752978       3.36699406       70.28169014     
   10067.800 11.80777623      -20.54509218     -0.01599799      0.18064193       8.57691411       121.41111728     2.67912515       3.34826597       70.71093226     
   10067.900 11.66135964      -20.55203870     -0.01670010      0.18236862       8.57964200       121.82548688     2.68057890       3.33055447       71.04963112     
   10068.000 11.51675862      -20.55939200     -0.01740221      0.18455913       8.58236990       122.17014019     2.68204819       3.31121493       71.38832998     
   10068.100 11.37395066      -20.56647906     -0.01810431      0.18475967       8.58509780       122.49444360     2.68374583       3.28948784       71.72702884     
