~Version ---------------------------------------------------
VERS. 2.0 : CWLS log ASCII Standard -VERSION 2.0
WRAP.  NO : One Line Per Depth Step
~Well ------------------------------------------------------
STRT .FT              12000.0 : START DEPTH
STOP .FT              13400.0 : STOP DEPTH
STEP .FT   0.1000000000003638 : STEP
NULL .                -999.25 : NULL VALUE
COMP . ENRON OIL &GAS COMPANY : COMPANY
WELL .       CEPO-LEWIS 21-38 : WELL
FLD  .             CEPO-LEWIS : FIELD
LOC  .   1205' FWL &1300' FSL : LOCATION
CNTY .             SWEETWATER : COUNTY
STAT .                WYOMING : STATE
CTRY .                    USA : COUNTRY
SRVC .                        : SERVICE COMPANY
DATE .             25/05/1998 : DATE
API  .             4903724185 : API NUMBER
UWI  .                3724185 : UWI NUMBER
TVD  .                     NO : TVD flag
WSTA .                    LOC : Well status
USGS .                   CEPO : USGS Number
LATI .DEG            41.18194 : LATITUDE
LONG .DEG          -108.14139 : LONGITUDE
UTM-N.             4562894.53 : Northing
UTM-E.              739764.57 : Easting
CORE .FT                 -3.9 : Core/Log Offset
~Curve Information -----------------------------------------
DEPT .FT                : Depth in Feet
GR   .GAPI 35 310 01 01 : Gamma Ray
SP   .MV   01 010 01 01 : Spontaneous Potential
CALI .IN   70 280 01 01 : Caliper
AHT90.OHMM              : 
ILD  .OHMM 05 120 46 01 : Deep Induction Standard Processed Resistivity
HCAL .IN                : 
DPHI .V/V  45 890 01 01 : Density Porosity
NPOR .V/V               : Neutron Porosity Output From An Application Program
RHOB .G/C3 42 350 01 01 : Bulk Density
PEF  .b/e               : Photo-Electric Factor
DT   .US/F 60 520 08 01 : Delta-T
SPHI .V/V  61 890 01 01 : Sonic Porosity
RESD .OHMM              : Deep Resistivity - Merged AHT90 & ILD
~Params ----------------------------------------------------
DATE.  25-05-1998 : Date As Month-Day-Year
RUN .         ONE : Run Number
PDAT.         UNK : Permanent Datum
EPD .FT    6416.0 : Elevation Of Perm. Datum
LMF .          KB : Log Measured From
FAPD.FT      21.0 : Feet Above Perm. Datum
DMF .          KB : Drilling Measured From
EKB .FT    6437.0 : Elevation Of Kelly Bushing
EDF .FT    6436.0 : Elevation Of Derrick Floor
EGL .FT    6416.0 : Elevation Of Ground Level
TD  .FT   13400.0 : Total Depth
DD  .FT   12587.0 : Depth Driller
DL  .FT   12616.0 : Depth Logger
BLI .FT   12602.0 : Bottom Log Interval
TLI .FT    2346.0 : Top Log Interval
DFT .    GEL-CHEM : Drilling Fluid Type
LUN .        8269 : Logging Unit Number
LUL . ROCK SPRING : Logging Unit Location
DGBY.         R2V : 
WSTA.         LOC : 
~Other -----------------------------------------------------
<DescLogPlotStart>   NEURALOG PLOT DEFINITION
PLOTDEFVERSION: 3
LASFILE: C:\nds\projects\mf-nov-13\las\3724185G.las
DEPTHSCALE: 240.000000
RESOLUTION: 200
DEPTHLABELFREQ: 100.000000
HEAVYGRIDFREQ: 100.000000
MEDIUMGRIDFREQ: 50.000000
LIGHTGRIDFREQ: 10.000000
#
#   TRACK 1
#
STARTTRACK:
LEFTX: 0.500000 inch
RIGHTX: 3.000000 inch
SCALETYPE: Linear
NUMCHARTDIVISIONS: 10
CURVE: GR    0.000000   150.000000 (0,0,255)      Solid             2     N
CURVE: SP    -100.000000 0.000000   (0,131,131)    Dot               2     Y
BACKUP: 0.000000   100.000000 (0,131,131)    Dot               2
BACKUP: 100.000000 200.000000 (0,131,131)    Dot               2
BACKUP: 200.000000 300.000000 (0,131,131)    Dot               2
BACKUP: 300.000000 400.000000 (0,131,131)    Dot               2
CURVE: CALI  4.000000   14.000000  (255,0,255)    Short_Dash        2     N
CURVE: HCAL  4.000000   14.000000  (255,0,0)      Medium_Dash       2     Y
BACKUP: -6.000000  4.000000   (255,0,0)      Medium_Dash       2
ENDTRACK:
#
#   TRACK 2
#
STARTTRACK:
LEFTX: 3.500000 inch
RIGHTX: 8.500000 inch
SCALETYPE: Log
NUMCYCLES: 4
STARTCYCLE: 2
CURVE: AHT90 0.200000   2000.000000 (255,131,0)    Solid             2     N
CURVE: ILD   0.200000   2000.000000 (255,255,0)    Dot               2     N
ENDTRACK:
#
#   TRACK 3
#
STARTTRACK:
LEFTX: 3.500000 inch
RIGHTX: 8.500000 inch
SCALETYPE: Linear
NUMCHARTDIVISIONS: 10
CURVE: DPHI  0.300000   -0.100000  (0,0,255)      Solid             2     Y
BACKUP: 0.700000   0.300000   (0,0,255)      Solid             2
CURVE: NPOR  0.300000   -0.100000  (0,131,131)    Dot               2     Y
BACKUP: 0.700000   0.300000   (0,131,131)    Dot               2
ENDTRACK:
#
#   TRACK 4
#
STARTTRACK:
LEFTX: 3.500000 inch
RIGHTX: 8.500000 inch
SCALETYPE: Linear
NUMCHARTDIVISIONS: 10
CURVE: RHOB  2.000000   3.000000   (255,0,255)    Solid             2     Y
BACKUP: 1.000000   2.000000   (255,0,255)    Solid             2
BACKUP: 3.000000   4.000000   (255,0,255)    Solid             2
CURVE: PEF   0.000000   20.000000  (255,0,0)      Dot               2     N
ENDTRACK:
#
#   TRACK 5
#
STARTTRACK:
LEFTX: 3.500000 inch
RIGHTX: 8.500000 inch
SCALETYPE: Linear
NUMCHARTDIVISIONS: 10
CURVE: DT    140.000000 40.000000  (255,131,0)    Solid             2     Y
BACKUP: 240.000000 140.000000 (255,131,0)    Solid             2
ENDTRACK:
<DescLogPlotEnd>
~ASCII -----------------------------------------------------
 12000.00000  -15.46759  -28.90467    8.65517    7.44571    -999.25    -999.25    0.06520    0.21105    2.60641    2.29920   74.05433    0.15775    7.44571
 12000.10000  -15.12682  -28.90467    8.65517    7.37492    -999.25    -999.25    0.05383    0.20842    2.60931    2.29920   74.17840    0.16056    7.37492
 12000.20000  -14.50005  -28.90467    8.63489    7.30480    -999.25    -999.25    0.03756    0.20579    2.61220    2.29920   74.26140    0.16177    7.30480
 12000.30000  -13.87327  -28.90467    8.63489    7.20988    -999.25    -999.25    0.03742    0.20316    2.61510    2.29920   74.34440    0.16395    7.20988
 12000.40000  -13.24650  -28.90467    8.63489    7.21472    -999.25    -999.25    0.03718    0.19950    2.61898    2.28223   74.42740    0.16543    7.21472
 12000.50000  -12.42500  -28.97363    8.63489    7.22238    -999.25    -999.25    0.03693    0.19846    2.61898    2.25534   74.51040    0.16691    7.22238
 12000.60000  -11.86950  -29.07809    8.63129    7.23005    -999.25    -999.25    0.03668    0.19676    2.61898    2.22845   74.55734    0.16839    7.23005
 12000.70000  -11.06365  -29.18256    8.62606    7.23773    -999.25    -999.25    0.03635    0.19506    2.61898    2.20157   74.98592    0.16987    7.23773
 12000.80000  -10.25780  -29.28702    8.62084    7.24541    -999.25    -999.25    0.03635    0.19336    2.61878    2.17468   75.16097    0.17135    7.24541
 12000.90000   -9.45194  -29.39148    8.61562    7.25311    -999.25    -999.25    0.03635    0.19165    2.61852    2.14779   76.11167    0.17223    7.25311
 12001.00000   -8.64609  -29.49594    8.61040    7.26081    -999.25    -999.25    0.03664    0.18995    2.61827    2.12090   76.78395    0.17671    7.26081
 12001.10000   -7.84024  -29.60041    8.60517    7.26852    -999.25    -999.25    0.03716    0.18781    2.61797    2.09402   77.45624    0.17867    7.26852
 12001.20000   -6.94832  -29.71602    8.59995    7.27707    -999.25    -999.25    0.03756    0.18781    2.61529    2.06713   77.87726    0.18904    7.27707
 12001.30000   -5.75867  -30.05193    8.59473    7.20498    -999.25    -999.25    0.03886    0.18781    2.61219    2.03815   80.16901    0.19653    7.20498
 12001.40000   -5.61623  -30.08412    8.60908    7.25126    -999.25    -999.25    0.03895    0.18853    2.61671    2.04297   80.00098    0.19699    7.25126
 12001.50000   -4.43915  -30.41658    8.59003    7.12512    -999.25    -999.25    0.04047    0.19136    2.60917    2.01156   81.83727    0.20402    7.12512
 12001.60000   -3.08465  -30.80897    8.58377    7.04615    -999.25    -999.25    0.04221    0.19588    2.60596    1.98314   83.50553    0.21151    7.04615
 12001.70000   -1.75426  -31.18421    8.57764    6.96805    -999.25    -999.25    0.04392    0.20111    2.60288    1.95455   84.61771    0.21650    6.96805
 12001.80000   -0.41991  -31.55475    8.57629    6.89082    -999.25    -999.25    0.04564    0.20977    2.60027    1.92681   85.11569    0.22429    6.89082
 12001.90000    0.92245  -31.92724    8.58218    6.81960    -999.25    -999.25    0.04734    0.22004    2.59782    1.89862   85.48919    0.23013    6.81960
 12002.00000    2.22496  -32.30557    8.59253    6.81960    -999.25    -999.25    0.04923    0.23031    2.59419    1.86831   85.86268    0.23598    6.81960
 12002.10000    3.43474  -32.69559    8.60285    6.75664    -999.25    -999.25    0.05087    0.24139    2.58857    1.83966   86.12676    0.24182    6.75664
 12002.20000    4.50416  -33.06651    8.61173    6.75664    -999.25    -999.25    0.05277    0.24768    2.58190    1.82061   85.80483    0.24766    6.75664
 12002.30000    5.42194  -33.34804    8.62037    6.75664    -999.25    -999.25    0.05455    0.25450    2.57551    1.81367   85.55584    0.25191    6.75664
 12002.40000    6.31763  -33.50801    8.62986    6.75664    -999.25    -999.25    0.05652    0.26132    2.56949    1.81228   85.30684    0.24912    6.75664
 12002.50000    7.34354  -33.59930    8.63993    7.11164    -999.25    -999.25    0.06014    0.26814    2.56322    1.80897   85.05785    0.24693    7.11164
 12002.60000    8.33654  -33.69426    8.64897    7.41814    -999.25    -999.25    0.06401    0.27482    2.55686    1.80325   84.80885    0.24474    7.41814
 12002.70000    8.86834  -33.80700    8.65456    7.73784    -999.25    -999.25    0.06769    0.27523    2.55114    1.79889   84.61771    0.24255    7.73784
 12002.80000    8.80992  -33.91382    8.65545    8.07132    -999.25    -999.25    0.07156    0.27523    2.54609    1.79732   83.50080    0.24036    8.07132
 12002.90000    8.49433  -34.01137    8.65302    8.41918    -999.25    -999.25    0.07525    0.27523    2.54110    1.79687   82.59447    0.23863    8.41918
 12003.00000    8.04930  -34.11228    8.64998    8.78202    -999.25    -999.25    0.07865    0.27190    2.53614    1.79642   81.68813    0.23287    8.78202
 12003.10000    7.31178  -34.21354    8.64796    9.16051    -999.25    -999.25    0.08241    0.26882    2.53204    1.79661   80.78179    0.22740    9.16051
 12003.20000    5.61812  -34.31543    8.64663    9.55530    -999.25    -999.25    0.08583    0.26574    2.52927    1.79734   79.87545    0.22279    9.55530
 12003.30000    3.63389  -34.44806    8.64457    9.96711    -999.25    -999.25    0.08872    0.26314    2.52714    1.79691   78.96911    0.21733    9.96711
 12003.40000    1.89523  -34.63647    8.64147   10.39667    -999.25    -999.25    0.09094    0.25633    2.52474    1.79556   78.06278    0.21271   10.39667
 12003.50000    0.02264  -34.85675    8.63922   11.04652    -999.25    -999.25    0.09286    0.25044    2.52242    1.79785   77.15644    0.20726   11.04652
 12003.60000   -2.38541  -35.06422    8.63877   11.31382    -999.25    -999.25    0.09436    0.24455    2.52164    1.80887   76.25010    0.20262   11.31382
 12003.70000   -5.35242  -35.25020    8.63685   11.80455    -999.25    -999.25    0.09436    0.23866    2.52351    1.82814   75.46278    0.19786   11.80455
 12003.80000   -8.76910  -35.43759    8.62963   12.31656    -999.25    -999.25    0.09436    0.23277    2.52806    1.85020   74.32193    0.18862   12.31656
 12003.90000  -12.22393  -35.63564    8.61952   12.85079    -999.25    -999.25    0.09436    0.22850    2.53479    1.87109   73.31351    0.17983   12.85079
 12004.00000  -15.38342  -35.83266    8.61334   13.40818    -999.25    -999.25    0.09017    0.20886    2.54307    1.89114   72.30508    0.17165   13.40818
 12004.10000  -18.67070  -36.02407    8.61334   13.98976    -999.25    -999.25    0.08688    0.19345    2.55208    1.91180   71.29665    0.16292   13.98976
 12004.20000  -22.40614  -36.21719    8.61519   14.59655    -999.25    -999.25    0.08469    0.17805    2.56115    1.93286   70.28823    0.15468   14.59655
 12004.30000  -25.70826  -36.41290    8.61515   15.22967    -999.25    -999.25    0.07447    0.16264    2.57014    1.95359   69.27980    0.14600   15.22967
 12004.40000  -27.65193  -36.60566    8.61421   16.00860    -999.25    -999.25    0.06680    0.14723    2.57911    1.97411   68.27138    0.13773   16.00860
 12004.50000  -28.85019  -36.80082    8.61426   16.00860    -999.25    -999.25    0.06213    0.13787    2.58794    1.99479   67.31388    0.12904   16.00860
 12004.60000  -30.59243  -37.01597    8.61477   16.00860    -999.25    -999.25    0.05676    0.13552    2.59675    2.01556   66.31992    0.12082   16.00860
 12004.70000  -32.59443  -37.26250    8.61474   16.00860    -999.25    -999.25    0.05290    0.13383    2.60599    2.03630   65.37374    0.11206   16.00860
 12004.80000  -34.08799  -37.53354    8.61444   16.00860    -999.25    -999.25    0.04903    0.13286    2.61531    2.05703   64.42757    0.10393   16.00860
 12004.90000  -34.59804  -37.81195    8.61443   15.81770    -999.25    -999.25    0.04517    0.13210    2.62324    2.07764   63.49095    0.09508   15.81770
 12005.00000  -34.61448  -38.08786    8.61459   15.61750    -999.25    -999.25    0.04131    0.13132    2.62896    2.09811   63.35010    0.08702   15.61750
 12005.10000  -34.71559  -38.36189    8.61460   15.41982    -999.25    -999.25    0.03745    0.13059    2.63341    2.11873   63.21066    0.08626   15.41982
