~Version Information Block
 VERS.                2.00:     CWLS LOG ASCII STANDARD - VERSION 2.000000
 WRAP.                  NO:     One Line Per Depth Step
#
~Well Information Block
#MNEM.UNIT                     Data                         Information
#----------   ------------------------------------------   ----------------
 STRT.FT                                    12600.0000:     START DEPTH
 STOP.FT                                    13950.0000:     STOP DEPTH
 STEP.FT                                        0.1000:     STEP
 NULL.                                       -999.2500:     NULL VALUE
 COMP.                        PRESIDIO EXPLORATION INC:     COMPANY
 WELL.                          PICKETLAKE UNIT #40-13:     WELL
 FLD .                                         WILDCAT:     FIELD
 LOC .                           1320' FSL & 1320' FEL:     LOCATION
 CNTY.                                      SWEETWATER:     COUNTY
 STAT.                                         WYOMING:     STATE
 CTRY.                                             USA:     COUNTRY
 SRVC.                                                :     SERVICE COMPANY
 DATE.                                      15/05/1995:     DATE
 API .                                      4903723472:     API NUMBER
 UWI .                                         3723472:     UWI NUMBER
 TVD .                                              NO:     TVD flag
 WSTA.                                             LOC:     Well status
 USGS.                                            F042:     USGS Number
 LATI.DEG                                     42.22387:     LATITUDE
 LONG.DEG                                   -108.34765:     LONGITUDE
 UTM-N.                                     4678038.95:     Northing
 UTM-E.                                       718897.4:     Easting
 CORE.                                              +5:     Core/Log Offset
#
~Curve Information Block
#MNEM.UNIT       API CODE      Curve Description
#----------    -------------   -------------------
 DEPT.FT                   :   Depth in Feet
 DTCO.US/F     60 520 08 01:   DTCO
 SPHI.V/V      61 890 01 01:   Sonic Porosity
 GR  .GAPI     35 310 01 01:   Gamma Ray
 CALI.IN       70 280 01 01:   Caliper
 ILD .OHMM     05 120 46 01:   Deep Induction Standard Processed Resistivity
 SP  .MV       01 010 01 01:   Spontaneous Potential
 PEF .b/e                  :   Photo-Electric Factor
 RHOB.G/C3     42 350 01 01:   Bulk Density
 DPHI.V/V      45 890 01 01:   Density Porosity
 NPHI.V/V      42 890 03 01:   Neutron Porosity
#
~Parameter Information Block
#MNEM.UNIT            Value               Description
#----------    --------------------    -------------------
 DATE.                  15-05-1995:    Date As Month-Day-Year
 RUN .                         ONE:    Run Number
 PDAT.                         UNK:    Permanent Datum
 EPD .FT                 7224.0000:    Elevation Of Perm. Datum
 LMF .                          KB:    Log Measured From
 FAPD.FT                   15.0000:    Feet Above Perm. Datum
 DMF .                          KB:    Drilling Measured From
 EKB .FT                 7240.0000:    Elevation Of Kelly Bushing
 EDF .FT                 7239.0000:    Elevation Of Derrick Floor
 EGL .FT                 7224.0000:    Elevation Of Ground Level
 TD  .FT                13950.0000:    Total Depth
 DD  .FT                13957.0000:    Depth Driller
 DL  .FT                13952.0000:    Depth Logger
 BLI .FT                13925.0000:    Bottom Log Interval
 TLI .FT                10000.0000:    Top Log Interval
 CSIZ.IN                   9.625IN:    Casing Size
 CBD1.                        2520:    Casing Bottom (Driller) 1
 CBL1.                        2518:    Casing Bottom (Logger) 1
 BS  .IN                   7.875IN:    Bit Size
 DFT .                         WTD:    Drilling Fluid Type
 DFV .S                    74.0000:    Drilling Fluid Viscosity
 DFD .LB/G                 10.8000:    Drilling Fluid Density
 DFL .ML                    7.2000:    Drilling Fluid Loss
 DFPH.                      9.5000:    Drilling Fluid Ph
 MSS .                     MUDTANK:    Mud Sample Source
 RMS .OHMM                  4.3300:    Resistivity Of Mud Sample
 MST .DEGF                 65.0000:    Mud Sample Temperature
 RMF .OHMM                  3.3800:    Mud Filtrate Resistivity
 MFST.DEGF                 65.0000:    Mud Filtrate Sample Temperature
 RMC .OHMM                  4.5000:    Mud Cake Resistivity
 MCST.DEGF                 65.0000:    Mud Cake Sample Temperature
 RMB .OHMM                  1.3760:    Mud Resistivity At Bht
 BHT .DEGF                219.0000:    Bottom Hole Temperature
 MRT .DEGF                219.0000:    Maximum Recorded Temperature
 LUN .                        8415:    Logging Unit Number
 LUL .                      CASPER:    Logging Unit Location
 ENGI.               T.CHRISTENSEN:    Engineer'S Name
 WITN.                STEVE HEFNER:    Witness' Name
 DGBY.                         R2V:    
 WSTA.                         LOC:    
#
~Other Information Block
<DescLogPlotStart>   NEURALOG PLOT DEFINITION
PLOTDEFVERSION: 3
LASFILE: C:\nds\projects\mf-nov-13\las\3723472C.las
DEPTHSCALE: 240.000000
RESOLUTION: 200
DEPTHLABELFREQ: 100.000000
HEAVYGRIDFREQ: 100.000000
MEDIUMGRIDFREQ: 50.000000
LIGHTGRIDFREQ: 10.000000
#
#   TRACK 1
#
STARTTRACK: 
 LEFTX: 0.500000 inch
 RIGHTX: 3.000000 inch
 SCALETYPE: Linear
 NUMCHARTDIVISIONS: 10
CURVE: DTCO  140.000000 40.000000  (0,0,255)      Solid             2     N    
CURVE: SPHI  0.300000   -0.100000  (0,131,131)    Dot               2     N    
ENDTRACK: 
#
#   TRACK 2
#
STARTTRACK: 
 LEFTX: 3.500000 inch
 RIGHTX: 6.000000 inch
 SCALETYPE: Linear
 NUMCHARTDIVISIONS: 10
CURVE: GR    0.000000   150.000000 (255,0,255)    Solid             2     Y    
BACKUP: 150.000000 300.000000 (255,0,255)    Solid             2    
CURVE: CALI  6.000000   16.000000  (255,0,0)      Dot               2     N    
ENDTRACK: 
#
#   TRACK 3
#
STARTTRACK: 
 LEFTX: 6.000000 inch
 RIGHTX: 11.000000 inch
 SCALETYPE: Log
 NUMCYCLES: 4
 STARTCYCLE: 2
CURVE: ILD   0.200000   2000.000000 (255,131,0)    Solid             2     N   
ENDTRACK: 
#
#   TRACK 4
#
STARTTRACK: 
 LEFTX: 11.000000 inch
 RIGHTX: 13.500000 inch
 SCALETYPE: Linear
 NUMCHARTDIVISIONS: 10
CURVE: SP    -80.000000 20.000000  (255,255,0)    Solid             2     N    
ENDTRACK: 
#
#   TRACK 5
#
STARTTRACK: 
 LEFTX: 13.500000 inch
 RIGHTX: 18.500000 inch
 SCALETYPE: Linear
 NUMCHARTDIVISIONS: 10
CURVE: PEF   0.000000   10.000000  (0,0,255)      Solid             2     N    
CURVE: RHOB  2.000000   3.000000   (0,131,131)    Dot               2     Y    
BACKUP: 1.000000   2.000000   (0,131,131)    Dot               2    
ENDTRACK: 
#
#   TRACK 6
#
STARTTRACK: 
 LEFTX: 18.500000 inch
 RIGHTX: 23.500000 inch
 SCALETYPE: Linear
 NUMCHARTDIVISIONS: 10
CURVE: DPHI  0.300000   -0.100000  (255,0,255)    Solid             2     N    
CURVE: NPHI  0.300000   -0.100000  (255,0,0)      Dot               2     Y    
BACKUP: 0.700000   0.300000   (255,0,0)      Dot               2    
ENDTRACK: 
<DescLogPlotEnd>
~A DEPTH     DTCO             SPHI             GR               CALI             ILD              SP               PEF              RHOB             DPHI             NPHI            
# ...
   12960.800 68.28187751      0.12507172       128.73910929     9.30748158       19.42827735      -36.53341393     3.72700445       2.54871235       0.05808853       0.23333487      
   12960.900 68.09362450      0.12283419       127.29551046     9.29824311       19.55133500      -36.17037067     3.72036426       2.54568273       0.05907445       0.23822938      
   12961.000 67.90537149      0.11947791       125.69271208     9.30329251       19.61400374      -35.80814741     3.71072255       2.54981354       0.06006036       0.23822938      
   12961.100 67.69672888      0.11947791       124.15655470     9.30619478       19.72394480      -35.44434759     3.69982296       2.55672243       0.06104628       0.23782696      
   12961.200 67.54094953      0.11752008       122.79876448     9.30456633       19.76968796      -35.07920835     3.67675083       2.56365613       0.06203219       0.23702213      
   12961.300 67.32508365      0.11621486       121.31773870     9.30404699       19.80024232      -34.71872376     3.64272181       2.57051293       0.06277666       0.22693137      
   12961.400 67.06506016      0.11425703       119.56379925     9.30583467       19.83084391      -34.36025328     3.60442024       2.57769161       0.05714967       0.21895641      
   12961.500 67.04771516      0.11425703       117.97737058     9.30705830       19.86149279      -33.99293678     3.56789561       2.58446117       0.05262962       0.21098144      
   12961.600 67.14924910      0.11445783       116.76058149     9.30702997       19.90755495      -33.62198053     3.53288591       2.59151367       0.04810958       0.20300648      
   12961.700 67.19869045      0.11485944       115.10734614     9.30727183       19.90755495      -33.26723969     3.49618547       2.59859175       0.04358954       0.19503152      
   12961.800 67.26407323      0.11506024       112.32187383     9.30817514       20.30342152      -32.91989321     3.45829540       2.60523859       0.03906949       0.18705656      
   12961.900 67.31900618      0.11626506       109.35528145     9.30893673       20.57169624      -32.54053188     3.42271455       2.61246108       0.03454945       0.17908160      
   12962.000 67.38018473      0.11706827       107.95305185     9.30940779       20.84351575      -32.13363294     3.38861271       2.61942018       0.03002941       0.17110664      
   12962.100 67.43809481      0.11787149       108.39416482     9.30990815       21.11892689      -31.77881097     3.35045078       2.62573760       0.02550936       0.16378270      
   12962.200 67.49767472      0.11867470       109.31733084     9.31055400       21.39797711      -31.53914579     3.30860137       2.63394040       0.02098932       0.16378270      
   12962.300 67.55563427      0.11947791       109.73717600     9.31118267       21.68071450      -31.37619709     3.27412359       2.64113818       0.01646928       0.16378270      
   12962.400 67.61610299      0.12068273       110.00647566     9.31174208       21.96718778      -31.20570727     3.25685604       2.64252038       0.01194923       0.16378270      
   12962.500 67.67263225      0.12068273       110.69534679     9.31230109       22.25744631      -31.00314859     3.25312875       2.64177667       0.00742919       0.16458753      
   12962.600 67.76104418      0.12063954       111.64368864     9.31286011       22.55154010      -30.80127570     3.25169671       2.64147269       0.00281690       0.16505960      
   12962.700 67.76104418      0.12053631       112.46169223     9.31341912       22.84951984      -30.61574926     3.24752634       2.63937920       0.00362173       0.16918037      
   12962.800 67.60464937      0.12026743       113.19021300     9.31397814       23.30388809      -30.42924497     3.24303497       2.63606346       0.00553299       0.17396464      
   12962.900 67.50038616      0.11873496       114.07091150     9.31453715       23.30388809      -30.23362462     3.23963954       2.63204817       0.00752557       0.17850271      
   12963.000 67.39612295      0.11769595       115.04065253     9.31509617       23.05332380      -30.04024206     3.23558696       2.62825475       0.00951816       0.17880051      
   12963.100 67.29185975      0.11660576       115.75110171     9.31565518       22.88777945      -29.85201748     3.23041255       2.62476243       0.01151075       0.17619199      
   12963.200 67.18759654      0.11511544       116.00060634     9.31621420       22.72342386      -29.65947694     3.22562797       2.62115587       0.01350334       0.17374915      
   12963.300 67.08333333      0.11501263       115.98264693     9.31677321       22.56024849      -29.46379823     3.22146389       2.61742125       0.01549592       0.17101144      
   12963.400 66.97907013      0.11412441       116.02152150     9.31733223       22.39824488      -29.27595864     3.21681789       2.61375497       0.01748851       0.16841538      
   12963.500 66.87480692      0.11333297       116.16236129     9.31789124       22.23740461      -29.09092525     3.21185267       2.61009548       0.01948110       0.16583853      
   12963.600 66.77054371      0.11277599       116.18739591     9.31845026       22.07771931      -28.89055736     3.20767525       2.60639058       0.02147368       0.16309471      
   12963.700 66.66628051      0.11200679       115.95753142     9.31900927       21.84033884      -28.68317401     3.20361362       2.60278970       0.02346627       0.16064391      
   12963.800 66.56201730      0.11141594       115.58214174     9.31956829       21.84033884      -28.51445825     3.19689594       2.59922746       0.02545886       0.15778509      
   12963.900 66.45775409      0.11068533       115.21797776     9.32012730       21.84033884      -28.41546700     3.18564289       2.59540739       0.02745145       0.15465981      
   12964.000 66.35349089      0.11005230       114.89146118     9.32068632       21.94175919      -28.36256310     3.17113557       2.59149384       0.02944403       0.15382145      
   12964.100 66.24922768      0.10935962       114.55545222     9.32124533       22.14601497      -28.30948769     3.15614924       2.58825110       0.03143662       0.15332329      
   12964.200 66.14496447      0.10869812       114.20043783     9.32180434       22.25650244      -28.24127677     3.14197718       2.58603855       0.03339534       0.15238632      
   12964.300 66.04070127      0.10802657       113.84963088     9.32236336       22.69267211      -28.17266183     3.12794974       2.58431217       0.03550745       0.15130785      
   12964.400 65.93643806      0.10735107       113.50913753     9.32292237       23.03164979      -28.11134994     3.11335203       2.58256195       0.03736987       0.15225594      
   12964.500 65.83217485      0.10669097       113.16702311     9.32348139       23.32365131      -28.05031565     3.09868519       2.58112945       0.03950352       0.15375453      
   12964.600 65.72791165      0.10600741       112.81797702     9.32404040       23.66854044      -27.98603961     3.08459271       2.58055728       0.04221384       0.15525312      
   12964.700 65.62364844      0.10535474       112.47008784     9.32459942       23.97512862      -27.92156990     3.07053822       2.58068414       0.04234091       0.15675171      
   12964.800 65.51938523      0.10465507       112.12716622     9.32515843       24.32170459      -27.85740543     3.05564075       2.58096354       0.04182382       0.15895372      
   12964.900 65.41512203      0.10401028       111.78420192     9.32571745       24.64603618      -27.79342762     3.04072291       2.58123697       0.04180618       0.15811670      
   12965.000 65.31085882      0.10330612       111.43452433     9.32627646       24.99360947      -27.73193505     3.02825427       2.58165184       0.04154325       0.15653924      
   12965.100 65.20659561      0.10266214       111.08372806     9.32683548       25.33438258      -27.67015133     3.01959458       2.58217628       0.04147735       0.15496177      
