~Version ---------------------------------------------------
VERS.   2.0 : CWLS log ASCII Standard -VERSION 2.0
WRAP.    NO : One line per depth step
DLM . SPACE : Column Data Section Delimiter
~Well ------------------------------------------------------
STRT.FT   8950.0     : START DEPTH
STOP.FT  10550.0     : STOP DEPTH
STEP.FT      0.5     : STEP
NULL.    -999.25     : NULL VALUE
COMP.        HRM     : COMPANY
WELL.57 Hay Reservoir: WELL
FLD .  Hay Reservoir : FIELD
LOC .     24N 97W    : LOCATION
CNTY.     Sweetwater : COUNTY
STAT.         WY     : STATE
CTRY.          USA   : COUNTRY
SRVC.           SLB? : SERVICE COMPANY
DATE. 11/14/2019     : DATE
API . 4903723193     : API NUMBER
UWI .   3723193A     : UWI NUMBER
TVD .         NO     : TVD flag
WSTA.        LOC     : Well status
USGS.            E952: USGS Number
LATI.DEG     42.04063: LATITUDE
LONG.DEG   -108.36672: LONGITUDE
UTM-N.     4657642.54: Northing
UTM-E.      717951.25: Easting
CORE.              -4: Core/Log Offset
~Curve Information -----------------------------------------
DEPT.FT                : Depth in Feet
DPHI.V/V  45 890 01 01 : Density Porosity
NPHI.V/V  42 890 03 01 : Neutron Porosity
GR  .API  35 310 01 01 : Gamma Ray
CALI.IN   70 280 01 01 : Caliper
RHOB.G/CC 42 350 01 01 : Bulk Density
PEF .BARN              : Photoelectric Effect
ILD .                  : Deep Induction
SP  .                  : Spontaneous Potential
~Params ----------------------------------------------------
~Other -----------------------------------------------------
~ASCII -----------------------------------------------------
# ...
 10190.00000   -0.03500    0.15200  107.65900    8.62100    2.70700    4.49800   15.16100  -19.61200
 10190.50000   -0.03300    0.14900  104.14800    8.60900    2.70700    4.40000   15.41900  -19.47300
 10191.00000   -0.03100    0.14600  100.67400    8.59300    2.70300    4.35900   15.68200  -19.33400
 10191.50000   -0.03000    0.14400   97.28500    8.57600    2.69800    4.54000   15.94900  -19.19500
 10192.00000   -0.03000    0.14200   95.07900    8.55600    2.69800    4.71200   16.22000  -19.05700
 10192.50000   -0.02900    0.14300   95.71700    8.53600    2.69800    4.62600   16.38700  -18.91900
 10193.00000   -0.02800    0.14500   96.19800    8.53500    2.69600    4.52500   16.38900  -18.77900
 10193.50000   -0.02900    0.14800   96.22900    8.53600    2.69400    4.44800   16.33400  -18.70200
 10194.00000   -0.03500    0.15000   98.28800    8.55200    2.69900    4.41700   16.27100  -18.65500
 10194.50000   -0.04200    0.15300  101.65600    8.60000    2.70900    4.11400   16.17900  -18.60800
 10195.00000   -0.04200    0.15500  104.35400    8.63300    2.71200    3.76400   16.06100  -18.56300
 10195.50000   -0.03200    0.15200  106.64900    8.61400    2.70500    3.58100   15.94200  -18.58400
 10196.00000   -0.02800    0.14800  108.95800    8.59700    2.69700    3.52000   15.82400  -18.75200
 10196.50000   -0.02700    0.14500  110.68200    8.58800    2.69300    3.54000   15.70800  -18.91800
 10197.00000   -0.02500    0.14700  105.89400    8.57900    2.69000    3.57000   15.59200  -19.08500
 10197.50000   -0.02000    0.14900  102.89200    8.56900    2.68500    3.52100   15.47700  -19.25100
 10198.00000   -0.00900    0.15200  103.67200    8.55800    2.67100    3.50400   15.36300  -19.41700
 10198.50000    0.00200    0.15500  105.83100    8.57500    2.65500    3.79100   15.25000  -19.58700
 10199.00000    0.00900    0.15900  105.56500    8.60300    2.63900    4.09900   15.13700  -19.72000
 10199.50000    0.00000    0.16300  104.17600    8.63100    2.63500    4.27000   15.02500  -19.33600
 10200.00000   -0.00900    0.16400  106.09100    8.68900    2.66100    4.13200   14.91500  -18.94900
 10200.50000   -0.01800    0.16300  109.64500    8.75000    2.68000    3.97700   14.80500  -18.57000
 10201.00000   -0.01500    0.16200  112.94100    8.74900    2.67400    3.98100   14.69500  -18.32700
 10201.50000   -0.01200    0.16000  113.78100    8.69800    2.66800    3.98000   14.58600  -18.33000
 10202.00000   -0.01500    0.15800  112.07500    8.65600    2.67200    3.90500   14.52800  -18.33000
 10202.50000   -0.02100    0.15800  110.07300    8.65600    2.68300    3.71000   14.57400  -18.33000
 10203.00000   -0.02600    0.16200  108.84300    8.65700    2.69000    3.51300   14.60600  -18.33000
 10203.50000   -0.02700    0.16500  107.99800    8.65700    2.69200    3.35600   14.63800  -18.33100
 10204.00000   -0.02700    0.16400  106.91300    8.65700    2.69500    3.23300   14.67000  -18.38500
 10204.50000   -0.03000    0.16400  105.98300    8.67600    2.69800    3.15100   14.70200  -18.50500
 10205.00000   -0.03100    0.16300  106.36300    8.66600    2.69900    3.21500   14.73500  -18.62500
 10205.50000   -0.03000    0.16200  108.03200    8.65700    2.69600    3.33300   14.76700  -18.74500
 10206.00000   -0.02600    0.16100  109.96000    8.65600    2.68800    3.55600   14.80000  -18.86500
 10206.50000   -0.02200    0.16200  112.26100    8.65600    2.68300    3.59300   14.83200  -18.98400
 10207.00000   -0.02200    0.16400  113.20000    8.66300    2.68200    3.53300   14.86500  -19.10400
 10207.50000   -0.02100    0.16800  112.56900    8.67100    2.67800    3.50000   14.89800  -19.22500
 10208.00000   -0.01700    0.16900  111.45400    8.67600    2.67300    3.50600   14.94300  -19.33500
 10208.50000   -0.01400    0.16800  111.06200    8.66700    2.66500    3.54800   14.93100  -19.33700
 10209.00000   -0.01000    0.16300  111.86700    8.65800    2.66000    3.59400   15.07600  -19.33600
 10209.50000   -0.00700    0.15700  111.75900    8.66500    2.65800    3.64000   15.07600  -19.33600
 10210.00000   -0.00500    0.15200  110.33500    8.67600    2.65700    3.65400   15.07600  -19.33600
 10210.50000   -0.00300    0.14700  107.59900    8.67600    2.65100    3.55200   15.07600  -19.33600
 10211.00000   -0.00200    0.14600  105.18000    8.66500    2.64400    3.45000   15.07800  -19.33600
 10211.50000    0.00400    0.14500  104.86800    8.65600    2.63700    3.34800   15.06700  -19.33500
 10212.00000    0.00800    0.14400  102.33000    8.65700    2.63600    3.38400   15.24200  -19.33000
 10212.50000    0.00800    0.14200   98.44900    8.65700    2.63700    3.43900   15.48900  -19.37200
 10213.00000    0.00600    0.14000   94.66200    8.65700    2.64400    3.38700   15.74100  -20.09700
 10213.50000    0.00200    0.13800   92.47200    8.65700    2.65200    3.30500   15.99600  -20.67800
 10214.00000   -0.00200    0.13700   92.08800    8.66300    2.65800    3.23000   16.25500  -21.02500
 10214.50000   -0.00400    0.14000   91.69500    8.67100    2.65500    3.23200   16.51900  -21.36600
 10215.00000   -0.00200    0.14300   92.86900    8.67700    2.65000    3.26400   16.78700  -21.79000
 10215.50000   -0.00100    0.15200   95.39700    8.67700    2.64900    3.25000   17.05900  -22.20000
 10216.00000    0.00200    0.16000   97.46600    8.67700    2.63800    3.19900   17.33800  -22.60800
 10216.50000    0.01000    0.16800   97.33300    8.67700    2.62500    3.15600   17.61700  -23.01700
 10217.00000    0.01800    0.16700   94.09600    8.67700    2.61200    3.12900   18.65100  -23.42400
 10217.50000    0.02600    0.14800   90.48100    8.67700    2.59900    3.10200   19.62500  -23.80400
 10218.00000    0.03800    0.11800   82.83900    8.67700    2.57600    3.06000   21.31800  -24.10800
 10218.50000    0.05300    0.07300   73.38200    8.67700    2.55000    2.91700   24.70600  -24.85100
 10219.00000    0.06700    0.06500   61.74900    8.67700    2.52400    2.77300   29.04300  -25.58600
 10219.50000    0.08300    0.05600   50.20000    8.67700    2.50300    2.62900   34.14000  -26.81200
 10220.00000    0.09100    0.05300   45.43200    8.67700    2.49400    2.49700   40.25800  -28.21800
 10220.50000    0.09600    0.05300   43.25300    8.67700    2.48600    2.49400   52.15100  -29.60900
 10221.00000    0.10000    0.05300   42.85400    8.67700    2.48400    2.49500   67.90100  -30.36900
 10221.50000    0.10000    0.05600   44.74400    8.67700    2.49300    2.48700   87.04700  -31.01400
 10222.00000    0.08700    0.06500   49.32200    8.67700    2.51400    2.48000   97.30500  -31.53400
 10222.50000    0.07300    0.07500   54.06800    8.67700    2.53500    2.52500  108.77300  -31.79100
 10223.00000    0.05900    0.07800   55.03400    8.67700    2.55500    2.78700  113.64700  -31.41000
 10223.50000    0.05400    0.07400   52.28500    8.67700    2.56100    3.04300  104.06100  -31.02200
 10224.00000    0.06300    0.06900   48.19700    8.67700    2.54400    3.17300   97.77700  -30.63600
 10224.50000    0.07600    0.06800   47.65000    8.67700    2.52300    2.98400   91.87200  -30.23500
 10225.00000    0.08700    0.07100   50.61500    8.68300    2.50400    2.73200   86.32400  -30.80000
 10225.50000    0.09000    0.07500   53.49300    8.70100    2.49900    2.65400   81.11100  -31.50500
 10226.00000    0.09200    0.07500   55.29900    8.71700    2.49700    2.58500   78.43000  -32.20900
 10226.50000    0.09300    0.07200   54.25200    8.71700    2.49500    2.51400   78.06100  -32.91300
 10227.00000    0.09500    0.07000   51.78600    8.71700    2.49200    2.44300   77.71600  -33.65300
 10227.50000    0.09600    0.06800   50.59900    8.72400    2.49100    2.37500   77.83400  -34.60800
 10228.00000    0.09500    0.06800   49.47700    8.74500    2.49100    2.35500   78.37300  -35.53500
 10228.50000    0.09600    0.06800   48.28000    8.75800    2.49200    2.36500   78.91500  -36.46100
 10229.00000    0.09800    0.06900   45.58600    8.76000    2.48800    2.36500   82.22900  -37.38900
 10229.50000    0.10100    0.07000   42.81500    8.76300    2.48400    2.34100   88.49800  -38.13700
