~Version Information Block
 VERS.                2.00:     CWLS LOG ASCII STANDARD - VERSION 2.000000
 WRAP.                  NO:     One Line Per Depth Step
#
~Well Information Block
#MNEM.UNIT                     Data                         Information
#----------   ------------------------------------------   ----------------
 STRT.FT                                     9000.0000:     START DEPTH
 STOP.FT                                    10600.0000:     STOP DEPTH
 STEP.FT                                        0.1000:     STEP
 NULL.                                       -999.2500:     NULL VALUE
 COMP.                            PRESIDIO OIL COMPANY:     COMPANY
 WELL.                          HAY RESERVIOR UNIT #58:     WELL
 FLD .                              HAY RESERVIOR UNIT:     FIELD
 LOC .                               1500' FSL 10' FWL:     LOCATION
 CNTY.                                      SWEETWATER:     COUNTY
 STAT.                                         WYOMING:     STATE
 CTRY.                                             USA:     COUNTRY
 SRVC.                                    SCHLUMBERGER:     SERVICE COMPANY
 DATE.                                      22/02/1994:     DATE
 API .                                      4903723301:     API NUMBER
 UWI .                                         3723301:     UWI NUMBER
 TVD .                                              NO:     TVD flag
 WSTA.                                             LOC:     Well status
 USGS.                                            E945:     USGS Number
 LATI.DEG                                     42.05082:     LATITUDE
 LONG.DEG                                   -108.37861:     LONGITUDE
 UTM-N.                                     4658743.82:     Northing
 UTM-E.                                      716932.37:     Easting
 CORE.FT                                          -9.2:     Core/Log Offset
#
~Curve Information Block
#MNEM.UNIT       API CODE      Curve Description
#----------    -------------   -------------------
 DEPT.FT                   :   Depth in Feet
 ILD .OHMM     05 120 46 01:   Deep Induction Standard Processed Resistivity
 SP  .MV       01 010 01 01:   Spontaneous Potential
 DPHI.DEC      42 890 03 01:   DPHI
 NPHI.DEC      42 890 03 01:   Neutron Porosity
 CALI.IN       70 280 01 01:   Caliper
 GR  .GAPI     35 310 01 01:   Gamma Ray
 RHOB.G/C3     42 350 01 01:   Bulk Density
 PEF .B/E                  :   Photo-Electric Factor
 DT4P.US/F                 :   
#
~Parameter Information Block
#MNEM.UNIT            Value               Description
#----------    --------------------    -------------------
 DATE.                  22-02-1994:    Date As Month-Day-Year
 RUN .                         ONE:    Run Number
 PDAT.                         UNK:    Permanent Datum
 EPD .FT                 6799.0000:    Elevation Of Perm. Datum
 LMF .                          KB:    Log Measured From
 FAPD.FT                   14.0000:    Feet Above Perm. Datum
 DMF .                          KB:    Drilling Measured From
 EKB .FT                 6813.0000:    Elevation Of Kelly Bushing
 EDF .FT                 6812.0000:    Elevation Of Derrick Floor
 EGL .FT                 6799.0000:    Elevation Of Ground Level
 TD  .FT                10600.0000:    Total Depth
 DD  .FT                10625.0000:    Depth Driller
 DL  .FT                10623.0000:    Depth Logger
 BLI .FT                 1061.0000:    Bottom Log Interval
 CSIZ.IN                     9.625:    Casing Size
 CBD1.                        1702:    Casing Bottom (Driller) 1
 CBL1.                        1700:    Casing Bottom (Logger) 1
 BS  .IN                     7.875:    Bit Size
 DFV .S                    45.0000:    Drilling Fluid Viscosity
 DFD .LB/G                 10.5000:    Drilling Fluid Density
 DFL .ML                    7.2000:    Drilling Fluid Loss
 DFPH.                      9.5000:    Drilling Fluid Ph
 MSS .                    MUD TANK:    Mud Sample Source
 RMS .OHMM                  4.6200:    Resistivity Of Mud Sample
 MST .DEGF                 50.0000:    Mud Sample Temperature
 RMF .OHMM                  3.0700:    Mud Filtrate Resistivity
 MFST.DEGF                 50.0000:    Mud Filtrate Sample Temperature
 RMC .OHMM                  7.1400:    Mud Cake Resistivity
 MCST.DEGF                 50.0000:    Mud Cake Sample Temperature
 RMB .OHMM                  1.0990:    Mud Resistivity At Bht
 BHT .DEGF                212.0000:    Bottom Hole Temperature
 MRT .DEGF                212.0000:    Maximum Recorded Temperature
 LUN .                        8415:    Logging Unit Number
 LUL .                      CASPER:    Logging Unit Location
 ENGI.               CHRIS PRESMYK:    Engineer'S Name
 WITN.                STEVE HEFNER:    Witness' Name
 DGBY.                         R2V:    
 WSTA.                         LOC:    
#
~Other Information Block
<DescLogPlotStart>   NEURALOG PLOT DEFINITION
PLOTDEFVERSION: 3
LASFILE: C:\nds\projects\mf-nov-13\las\3723301A.las
DEPTHSCALE: 240.000000
RESOLUTION: 200
DEPTHLABELFREQ: 100.000000
HEAVYGRIDFREQ: 100.000000
MEDIUMGRIDFREQ: 50.000000
LIGHTGRIDFREQ: 10.000000
#
#   TRACK 1
#
STARTTRACK: 
 LEFTX: 0.500000 inch
 RIGHTX: 3.000000 inch
 SCALETYPE: Log
 NUMCYCLES: 4
 STARTCYCLE: 2
CURVE: ILD   0.200000   2000.000000 (0,0,255)      Solid             2     N   
ENDTRACK: 
#
#   TRACK 2
#
STARTTRACK: 
 LEFTX: 3.500000 inch
 RIGHTX: 6.000000 inch
 SCALETYPE: Linear
 NUMCHARTDIVISIONS: 10
CURVE: SP    -80.000000 20.000000  (0,131,131)    Solid             2     Y    
BACKUP: -180.000000 -80.000000 (0,131,131)    Solid             2    
ENDTRACK: 
#
#   TRACK 3
#
STARTTRACK: 
 LEFTX: 6.000000 inch
 RIGHTX: 11.000000 inch
 SCALETYPE: Linear
 NUMCHARTDIVISIONS: 10
CURVE: DPHI  0.300000   -0.100000  (255,0,255)    Solid             2     N    
CURVE: NPHI  0.300000   -0.100000  (255,0,0)      Dot               2     Y    
BACKUP: 0.700000   0.300000   (255,0,0)      Dot               2    
ENDTRACK: 
#
#   TRACK 4
#
STARTTRACK: 
 LEFTX: 11.000000 inch
 RIGHTX: 13.500000 inch
 SCALETYPE: Linear
 NUMCHARTDIVISIONS: 10
CURVE: CALI  6.000000   16.000000  (255,131,0)    Solid             2     N    
CURVE: GR    0.000000   150.000000 (255,255,0)    Dot               2     Y    
BACKUP: 150.000000 300.000000 (255,255,0)    Dot               2    
ENDTRACK: 
#
#   TRACK 5
#
STARTTRACK: 
 LEFTX: 13.500000 inch
 RIGHTX: 18.500000 inch
 SCALETYPE: Linear
 NUMCHARTDIVISIONS: 10
CURVE: RHOB  2.000000   3.000000   (0,0,255)      Solid             2     Y    
BACKUP: 1.000000   2.000000   (0,0,255)      Solid             2    
CURVE: PEF   0.000000   10.000000  (0,131,131)    Dot               2     N    
ENDTRACK: 
#
#   TRACK 6
#
STARTTRACK: 
 LEFTX: 13.500000 inch
 RIGHTX: 18.500000 inch
 SCALETYPE: Linear
 NUMCHARTDIVISIONS: 10
CURVE: DT4P  240.000000 40.000000  (255,0,255)    Solid             2     N    
ENDTRACK: 
<DescLogPlotEnd>
~A DEPTH     ILD              SP               DPHI             NPHI             CALI             GR               RHOB             PEF              DT4P            
# ...
    9210.700 15.87062561      -94.58919296     0.29947873       0.50806991       9.85176028       65.25516525      1.78328308       4.75589124       -999.25000000   
    9210.800 16.10518097      -94.48396728     0.29948472       0.53233313       9.87325779       62.15510410      1.75012236       4.66491152       -999.25000000   
    9210.900 16.34320288      -94.34749609     0.29949071       0.53742036       9.89796738       59.10890612      1.71696163       4.57393181       -999.25000000   
    9211.000 16.58474257      -94.19623404     0.29949671       0.54262074       9.92363106       56.07032906      1.68380091       4.45619335       -999.25000000   
    9211.100 16.82985202      -94.06033897     0.29950270       0.55184402       9.94727680       53.25383640      1.65064018       4.28384848       -999.25000000   
    9211.200 17.07858400      -93.93264344     0.29950870       0.55595074       9.97029331       49.83012995      1.61747946       4.03969324       -999.25000000   
    9211.300 17.33099204      -93.79739514     0.29951469       0.56645802       9.99351499       46.26477491      1.58431873       3.79553800       -999.25000000   
    9211.400 17.58713048      -93.65839753     0.29952068       0.56589334       10.01621547      43.86030377      1.55115800       3.55138276       -999.25000000   
    9211.500 17.97845344      -93.52171575     0.29952668       0.57041168       10.03997891      41.99522589      1.51799728       3.30722752       -999.25000000   
    9211.600 17.97845344      -93.38045163     0.29953267       0.57356837       10.06618944      40.28596931      1.48483655       3.06307228       -999.25000000   
    9211.700 18.82427589      -93.22185642     0.29953866       0.57616338       10.09085091      39.04987513      1.45167583       2.81891703       -999.25000000   
    9211.800 19.41015092      -93.03605883     0.29954466       0.58101023       10.11149208      37.17652972      1.41851510       2.57476179       -999.25000000   
    9211.900 20.01426037      -92.82109919     0.29955065       0.58060219       10.13670603      35.01904114      1.38535438       2.33060655       -999.25000000   
    9212.000 20.63717174      -92.58718494     0.29955665       0.58044526       10.17638446      34.87026720      1.34894260       2.08645131       -999.25000000   
    9212.100 21.27947021      -92.34915685     0.29956264       0.57989516       10.22474934      36.48394377      1.33272910       1.84229607       -999.25000000   
    9212.200 21.94175919      -92.11594105     0.29956863       0.57958700       10.26695264      37.55071338      1.31475327       1.59814083       -999.25000000   
    9212.300 22.62466083      -91.88656715     0.29957463       0.57941738       10.30215503      38.16526577      1.29677744       1.36639078       -999.25000000   
    9212.400 23.32881668      -91.65554134     0.29958062       0.57661189       10.34408298      39.44566378      1.27844914       1.30577275       -999.25000000   
    9212.500 24.05488824      -91.41877250     0.29958662       0.57456500       10.39433232      41.07145702      1.28382007       1.30510904       -999.25000000   
    9212.600 24.80355759      -91.18179640     0.29959261       0.57270613       10.43445619      42.53732507      1.28929842       1.26735189       -999.25000000   
    9212.700 25.57552807      -90.95452767     0.29959860       0.57067639       10.45457629      44.02371565      1.29477677       1.23960503       -999.25000000   
    9212.800 26.77876592      -90.72975681     0.29960460       0.56883890       10.47160784      46.35787596      1.30025512       1.22195488       -999.25000000   
    9212.900 26.77876592      -90.48631442     0.29961059       0.56675292       10.50143394      49.68367951      1.30573347       1.18359575       -999.25000000   
    9213.000 26.85330858      -90.23135675     0.29961659       0.56503264       10.52729925      53.07100221      1.31067472       1.17133742       -999.25000000   
    9213.100 26.90311893      -90.01482202     0.29962258       0.56276806       10.51838262      55.68630772      1.36453172       1.20515943       -999.25000000   
    9213.200 26.95302167      -89.87371571     0.29962857       0.56134816       10.47226066      57.69293286      1.41358006       1.24996529       -999.25000000   
    9213.300 27.00301697      -89.78292563     0.29963457       0.55776991       10.41660490      59.63316519      1.46262840       1.28995126       -999.25000000   
    9213.400 27.05310502      -89.69025510     0.29964056       0.55867369       10.37184128      61.46973730      1.50302115       1.32512318       -999.25000000   
    9213.500 27.10328597      -89.57907071     0.29964655       0.56001067       10.33324140      62.87483403      1.54954683       1.36738362       -999.25000000   
    9213.600 27.15356000      -89.46765752     0.29965255       0.56128145       10.29050934      64.16099054      1.58056395       1.41227188       -999.25000000   
    9213.700 27.20392728      -89.36562156     0.29965854       0.57190382       10.24460813      66.06741440      1.60541984       1.43575264       -999.25000000   
    9213.800 27.30867760      -89.26378537     0.29966454       0.58124991       10.20084517      68.60500434      1.62586582       1.49986971       -999.25000000   
    9213.900 27.26233562      -89.15683363     0.29967053       0.58796393       10.15882004      70.55797309      1.64631180       1.60867799       -999.25000000   
    9214.000 26.70508516      -89.04979557     0.29967652       0.59710697       10.11567884      71.15092014      1.66675778       1.74578579       -999.25000000   
    9214.100 26.24555057      -88.94544926     0.29968252       0.60821495       10.07160875      71.33438326      1.68720376       1.88184940       -999.25000000   
    9214.200 25.91588778      -88.84111832     0.29968851       0.60870584       10.02815745      71.77950264      1.70764974       1.99197402       -999.25000000   
    9214.300 25.46040358      -88.73550204     0.29969451       0.60886165       9.98501108       72.28949481      1.72809572       2.05778811       -999.25000000   
    9214.400 25.14654066      -88.62989050     0.29970050       0.60841906       9.94165796       72.60841395      1.74854170       2.07630971       -999.25000000   
    9214.500 24.70364635      -88.52482223     0.29970649       0.60984771       9.89826294       72.78456169      1.76898768       2.06851347       -999.25000000   
    9214.600 24.21391954      -88.41981640     0.29971249       0.60770324       9.85500037       72.94927548      1.78943365       2.06138597       -999.25000000   
    9214.700 24.15586875      -88.31449774     0.29971848       0.58249573       9.81145383       73.13102315      1.80987963       2.06259851       -999.25000000   
    9214.800 23.94586316      -88.20913297     0.29972447       0.55899015       9.76785925       73.29884380      1.83032561       2.06390369       -999.25000000   
    9214.900 23.73301808      -88.10373032     0.29973047       0.54601991       9.72508228       73.45869735      1.85077159       2.06119849       -999.25000000   
    9215.000 23.59177413      -87.99851053     0.29973646       0.51950269       9.68226966       73.62193867      1.87121757       2.05785699       -999.25000000   
    9215.100 23.40409617      -87.89336370     0.29974246       0.50948771       9.63794696       73.78489636      1.89166355       2.05626875       -999.25000000   
    9215.200 23.24246171      -87.78783394     0.29974845       0.48033086       9.59365681       73.95062532      1.91210953       2.05622622       -999.25000000   
    9215.300 23.07837971      -87.68217984     0.29975444       0.46278544       9.55213896       74.11935325      1.93255551       2.05604156       -999.25000000   
    9215.400 22.91135566      -87.57725351     0.29976044       0.45162246       9.51069868       74.26800334      1.95239717       2.05237339       -999.25000000   
    9215.500 22.66501190      -87.47254463     0.29976643       0.37553536       9.46374716       74.44647058      1.97392781       2.04724303       -999.25000000   
