~Version Information Block
 VERS.                2.00:     CWLS LOG ASCII STANDARD - VERSION 2.000000
 WRAP.                  NO:     One Line Per Depth Step
#
~Well Information Block
#MNEM.UNIT                     Data                         Information
#----------   ------------------------------------------   ----------------
 STRT.FT                                    12600.0000:     START DEPTH
 STOP.FT                                    13950.0000:     STOP DEPTH
 STEP.FT                                        0.1000:     STEP
 NULL.                                       -999.2500:     NULL VALUE
 COMP.                        PRESIDIO EXPLORATION INC:     COMPANY
 WELL.                          PICKETLAKE UNIT #40-13:     WELL
 FLD .                                         WILDCAT:     FIELD
 LOC .                           1320' FSL & 1320' FEL:     LOCATION
 CNTY.                                      SWEETWATER:     COUNTY
 STAT.                                         WYOMING:     STATE
 CTRY.                                             USA:     COUNTRY
 SRVC.                                                :     SERVICE COMPANY
 DATE.                                      15/05/1995:     DATE
 API .                                      4903723472:     API NUMBER
 UWI .                                         3723472:     UWI NUMBER
 TVD .                                              NO:     TVD flag
 WSTA.                                             LOC:     Well status
 USGS.                                            F042:     USGS Number
 LATI.DEG                                     42.22387:     LATITUDE
 LONG.DEG                                   -108.34765:     LONGITUDE
 UTM-N.                                     4678038.95:     Northing
 UTM-E.                                       718897.4:     Easting
 CORE.                                              +5:     Core/Log Offset
#
~Curve Information Block
#MNEM.UNIT       API CODE      Curve Description
#----------    -------------   -------------------
 DEPT.FT                   :   Depth in Feet
 DTCO.US/F     60 520 08 01:   DTCO
 SPHI.V/V      61 890 01 01:   Sonic Porosity
 GR  .GAPI     35 310 01 01:   Gamma Ray
 CALI.IN       70 280 01 01:   Caliper
 ILD .OHMM     05 120 46 01:   Deep Induction Standard Processed Resistivity
 SP  .MV       01 010 01 01:   Spontaneous Potential
 PEF .b/e                  :   Photo-Electric Factor
 RHOB.G/C3     42 350 01 01:   Bulk Density
 DPHI.V/V      45 890 01 01:   Density Porosity
 NPHI.V/V      42 890 03 01:   Neutron Porosity
#
~Parameter Information Block
#MNEM.UNIT            Value               Description
#----------    --------------------    -------------------
 DATE.                  15-05-1995:    Date As Month-Day-Year
 RUN .                         ONE:    Run Number
 PDAT.                         UNK:    Permanent Datum
 EPD .FT                 7224.0000:    Elevation Of Perm. Datum
 LMF .                          KB:    Log Measured From
 FAPD.FT                   15.0000:    Feet Above Perm. Datum
 DMF .                          KB:    Drilling Measured From
 EKB .FT                 7240.0000:    Elevation Of Kelly Bushing
 EDF .FT                 7239.0000:    Elevation Of Derrick Floor
 EGL .FT                 7224.0000:    Elevation Of Ground Level
 TD  .FT                13950.0000:    Total Depth
 DD  .FT                13957.0000:    Depth Driller
 DL  .FT                13952.0000:    Depth Logger
 BLI .FT                13925.0000:    Bottom Log Interval
 TLI .FT                10000.0000:    Top Log Interval
 CSIZ.IN                   9.625IN:    Casing Size
 CBD1.                        2520:    Casing Bottom (Driller) 1
 CBL1.                        2518:    Casing Bottom (Logger) 1
 BS  .IN                   7.875IN:    Bit Size
 DFT .                         WTD:    Drilling Fluid Type
 DFV .S                    74.0000:    Drilling Fluid Viscosity
 DFD .LB/G                 10.8000:    Drilling Fluid Density
 DFL .ML                    7.2000:    Drilling Fluid Loss
 DFPH.                      9.5000:    Drilling Fluid Ph
 MSS .                     MUDTANK:    Mud Sample Source
 RMS .OHMM                  4.3300:    Resistivity Of Mud Sample
 MST .DEGF                 65.0000:    Mud Sample Temperature
 RMF .OHMM                  3.3800:    Mud Filtrate Resistivity
 MFST.DEGF                 65.0000:    Mud Filtrate Sample Temperature
 RMC .OHMM                  4.5000:    Mud Cake Resistivity
 MCST.DEGF                 65.0000:    Mud Cake Sample Temperature
 RMB .OHMM                  1.3760:    Mud Resistivity At Bht
 BHT .DEGF                219.0000:    Bottom Hole Temperature
 MRT .DEGF                219.0000:    Maximum Recorded Temperature
 LUN .                        8415:    Logging Unit Number
 LUL .                      CASPER:    Logging Unit Location
 ENGI.               T.CHRISTENSEN:    Engineer'S Name
 WITN.                STEVE HEFNER:    Witness' Name
 DGBY.                         R2V:    
 WSTA.                         LOC:    
#
~Other Information Block
<DescLogPlotStart>   NEURALOG PLOT DEFINITION
PLOTDEFVERSION: 3
LASFILE: C:\nds\projects\mf-nov-13\las\3723472C.las
DEPTHSCALE: 240.000000
RESOLUTION: 200
DEPTHLABELFREQ: 100.000000
HEAVYGRIDFREQ: 100.000000
MEDIUMGRIDFREQ: 50.000000
LIGHTGRIDFREQ: 10.000000
#
#   TRACK 1
#
STARTTRACK: 
 LEFTX: 0.500000 inch
 RIGHTX: 3.000000 inch
 SCALETYPE: Linear
 NUMCHARTDIVISIONS: 10
CURVE: DTCO  140.000000 40.000000  (0,0,255)      Solid             2     N    
CURVE: SPHI  0.300000   -0.100000  (0,131,131)    Dot               2     N    
ENDTRACK: 
#
#   TRACK 2
#
STARTTRACK: 
 LEFTX: 3.500000 inch
 RIGHTX: 6.000000 inch
 SCALETYPE: Linear
 NUMCHARTDIVISIONS: 10
CURVE: GR    0.000000   150.000000 (255,0,255)    Solid             2     Y    
BACKUP: 150.000000 300.000000 (255,0,255)    Solid             2    
CURVE: CALI  6.000000   16.000000  (255,0,0)      Dot               2     N    
ENDTRACK: 
#
#   TRACK 3
#
STARTTRACK: 
 LEFTX: 6.000000 inch
 RIGHTX: 11.000000 inch
 SCALETYPE: Log
 NUMCYCLES: 4
 STARTCYCLE: 2
CURVE: ILD   0.200000   2000.000000 (255,131,0)    Solid             2     N   
ENDTRACK: 
#
#   TRACK 4
#
STARTTRACK: 
 LEFTX: 11.000000 inch
 RIGHTX: 13.500000 inch
 SCALETYPE: Linear
 NUMCHARTDIVISIONS: 10
CURVE: SP    -80.000000 20.000000  (255,255,0)    Solid             2     N    
ENDTRACK: 
#
#   TRACK 5
#
STARTTRACK: 
 LEFTX: 13.500000 inch
 RIGHTX: 18.500000 inch
 SCALETYPE: Linear
 NUMCHARTDIVISIONS: 10
CURVE: PEF   0.000000   10.000000  (0,0,255)      Solid             2     N    
CURVE: RHOB  2.000000   3.000000   (0,131,131)    Dot               2     Y    
BACKUP: 1.000000   2.000000   (0,131,131)    Dot               2    
ENDTRACK: 
#
#   TRACK 6
#
STARTTRACK: 
 LEFTX: 18.500000 inch
 RIGHTX: 23.500000 inch
 SCALETYPE: Linear
 NUMCHARTDIVISIONS: 10
CURVE: DPHI  0.300000   -0.100000  (255,0,255)    Solid             2     N    
CURVE: NPHI  0.300000   -0.100000  (255,0,0)      Dot               2     Y    
BACKUP: 0.700000   0.300000   (255,0,0)      Dot               2    
ENDTRACK: 
<DescLogPlotEnd>
~A DEPTH     DTCO             SPHI             GR               CALI             ILD              SP               PEF              RHOB             DPHI             NPHI            
# ...
   13678.000 70.78815261      0.14353191       127.23438997     8.54903514       15.27971217      11.72871735      3.16729024       2.54035154       0.06213753       0.13047185      
   13678.100 70.94176707      0.14446497       127.24527555     8.54908710       15.17520699      11.69843213      3.18966402       2.54516041       0.05950763       0.13209967      
   13678.200 71.09538153      0.14539804       127.28807631     8.54913905       15.07141656      11.66835823      3.18562726       2.54982605       0.05687774       0.13377100      
   13678.300 71.24899598      0.14633110       127.37193756     8.54919101       14.96833600      11.63825677      3.16087514       2.55513945       0.05424784       0.13531674      
   13678.400 71.40261044      0.14726417       127.43232125     8.54924297       14.86596047      11.60806505      3.13289612       2.56098729       0.05161794       0.13707011      
   13678.500 71.55622490      0.14819723       127.35178329     8.54929492       14.79944017      11.57780043      3.11021633       2.56568274       0.04989940       0.13797711      
   13678.600 71.70983936      0.14913030       127.08121402     8.54934688       14.79944017      11.54754655      3.08875661       2.56793581       0.04948893       0.13775838      
   13678.700 71.86345382      0.15006336       126.70809536     8.54939883       14.79944017      11.51748975      3.06445262       2.56866804       0.04915782       0.13762575      
   13678.800 71.97791165      0.15099643       126.35091367     8.54945079       14.79944017      11.48753051      3.03941391       2.56952908       0.04881822       0.13682093      
   13678.900 72.09036145      0.15192950       126.03251653     8.54950274       14.79944017      11.45713731      3.01624539       2.57044949       0.04864169       0.13601610      
   13679.000 72.17996988      0.15286256       125.71231243     8.54955470       14.79944017      11.42657810      2.99364702       2.57019513       0.04979173       0.13348089      
   13679.100 72.26957831      0.15379563       125.37626707     8.54960665       14.79944017      11.39684363      2.96947260       2.56863674       0.05054881       0.13165191      
   13679.200 72.35918675      0.15441767       125.03746537     8.54965861       14.79944017      11.36739931      2.94468640       2.56677771       0.05145779       0.12982294      
   13679.300 72.44879518      0.15480780       124.69978962     8.54971056       14.81770149      11.33644319      2.92176253       2.56494819       0.05214456       0.12799396      
   13679.400 72.53840361      0.15510040       124.37075293     8.54976252       14.83061291      11.30485782      2.89981249       2.56243294       0.05275780       0.12616499      
   13679.500 72.62801205      0.15539300       124.05385010     8.54981448       14.84353559      11.27625726      2.87474179       2.55884248       0.05581955       0.12433602      
   13679.600 72.68072289      0.15568560       123.71867512     8.54986643       14.85646953      11.25064304      2.84646931       2.55470175       0.05824123       0.12250704      
   13679.700 72.68072289      0.15597820       123.35102631     8.54991839       14.86941474      11.22234108      2.82232205       2.55065635       0.06032700       0.12067807      
   13679.800 72.68072289      0.15627080       123.03999257     8.54997034       14.88237122      11.18775235      2.80874426       2.54682541       0.06272616       0.11884909      
   13679.900 72.68072289      0.15642570       122.93464392     8.55002230       14.89533900      11.15090758      2.80288910       2.54296793       0.06485414       0.11702012      
   13680.000 72.68072289      0.15622490       123.08653460     8.55007425       14.90831808      11.11740477      2.79690786       2.53892549       0.06720111       0.11428571      
   13680.100 72.68072289      0.15608835       123.37543035     8.55012621       14.92130846      11.08688678      2.78796380       2.53485443       0.06938331       0.11428571      
   13680.200 72.64006024      0.15595181       123.61542015     8.55017816       14.93431017      11.05561365      2.77884637       2.53101803       0.07167307       0.11428571      
   13680.300 72.56325301      0.15581526       123.74045101     8.55023012       14.94732320      11.02282872      2.77121135       2.52728889       0.07390977       0.11428571      
   13680.400 72.48644578      0.15562249       123.88308923     8.55028207       14.96034757      10.99039936      2.76368012       2.52315660       0.07615588       0.11463340      
   13680.500 72.40963855      0.15520080       124.23399962     8.55033403       14.97338329      10.95879474      2.75536178       2.51858274       0.07840199       0.11528370      
   13680.600 72.33283133      0.15448394       124.82810069     8.55038599       14.98643037      10.92698886      2.74700617       2.51440868       0.08064810       0.11593400      
   13680.700 72.25602410      0.15376707       125.51589861     8.55043794       14.99948882      10.89474902      2.73900907       2.51135153       0.08289421       0.11658431      
   13680.800 72.17921687      0.15281124       126.15204683     8.55048990       15.01255865      10.86262471      2.73097892       2.50894130       0.08514032       0.11723461      
   13680.900 72.07831325      0.15173129       126.72290814     8.55054185       15.02563987      10.83070762      2.72291146       2.50618358       0.08738642       0.11788491      
   13681.000 71.92295498      0.15011135       127.28526258     8.55059381       15.03873248      10.79873148      2.71492017       2.50299104       0.08963253       0.11853521      
   13681.100 71.69657578      0.14849142       127.88850466     8.55064576       15.05183650      10.76666491      2.70670160       2.50004294       0.09187864       0.11918551      
   13681.200 71.47019658      0.14687149       128.53182089     8.55069772       15.06495194      10.73461822      2.69831369       2.49738976       0.09496982       0.11983581      
   13681.300 71.24381737      0.14525155       129.14145682     8.55074967       15.07807881      10.70262390      2.69046031       2.49431662       0.09547686       0.12072435      
   13681.400 71.01743817      0.14363162       129.66662372     8.55080163       15.09121712      10.67060424      2.68295962       2.49081574       0.09628974       0.12089604      
   13681.500 70.79105897      0.14201168       130.23404614     8.55085359       15.10436687      10.63858458      2.67428402       2.48809935       0.09710262       0.12116700      
   13681.600 70.56467977      0.14039175       130.97501260     8.55090554       15.11752809      10.60656492      2.66460434       2.48709474       0.09791549       0.12143796      
   13681.700 70.33830057      0.13877181       131.63358548     8.55095750       15.13070077      10.57454526      2.65722572       2.48725189       0.09872837       0.12170892      
   13681.800 70.11192137      0.13715188       131.73655587     8.55100945       15.14388493      10.54252560      2.65469956       2.48747906       0.09979879       0.12199215      
   13681.900 69.88554217      0.13553195       130.77059943     8.55106141       15.15708057      10.51050594      2.65512986       2.48760284       0.09939638       0.12233320      
   13682.000 69.65916297      0.13391201       129.45303950     8.55111336       15.17028772      10.47848628      2.65516836       2.48819476       0.09899396       0.12293654      
   13682.100 69.43278377      0.13229208       128.35052010     8.55116532       15.18350637      10.44646661      2.65502098       2.48943371       0.09859155       0.12382435      
   13682.200 69.20640457      0.13067214       127.18157049     8.55121727       15.19673654      10.41444695      2.65725284       2.49090503       0.09818913       0.12466439      
   13682.300 68.98002536      0.12905221       126.02251920     8.55126923       15.21660342      10.38242729      2.66209642       2.49231004       0.09730785       0.12558023      
