~Version Information Block
 VERS.                2.00:     CWLS LOG ASCII STANDARD - VERSION 2.000000
 WRAP.                  NO:     One Line Per Depth Step
#
~Well Information Block
#MNEM.UNIT                     Data                         Information
#----------   ------------------------------------------   ----------------
 STRT.FT                                     9000.0000:     START DEPTH
 STOP.FT                                    10600.0000:     STOP DEPTH
 STEP.FT                                        0.1000:     STEP
 NULL.                                       -999.2500:     NULL VALUE
 COMP.                            PRESIDIO OIL COMPANY:     COMPANY
 WELL.                          HAY RESERVIOR UNIT #58:     WELL
 FLD .                              HAY RESERVIOR UNIT:     FIELD
 LOC .                               1500' FSL 10' FWL:     LOCATION
 CNTY.                                      SWEETWATER:     COUNTY
 STAT.                                         WYOMING:     STATE
 CTRY.                                             USA:     COUNTRY
 SRVC.                                    SCHLUMBERGER:     SERVICE COMPANY
 DATE.                                      22/02/1994:     DATE
 API .                                      4903723301:     API NUMBER
 UWI .                                         3723301:     UWI NUMBER
 TVD .                                              NO:     TVD flag
 WSTA.                                             LOC:     Well status
 USGS.                                            E945:     USGS Number
 LATI.DEG                                     42.05082:     LATITUDE
 LONG.DEG                                   -108.37861:     LONGITUDE
 UTM-N.                                     4658743.82:     Northing
 UTM-E.                                      716932.37:     Easting
 CORE.FT                                          -9.2:     Core/Log Offset
#
~Curve Information Block
#MNEM.UNIT       API CODE      Curve Description
#----------    -------------   -------------------
 DEPT.FT                   :   Depth in Feet
 ILD .OHMM     05 120 46 01:   Deep Induction Standard Processed Resistivity
 SP  .MV       01 010 01 01:   Spontaneous Potential
 DPHI.DEC      42 890 03 01:   DPHI
 NPHI.DEC      42 890 03 01:   Neutron Porosity
 CALI.IN       70 280 01 01:   Caliper
 GR  .GAPI     35 310 01 01:   Gamma Ray
 RHOB.G/C3     42 350 01 01:   Bulk Density
 PEF .B/E                  :   Photo-Electric Factor
 DT4P.US/F                 :   
#
~Parameter Information Block
#MNEM.UNIT            Value               Description
#----------    --------------------    -------------------
 DATE.                  22-02-1994:    Date As Month-Day-Year
 RUN .                         ONE:    Run Number
 PDAT.                         UNK:    Permanent Datum
 EPD .FT                 6799.0000:    Elevation Of Perm. Datum
 LMF .                          KB:    Log Measured From
 FAPD.FT                   14.0000:    Feet Above Perm. Datum
 DMF .                          KB:    Drilling Measured From
 EKB .FT                 6813.0000:    Elevation Of Kelly Bushing
 EDF .FT                 6812.0000:    Elevation Of Derrick Floor
 EGL .FT                 6799.0000:    Elevation Of Ground Level
 TD  .FT                10600.0000:    Total Depth
 DD  .FT                10625.0000:    Depth Driller
 DL  .FT                10623.0000:    Depth Logger
 BLI .FT                 1061.0000:    Bottom Log Interval
 CSIZ.IN                     9.625:    Casing Size
 CBD1.                        1702:    Casing Bottom (Driller) 1
 CBL1.                        1700:    Casing Bottom (Logger) 1
 BS  .IN                     7.875:    Bit Size
 DFV .S                    45.0000:    Drilling Fluid Viscosity
 DFD .LB/G                 10.5000:    Drilling Fluid Density
 DFL .ML                    7.2000:    Drilling Fluid Loss
 DFPH.                      9.5000:    Drilling Fluid Ph
 MSS .                    MUD TANK:    Mud Sample Source
 RMS .OHMM                  4.6200:    Resistivity Of Mud Sample
 MST .DEGF                 50.0000:    Mud Sample Temperature
 RMF .OHMM                  3.0700:    Mud Filtrate Resistivity
 MFST.DEGF                 50.0000:    Mud Filtrate Sample Temperature
 RMC .OHMM                  7.1400:    Mud Cake Resistivity
 MCST.DEGF                 50.0000:    Mud Cake Sample Temperature
 RMB .OHMM                  1.0990:    Mud Resistivity At Bht
 BHT .DEGF                212.0000:    Bottom Hole Temperature
 MRT .DEGF                212.0000:    Maximum Recorded Temperature
 LUN .                        8415:    Logging Unit Number
 LUL .                      CASPER:    Logging Unit Location
 ENGI.               CHRIS PRESMYK:    Engineer'S Name
 WITN.                STEVE HEFNER:    Witness' Name
 DGBY.                         R2V:    
 WSTA.                         LOC:    
#
~Other Information Block
<DescLogPlotStart>   NEURALOG PLOT DEFINITION
PLOTDEFVERSION: 3
LASFILE: C:\nds\projects\mf-nov-13\las\3723301A.las
DEPTHSCALE: 240.000000
RESOLUTION: 200
DEPTHLABELFREQ: 100.000000
HEAVYGRIDFREQ: 100.000000
MEDIUMGRIDFREQ: 50.000000
LIGHTGRIDFREQ: 10.000000
#
#   TRACK 1
#
STARTTRACK: 
 LEFTX: 0.500000 inch
 RIGHTX: 3.000000 inch
 SCALETYPE: Log
 NUMCYCLES: 4
 STARTCYCLE: 2
CURVE: ILD   0.200000   2000.000000 (0,0,255)      Solid             2     N   
ENDTRACK: 
#
#   TRACK 2
#
STARTTRACK: 
 LEFTX: 3.500000 inch
 RIGHTX: 6.000000 inch
 SCALETYPE: Linear
 NUMCHARTDIVISIONS: 10
CURVE: SP    -80.000000 20.000000  (0,131,131)    Solid             2     Y    
BACKUP: -180.000000 -80.000000 (0,131,131)    Solid             2    
ENDTRACK: 
#
#   TRACK 3
#
STARTTRACK: 
 LEFTX: 6.000000 inch
 RIGHTX: 11.000000 inch
 SCALETYPE: Linear
 NUMCHARTDIVISIONS: 10
CURVE: DPHI  0.300000   -0.100000  (255,0,255)    Solid             2     N    
CURVE: NPHI  0.300000   -0.100000  (255,0,0)      Dot               2     Y    
BACKUP: 0.700000   0.300000   (255,0,0)      Dot               2    
ENDTRACK: 
#
#   TRACK 4
#
STARTTRACK: 
 LEFTX: 11.000000 inch
 RIGHTX: 13.500000 inch
 SCALETYPE: Linear
 NUMCHARTDIVISIONS: 10
CURVE: CALI  6.000000   16.000000  (255,131,0)    Solid             2     N    
CURVE: GR    0.000000   150.000000 (255,255,0)    Dot               2     Y    
BACKUP: 150.000000 300.000000 (255,255,0)    Dot               2    
ENDTRACK: 
#
#   TRACK 5
#
STARTTRACK: 
 LEFTX: 13.500000 inch
 RIGHTX: 18.500000 inch
 SCALETYPE: Linear
 NUMCHARTDIVISIONS: 10
CURVE: RHOB  2.000000   3.000000   (0,0,255)      Solid             2     Y    
BACKUP: 1.000000   2.000000   (0,0,255)      Solid             2    
CURVE: PEF   0.000000   10.000000  (0,131,131)    Dot               2     N    
ENDTRACK: 
#
#   TRACK 6
#
STARTTRACK: 
 LEFTX: 13.500000 inch
 RIGHTX: 18.500000 inch
 SCALETYPE: Linear
 NUMCHARTDIVISIONS: 10
CURVE: DT4P  240.000000 40.000000  (255,0,255)    Solid             2     N    
ENDTRACK: 
<DescLogPlotEnd>
~A DEPTH     ILD              SP               DPHI             NPHI             CALI             GR               RHOB             PEF              DT4P            
# ...
    9534.100 19.66190390      -48.73958209     0.03573521       0.12330672       8.55747120       77.69711846      2.59333434       3.22425167       -999.25000000   
    9534.200 19.97777411      -48.73197308     0.03660983       0.12379298       8.55572581       77.74742764      2.59217982       3.22925034       -999.25000000   
    9534.300 20.29871881      -48.72472106     0.03690832       0.12427924       8.55398041       77.82012323      2.59089336       3.23429680       -999.25000000   
    9534.400 20.62481951      -48.71746056     0.03723250       0.12476550       8.55223502       77.90441809      2.58962553       3.23591852       -999.25000000   
    9534.500 20.95615904      -48.70945886     0.03755667       0.12527583       8.55048963       77.95255593      2.58880215       3.23016257       -999.25000000   
    9534.600 21.29282158      -48.70147552     0.03788084       0.12501906       8.54874424       78.02284438      2.58864736       3.21562673       -999.25000000   
    9534.700 21.63489263      -48.69490081     0.03822136       0.12474891       8.54699885       78.14535137      2.58889740       3.19438724       -999.25000000   
    9534.800 21.98245908      -48.68829081     0.03810041       0.12447877       8.54525346       78.10610347      2.58913886       3.17042309       -999.25000000   
    9534.900 22.33560921      -48.67909869     0.03794958       0.12420863       8.54350806       77.84782366      2.58925444       3.14671036       -999.25000000   
    9535.000 22.87600044      -48.66996971     0.03782869       0.12393848       8.54176267       77.44648412      2.58937335       3.12370855       -999.25000000   
    9535.100 22.87600044      -48.66593871     0.03767917       0.12366834       8.54001728       77.03699519      2.58955557       3.10046866       -999.25000000   
    9535.200 23.22036435      -48.66181090     0.03755579       0.12339819       8.53827189       76.67097804      2.58973620       3.07686725       -999.25000000   
    9535.300 23.45281542      -48.64119683     0.03741080       0.12312805       8.53652650       76.31524606      2.58988188       3.05370790       -999.25000000   
    9535.400 23.68759349      -48.59486137     0.03728177       0.12285791       8.53478111       75.93632691      2.59002657       3.03080857       -999.25000000   
    9535.500 23.92472183      -48.53279292     0.03714214       0.12258776       8.53303571       75.53895986      2.59018939       3.00708910       -999.25000000   
    9535.600 24.16422399      -48.47124818     0.03700932       0.12231762       8.53129032       75.15628940      2.59035587       2.98312142       -999.25000000   
    9535.700 24.40612372      -48.41480143     0.03687097       0.12204748       8.52954493       74.80691585      2.59051390       2.96064605       -999.25000000   
    9535.800 24.65044503      -48.35819816     0.03673974       0.12177733       8.52779954       74.44573351      2.59066399       2.93850338       -999.25000000   
    9535.900 24.89721215      -48.29898927     0.03659780       0.12150719       8.52605415       74.01912977      2.59081716       2.91342265       -999.25000000   
    9536.000 25.14644958      -48.23978380     0.03647332       0.12126379       8.52430876       73.61163690      2.59098559       2.88745465       -999.25000000   
    9536.100 25.39818203      -48.18202757     0.03632316       0.12084814       8.52256336       73.43733483      2.59115280       2.86974976       -999.25000000   
    9536.200 25.65243449      -48.12435849     0.03619258       0.12046994       8.52081797       73.60155534      2.59129166       2.86659254       -999.25000000   
    9536.300 25.90923219      -48.06585517     0.03605751       0.12009174       8.51907258       73.96186767      2.59143095       2.87326764       -999.25000000   
    9536.400 26.16860059      -48.00707619     0.03592243       0.11971354       8.51732719       74.31016254      2.59166781       2.88036564       -999.25000000   
    9536.500 26.43056545      -47.94884598     0.03580742       0.11933534       8.51558092       74.59262628      2.59205687       2.88453872       -999.25000000   
    9536.600 26.69515274      -47.89122994     0.03522568       0.11895714       8.51383256       74.87738475      2.59254470       2.88853521       -999.25000000   
    9536.700 26.96238873      -47.83308913     0.03471916       0.11857894       8.51208572       75.19628839      2.59306685       2.89400063       -999.25000000   
    9536.800 27.23229993      -47.77376496     0.03421264       0.11820074       8.51034249       75.51919891      2.59366689       2.89955315       -999.25000000   
    9536.900 27.50491311      -47.71507819     0.03370612       0.11782253       8.50859576       75.82173123      2.59445562       2.90433525       -999.25000000   
    9537.000 27.78025533      -47.65859848     0.03319960       0.11744433       8.50684079       76.11162352      2.59544743       2.90908550       -999.25000000   
    9537.100 28.05835391      -47.60100457     0.03269308       0.11706613       8.50509311       76.41529554      2.59649949       2.91417751       -999.25000000   
    9537.200 28.33923644      -47.53905533     0.03218656       0.11668793       8.50336273       76.74642363      2.59747042       2.91925803       -999.25000000   
    9537.300 28.62293078      -47.48095175     0.03168004       0.11630973       8.50161847       77.06393503      2.59840954       2.92429629       -999.25000000   
    9537.400 28.90946509      -47.44389855     0.03117352       0.11593153       8.49984134       77.33024371      2.59946729       2.92939033       -999.25000000   
    9537.500 29.19886780      -47.43450625     0.03066700       0.11564694       8.49808966       77.61577746      2.60059885       2.93427722       -999.25000000   
    9537.600 29.49116762      -47.43884620     0.03016048       0.11457974       8.49639823       78.00285250      2.60151818       2.93903702       -999.25000000   
    9537.700 29.78639355      -47.43978542     0.02978937       0.11372428       8.49465654       78.34382388      2.60203247       2.94432991       -999.25000000   
    9537.800 30.08457488      -47.43693241     0.02966098       0.11286883       8.49279591       78.31642012      2.60226503       2.95006608       -999.25000000   
    9537.900 30.38574121      -47.43853536     0.02955968       0.11201337       8.49109891       77.81944159      2.60246666       2.95463021       -999.25000000   
    9538.000 30.68992241      -47.44138589     0.02945838       0.11115792       8.49004879       77.10892550      2.60275266       2.95668934       -999.25000000   
    9538.100 30.99714866      -47.43640866     0.02935707       0.11030246       8.48977678       76.45060078      2.60310519       2.95693071       -999.25000000   
    9538.200 31.30745045      -47.43207992     0.02925577       0.10944701       8.48989202       75.85758750      2.60344852       2.95707946       -999.25000000   
    9538.300 31.62085856      -47.45222662     0.02915446       0.10859155       8.48995700       75.26066831      2.60363433       2.95780772       -999.25000000   
    9538.400 31.93740410      -47.50554603     0.02905316       0.10773610       8.48990304       74.67712004      2.60351552       2.95860017       -999.25000000   
    9538.500 32.25711846      -47.57356497     0.02898696       0.10688064       8.48987453       74.09943838      2.60312485       2.95910484       -999.25000000   
    9538.600 32.58003337      -47.63530584     0.02925978       0.10602519       8.48990627       73.43127409      2.60266273       2.95955786       -999.25000000   
    9538.700 32.90618088      -47.68962986     0.02938816       0.10516973       8.48992413       72.63641563      2.60225001       2.96015303       -999.25000000   
    9538.800 33.23559333      -47.74592071     0.03052571       0.10431428       8.48990911       71.81119841      2.60178673       2.96080809       -999.25000000   
    9538.900 33.56830342      -47.80601104     0.03135827       0.10345882       8.48990141       71.07313926      2.60109564       2.96141947       -999.25000000   
