~Version ---------------------------------------------------
VERS. 2.0 : CWLS log ASCII Standard -VERSION 2.0
WRAP.  NO : One Line Per Depth Step
~Well ------------------------------------------------------
STRT .FT              12000.0 : START DEPTH
STOP .FT              13400.0 : STOP DEPTH
STEP .FT   0.1000000000003638 : STEP
NULL .                -999.25 : NULL VALUE
COMP . ENRON OIL &GAS COMPANY : COMPANY
WELL .       CEPO-LEWIS 21-38 : WELL
FLD  .             CEPO-LEWIS : FIELD
LOC  .   1205' FWL &1300' FSL : LOCATION
CNTY .             SWEETWATER : COUNTY
STAT .                WYOMING : STATE
CTRY .                    USA : COUNTRY
SRVC .                        : SERVICE COMPANY
DATE .             25/05/1998 : DATE
API  .             4903724185 : API NUMBER
UWI  .                3724185 : UWI NUMBER
TVD  .                     NO : TVD flag
WSTA .                    LOC : Well status
USGS .                   CEPO : USGS Number
LATI .DEG            41.18194 : LATITUDE
LONG .DEG          -108.14139 : LONGITUDE
UTM-N.             4562894.53 : Northing
UTM-E.              739764.57 : Easting
CORE .FT                 -3.9 : Core/Log Offset
~Curve Information -----------------------------------------
DEPT .FT                : Depth in Feet
GR   .GAPI 35 310 01 01 : Gamma Ray
SP   .MV   01 010 01 01 : Spontaneous Potential
CALI .IN   70 280 01 01 : Caliper
AHT90.OHMM              : 
ILD  .OHMM 05 120 46 01 : Deep Induction Standard Processed Resistivity
HCAL .IN                : 
DPHI .V/V  45 890 01 01 : Density Porosity
NPOR .V/V               : Neutron Porosity Output From An Application Program
RHOB .G/C3 42 350 01 01 : Bulk Density
PEF  .b/e               : Photo-Electric Factor
DT   .US/F 60 520 08 01 : Delta-T
SPHI .V/V  61 890 01 01 : Sonic Porosity
RESD .OHMM              : Deep Resistivity - Merged AHT90 & ILD
~Params ----------------------------------------------------
DATE.  25-05-1998 : Date As Month-Day-Year
RUN .         ONE : Run Number
PDAT.         UNK : Permanent Datum
EPD .FT    6416.0 : Elevation Of Perm. Datum
LMF .          KB : Log Measured From
FAPD.FT      21.0 : Feet Above Perm. Datum
DMF .          KB : Drilling Measured From
EKB .FT    6437.0 : Elevation Of Kelly Bushing
EDF .FT    6436.0 : Elevation Of Derrick Floor
EGL .FT    6416.0 : Elevation Of Ground Level
TD  .FT   13400.0 : Total Depth
DD  .FT   12587.0 : Depth Driller
DL  .FT   12616.0 : Depth Logger
BLI .FT   12602.0 : Bottom Log Interval
TLI .FT    2346.0 : Top Log Interval
DFT .    GEL-CHEM : Drilling Fluid Type
LUN .        8269 : Logging Unit Number
LUL . ROCK SPRING : Logging Unit Location
DGBY.         R2V : 
WSTA.         LOC : 
~Other -----------------------------------------------------
<DescLogPlotStart>   NEURALOG PLOT DEFINITION
PLOTDEFVERSION: 3
LASFILE: C:\nds\projects\mf-nov-13\las\3724185G.las
DEPTHSCALE: 240.000000
RESOLUTION: 200
DEPTHLABELFREQ: 100.000000
HEAVYGRIDFREQ: 100.000000
MEDIUMGRIDFREQ: 50.000000
LIGHTGRIDFREQ: 10.000000
#
#   TRACK 1
#
STARTTRACK:
LEFTX: 0.500000 inch
RIGHTX: 3.000000 inch
SCALETYPE: Linear
NUMCHARTDIVISIONS: 10
CURVE: GR    0.000000   150.000000 (0,0,255)      Solid             2     N
CURVE: SP    -100.000000 0.000000   (0,131,131)    Dot               2     Y
BACKUP: 0.000000   100.000000 (0,131,131)    Dot               2
BACKUP: 100.000000 200.000000 (0,131,131)    Dot               2
BACKUP: 200.000000 300.000000 (0,131,131)    Dot               2
BACKUP: 300.000000 400.000000 (0,131,131)    Dot               2
CURVE: CALI  4.000000   14.000000  (255,0,255)    Short_Dash        2     N
CURVE: HCAL  4.000000   14.000000  (255,0,0)      Medium_Dash       2     Y
BACKUP: -6.000000  4.000000   (255,0,0)      Medium_Dash       2
ENDTRACK:
#
#   TRACK 2
#
STARTTRACK:
LEFTX: 3.500000 inch
RIGHTX: 8.500000 inch
SCALETYPE: Log
NUMCYCLES: 4
STARTCYCLE: 2
CURVE: AHT90 0.200000   2000.000000 (255,131,0)    Solid             2     N
CURVE: ILD   0.200000   2000.000000 (255,255,0)    Dot               2     N
ENDTRACK:
#
#   TRACK 3
#
STARTTRACK:
LEFTX: 3.500000 inch
RIGHTX: 8.500000 inch
SCALETYPE: Linear
NUMCHARTDIVISIONS: 10
CURVE: DPHI  0.300000   -0.100000  (0,0,255)      Solid             2     Y
BACKUP: 0.700000   0.300000   (0,0,255)      Solid             2
CURVE: NPOR  0.300000   -0.100000  (0,131,131)    Dot               2     Y
BACKUP: 0.700000   0.300000   (0,131,131)    Dot               2
ENDTRACK:
#
#   TRACK 4
#
STARTTRACK:
LEFTX: 3.500000 inch
RIGHTX: 8.500000 inch
SCALETYPE: Linear
NUMCHARTDIVISIONS: 10
CURVE: RHOB  2.000000   3.000000   (255,0,255)    Solid             2     Y
BACKUP: 1.000000   2.000000   (255,0,255)    Solid             2
BACKUP: 3.000000   4.000000   (255,0,255)    Solid             2
CURVE: PEF   0.000000   20.000000  (255,0,0)      Dot               2     N
ENDTRACK:
#
#   TRACK 5
#
STARTTRACK:
LEFTX: 3.500000 inch
RIGHTX: 8.500000 inch
SCALETYPE: Linear
NUMCHARTDIVISIONS: 10
CURVE: DT    140.000000 40.000000  (255,131,0)    Solid             2     Y
BACKUP: 240.000000 140.000000 (255,131,0)    Solid             2
ENDTRACK:
<DescLogPlotEnd>
~ASCII -----------------------------------------------------
# ...
 12644.80000   -0.69275   -5.80439    -999.25    -999.25    5.21112    8.06573    0.18404    0.19441    2.36715    1.87943    -999.25    -999.25    5.21112
 12644.90000   -0.69417   -5.75965    -999.25    -999.25    5.21115    8.06666    0.18653    0.19446    2.36245    1.89082    -999.25    -999.25    5.21115
 12645.00000   -0.69461   -5.71224    -999.25    -999.25    5.21113    8.06654    0.18902    0.19451    2.35806    1.89546    -999.25    -999.25    5.21113
 12645.10000   -0.69483   -5.66312    -999.25    -999.25    5.21117    8.06519    0.19151    0.19456    2.35478    1.89336    -999.25    -999.25    5.21117
 12645.20000   -0.69321   -5.61946    -999.25    -999.25    5.21115    8.06339    0.19400    0.19462    2.35238    1.88874    -999.25    -999.25    5.21115
 12645.30000   -0.69352   -5.57940    -999.25    -999.25    5.21119    8.06186    0.19649    0.19466    2.34976    1.88496    -999.25    -999.25    5.21119
 12645.40000   -0.69926   -5.52811    -999.25    -999.25    5.21117    8.06058    0.19869    0.19466    2.34681    1.88192    -999.25    -999.25    5.21117
 12645.50000   -0.69544   -5.46783    -999.25    -999.25    5.21120    8.05919    0.19869    0.19404    2.34485    1.87844    -999.25    -999.25    5.21120
 12645.60000   -0.65858   -5.43457    -999.25    -999.25    5.21119    8.05768    0.19909    0.19349    2.34472    1.87458    -999.25    -999.25    5.21119
 12645.70000   -0.59406   -5.45899    -999.25    -999.25    5.21121    8.05623    0.19909    0.19294    2.34532    1.87097    -999.25    -999.25    5.21121
 12645.80000   -0.53501   -5.52591    -999.25    -999.25    5.21121    8.05485    0.19872    0.19239    2.34545    1.86755    -999.25    -999.25    5.21121
 12645.90000   -0.48348   -5.59991    -999.25    -999.25    5.21122    8.05343    0.19841    0.19183    2.34600    1.86400    -999.25    -999.25    5.21122
 12646.00000   -0.38154   -5.67167    -999.25    -999.25    5.21123    8.05198    0.19810    0.19144    2.34883    1.86035    -999.25    -999.25    5.21123
 12646.10000   -0.17289   -5.74671    -999.25    -999.25    5.21124    8.05054    0.19789    0.18983    2.35410    1.85679    -999.25    -999.25    5.21124
 12646.20000    0.12673   -5.80877    -999.25    -999.25    5.21124    8.04912    0.19295    0.18859    2.36023    1.85325    -999.25    -999.25    5.21124
 12646.30000    0.45163   -5.83350    -999.25    -999.25    5.21124    8.04770    0.18922    0.18781    2.36623    1.84964    -999.25    -999.25    5.21124
 12646.40000    0.76222   -5.82774    -999.25    -999.25    5.21124    8.04626    0.18549    0.18865    2.37249    1.84605    -999.25    -999.25    5.21124
 12646.50000    1.06652   -5.82095    -999.25    -999.25    5.21124    8.04483    0.18338    0.18925    2.37946    1.84253    -999.25    -999.25    5.21124
 12646.60000    1.37911   -5.82440    -999.25    -999.25    5.21124    8.04340    0.17734    0.18985    2.38683    1.83917    -999.25    -999.25    5.21124
 12646.70000    1.69422   -5.82689    -999.25    -999.25    5.21124    8.04198    0.17313    0.19046    2.39410    1.83681    -999.25    -999.25    5.21124
 12646.80000    2.00371   -5.82402    -999.25    -999.25    5.21124    8.04055    0.16892    0.19106    2.40116    1.83728    -999.25    -999.25    5.21124
 12646.90000    2.31313   -5.82409    -999.25    -999.25    5.21124    8.03911    0.16471    0.19166    2.40816    1.84191    -999.25    -999.25    5.21124
 12647.00000    2.62820   -5.82727    -999.25    -999.25    5.21124    8.03769    0.16050    0.19227    2.41537    1.84997    -999.25    -999.25    5.21124
 12647.10000    2.94055   -5.82442    -999.25    -999.25    5.21124    8.03628    0.15478    0.19287    2.42284    1.85925    -999.25    -999.25    5.21124
 12647.20000    3.24472   -5.81956    -999.25    -999.25    5.21124    8.03483    0.14592    0.19347    2.42969    1.86816    -999.25    -999.25    5.21124
 12647.30000    3.55555   -5.83509    -999.25    -999.25    5.21124    8.03338    0.14425    0.19426    2.43464    1.87673    -999.25    -999.25    5.21124
 12647.40000    3.88005   -5.88560    -999.25    -999.25    5.21124    8.03199    0.14176    0.19426    2.43766    1.88552    -999.25    -999.25    5.21124
 12647.50000    4.19113   -5.95949    -999.25    -999.25    5.21124    8.03060    0.13867    0.19426    2.44029    1.89449    -999.25    -999.25    5.21124
 12647.60000    4.47846   -6.03360    -999.25    -999.25    5.21124    8.02909    0.13867    0.19466    2.44345    1.90329    -999.25    -999.25    5.21124
 12647.70000    4.79352   -6.09895    -999.25    -999.25    5.21124    8.02761    0.13867    0.19466    2.44583    1.91195    -999.25    -999.25    5.21124
 12647.80000    5.15087   -6.16467    -999.25    -999.25    5.21124    8.02652    0.13867    0.19432    2.44547    1.92080    -999.25    -999.25    5.21124
 12647.90000    5.40371   -6.23809    -999.25    -999.25    5.21124    8.02605    0.13867    0.19391    2.44239    1.92980    -999.25    -999.25    5.21124
 12648.00000    5.34587   -6.31084    -999.25    -999.25    5.21124    8.02594    0.14082    0.19349    2.43839    1.93851    -999.25    -999.25    5.21124
 12648.10000    4.95846   -6.37369    -999.25    -999.25    5.21124    8.02581    0.14329    0.19308    2.43475    1.94704    -999.25    -999.25    5.21124
 12648.20000    4.43999   -6.43811    -999.25    -999.25    5.21124    8.02558    0.14575    0.19265    2.43138    1.95607    -999.25    -999.25    5.21124
 12648.30000    3.96667   -6.51945    -999.25    -999.25    5.21124    8.02536    0.14822    0.19345    2.42781    1.96543    -999.25    -999.25    5.21124
 12648.40000    3.53818   -6.59553    -999.25    -999.25    5.21124    8.02519    0.15068    0.19428    2.42411    1.97326    -999.25    -999.25    5.21124
 12648.50000    3.08696   -6.61265    -999.25    -999.25    5.21124    8.02502    0.15315    0.19511    2.42052    1.97772    -999.25    -999.25    5.21124
 12648.60000    2.61515   -6.54802    -999.25    -999.25    5.21124    8.02482    0.15561    0.19594    2.41700    1.97886    -999.25    -999.25    5.21124
 12648.70000    2.15965   -6.44066    -999.25    -999.25    5.21124    8.02462    0.15808    0.19677    2.41340    1.97780    -999.25    -999.25    5.21124
 12648.80000    1.71213   -6.34146    -999.25    -999.25    5.21124    8.02443    0.16054    0.19760    2.40979    1.97491    -999.25    -999.25    5.21124
 12648.90000    1.24920   -6.25848    -999.25    -999.25    5.21124    8.02425    0.16301    0.19842    2.40623    1.97013    -999.25    -999.25    5.21124
 12649.00000    0.78795   -6.17126    -999.25    -999.25    5.21124    8.02405    0.16547    0.19925    2.40266    1.96433    -999.25    -999.25    5.21124
 12649.10000    0.34643   -6.07487    -999.25    -999.25    5.21124    8.02386    0.16794    0.20008    2.39903    1.95870    -999.25    -999.25    5.21124
 12649.20000   -0.10841   -5.98274    -999.25    -999.25    5.21124    8.02367    0.17040    0.20070    2.39544    1.95333    -999.25    -999.25    5.21124
 12649.30000   -0.59661   -5.89729    -999.25    -999.25    5.21124    8.02348    0.17287    0.19961    2.39196    1.94775    -999.25    -999.25    5.21124
 12649.40000   -1.03057   -5.80599    -999.25    -999.25    5.21124    8.02329    0.17533    0.19873    2.38836    1.94222    -999.25    -999.25    5.21124
 12649.50000   -1.27284   -5.70816    -999.25    -999.25    5.21124    8.02310    0.17791    0.19786    2.38462    1.93702    -999.25    -999.25    5.21124
 12649.60000   -1.30078   -5.61990    -999.25    -999.25    5.21124    8.02290    0.17932    0.19698    2.38142    1.93142    -999.25    -999.25    5.21124
 12649.70000   -1.23729   -5.54051    -999.25    -999.25    5.21124    8.02271    0.17950    0.19610    2.37958    1.92524    -999.25    -999.25    5.21124
 12649.80000   -1.19780   -5.44271    -999.25    -999.25    5.21123    8.02252    0.17929    0.19523    2.37896    1.92071    -999.25    -999.25    5.21123
 12649.90000   -1.18462   -5.32419    -999.25    -999.25    5.21121    8.02233    0.17922    0.19435    2.37875    1.92075    -999.25    -999.25    5.21121
