~Version ---------------------------------------------------
VERS.   2.0 : CWLS log ASCII Standard -VERSION 2.0
WRAP.    NO : One line per depth step
DLM . SPACE : Column Data Section Delimiter
~Well ------------------------------------------------------
STRT.FT       8390.0 : START DEPTH
STOP.FT       9710.0 : STOP DEPTH
STEP.FT          0.5 : STEP
NULL.        -999.25 : NULL VALUE
COMP.  HRM Resources : COMPANY
WELL.  23-12 Hay Dam : WELL
FLD .        Hay Dam : FIELD
LOC . 23N R97W Sec12 : LOCATION
CNTY.     Sweetwater : COUNTY
STAT.             WY : STATE
CTRY.            USA : COUNTRY
SRVC.            SLB : SERVICE COMPANY
DATE.     11/14/2019 : DATE
API .     4903723253 : API NUMBER
UWI .       3723253A : UWI NUMBER
TVD .             NO : TVD flag
WSTA.            LOC : Well status
USGS.           E974 : USGS Number
LATI.DEG     41.97803: LATITUDE
LONG.DEG    -108.3282: LONGITUDE
UTM-N.     4650790.25: Northing
UTM-E.       721356.8: Easting
CORE.             -13: Core/Log Offset
~Curve Information -----------------------------------------
DEPT.FT               : Depth in Feet
GR  .API 35 310 01 01 : Gamma Ray
CALI.IN  70 280 01 01 : Caliper
PEF .BARN             : Photoelectric Effect
NPHI.V/V 42 890 03 01 : Neutron Porosity
DPHI.V/V 45 890 01 01 : Density Porosity
SP  .                 : 
ILD .                 : 
~Params ----------------------------------------------------
~Other -----------------------------------------------------
~ASCII -----------------------------------------------------
# ...
 9155.00000  123.77400    9.19700    3.19200    0.16000    0.01100    7.60100    8.15200
 9155.50000  128.45600    9.21500    3.33500    0.16800    0.02700    7.60000    7.53900
 9156.00000  134.12300    9.23000    3.59200    0.17900    0.05600    7.60100    8.38700
 9156.50000  139.82500    9.23000    3.85000    0.19800    0.09100    7.62300    9.63100
 9157.00000  140.75500    9.22800    3.95300    0.21500    0.11500    7.74400   10.98300
 9157.50000  132.03000    9.18700    3.77800    0.21800    0.12100    7.86400   12.23100
 9158.00000  122.82300    9.14600    3.56200    0.17800    0.07300    7.98300   13.50000
 9158.50000  113.37000    9.10600    3.41100    0.13900    0.04000    8.10200   15.18900
 9159.00000  107.00200    9.06500    3.32300    0.11900    0.01400    8.21100   17.25300
 9159.50000  101.81300    9.04100    3.23700    0.11900    0.00900    8.31400   22.20800
 9160.00000   99.18500    9.02900    3.21300    0.12600    0.00900    8.35400   28.58800
 9160.50000   98.91600    9.04900    3.21200    0.13200    0.00600    8.00400   30.46200
 9161.00000  102.35700    9.07000    3.23200    0.13200    0.00300    7.65900   29.90400
 9161.50000  105.82600    9.08900    3.26200    0.12900    0.00100    7.31500   28.71600
 9162.00000  109.27900    9.09200    3.29300    0.12600    0.00100    6.97200   27.60400
 9162.50000  111.10900    9.09500    3.32600    0.12500    0.00300    6.76200   27.25900
 9163.00000  109.96500    9.09800    3.32900    0.12500    0.00300    6.44700   27.33900
 9163.50000  108.91100    9.10100    3.32100    0.12700    0.00200    6.12900   27.42600
 9164.00000  110.41000    9.10400    3.30600    0.12800    0.00200    5.71700   27.51400
 9164.50000  114.30200    9.10700    3.26100    0.13000    0.00300    5.23000   27.60100
 9165.00000  118.07900    9.11300    3.21600    0.13100    0.00400    4.74400   27.68800
 9165.50000  117.36600    9.12400    3.17000    0.13000    0.00400    4.36100   27.77200
 9166.00000  107.96700    9.13400    3.08900    0.12700    0.00300    4.40200   27.77200
 9166.50000  102.82400    9.14400    3.03000    0.12400    0.00400    5.04600   26.52500
 9167.00000  101.23100    9.15400    3.05300    0.12200    0.00400    5.68700   25.43200
 9167.50000  105.71400    9.16400    3.11400    0.12200    0.00100    6.18700   24.38400
 9168.00000  111.29300    9.17400    3.18300    0.13600   -0.00400    6.58000   23.63200
 9168.50000  116.88500    9.18500    3.25200    0.14600   -0.00700    6.96700   23.35400
 9169.00000  122.50700    9.19500    3.29300    0.15700   -0.00800    7.35400   23.07900
 9169.50000  126.46300    9.20500    3.29400    0.15900   -0.00600    7.74600   22.80800
 9170.00000  127.02600    9.21500    3.31200    0.15500   -0.00300    7.77400   22.65900
 9170.50000  123.67200    9.22500    3.26000    0.14700   -0.00100    7.73800   22.65900
 9171.00000  119.83000    9.23600    3.19600    0.13900   -0.00100    7.70100   22.65900
 9171.50000  116.14900    9.24600    3.21900    0.13900   -0.00200    7.66600   22.65900
 9172.00000  114.85100    9.25200    3.26600    0.14200   -0.00100    7.63000   22.65900
 9172.50000  113.72000    9.25700    3.31100    0.14400    0.00400    7.59700   23.77300
 9173.00000  111.09600    9.26200    3.28200    0.14400    0.00900    7.58100   24.99500
 9173.50000  105.97500    9.26600    3.25000    0.14000    0.01300    7.56500   26.28000
 9174.00000   92.37400    9.27100    3.21800    0.11800    0.01600    7.54800   27.01600
 9174.50000   81.74400    9.27600    3.18600    0.10100    0.01500    7.53100   27.41900
 9175.00000   75.71200    9.28000    3.15400    0.09200    0.01000    7.51500   27.82800
 9175.50000   73.79700    9.28500    3.13000    0.09000    0.00400    7.49800   28.03000
 9176.00000   78.28600    9.29000    3.15400    0.10000    0.00000    7.48100   26.94800
 9176.50000   92.76900    9.29400    3.17300    0.11700   -0.00400    7.46500   25.79500
 9177.00000  108.20700    9.29900    3.19600    0.13500   -0.00300    7.44800   24.41500
 9177.50000  121.18900    9.30300    3.21900    0.15300    0.00100    7.43100   23.07700
 9178.00000  125.81100    9.30800    3.24100    0.15600    0.00400    7.41300   21.81100
 9178.50000  124.40300    9.31300    3.26400    0.15600    0.00600    7.40600   20.46200
 9179.00000  122.99500    9.31700    3.28700    0.15500    0.00600    7.56300   20.46000
 9179.50000  121.63400    9.32200    3.29300    0.15500    0.00600    7.72000   20.83100
 9180.00000  117.63300    9.32700    3.27800    0.15400    0.00600    7.87500   21.17900
 9180.50000  110.00700    9.32800    3.24900    0.14700    0.00800    7.98900   21.53300
 9181.00000  100.75800    9.32100    3.22100    0.13900    0.01200    7.85500   21.89300
 9181.50000   93.76800    9.31300    3.19200    0.13100    0.01500    7.72500   22.03900
 9182.00000   89.89000    9.30600    3.16300    0.12200    0.01700    7.60300   22.04000
 9182.50000   89.15800    9.29800    3.13500    0.11800    0.01700    7.60000   22.04100
 9183.00000   93.30300    9.29100    3.10600    0.11700    0.01500    7.60100   21.93000
 9183.50000  101.67500    9.28400    3.08100    0.13000    0.01100    7.60100   21.76300
 9184.00000  110.11400    9.27600    3.05900    0.14200    0.00500    7.60100   21.59800
 9184.50000  113.75100    9.27000    3.03800    0.15300    0.00100    7.60100   21.43500
 9185.00000  109.35900    9.26800    3.01700    0.15300   -0.00000    7.60100   21.27400
 9185.50000  103.14800    9.26600    2.95200    0.14200    0.00000    7.57900   21.23900
 9186.00000   99.41800    9.26500    2.87600    0.13200    0.00200    7.45500   21.23900
 9186.50000   95.90700    9.26300    2.85100    0.12600    0.00100    7.33300   21.33100
 9187.00000   93.72100    9.26200    2.90200    0.12500   -0.00100    7.21100   21.81900
 9187.50000   91.48900    9.26000    3.01400    0.12400   -0.00100    7.24700   23.48700
 9188.00000   89.88200    9.25900    3.11800    0.12200    0.00200    7.30500   23.29300
 9188.50000   88.75800    9.25700    3.13400    0.11800    0.00500    7.36200   23.04700
 9189.00000   88.99800    9.25600    3.13900    0.11500    0.00800    7.40000   22.80600
 9189.50000   91.16900    9.25400    3.14400    0.11800    0.00900    7.39900   22.65900
 9190.00000   98.09200    9.25300    3.14800    0.12900    0.00900    7.39900   22.76700
 9190.50000  105.41100    9.25100    3.12000    0.14100    0.00900    7.40000   22.87000
 9191.00000  112.57000    9.25000    3.07200    0.15000    0.01100    7.39400   22.65900
 9191.50000  117.59800    9.25700    3.02500    0.15000    0.01400    7.27300   22.29900
 9192.00000  115.95800    9.26300    2.99000    0.14300    0.01700    7.15300   21.89200
 9192.50000  107.91100    9.27000    2.99100    0.13600    0.01800    7.03400   21.49300
 9193.00000  102.30500    9.27700    3.03400    0.13100    0.01500    6.91400   21.23900
 9193.50000  102.95500    9.28400    3.11000    0.13500    0.01100    6.79800   21.23900
 9194.00000  106.55700    9.28800    3.11200    0.14100    0.01200    6.81500   21.35300
 9194.50000  107.78100    9.27800    3.09100    0.14600    0.01700    6.83800   21.49500
 9195.00000  103.18200    9.26800    2.98500    0.14000    0.01900    6.86000   21.63800
 9195.50000   97.26500    9.25800    2.89100    0.13400    0.01800    6.88200   22.20600
 9196.00000   87.39100    9.24800    2.97700    0.12600    0.01600    6.90400   22.76400
 9196.50000   77.39700    9.23800    3.17800    0.11400    0.01200    6.92600   23.33300
 9197.00000   71.22900    9.22800    3.38300    0.10200    0.00600    6.94800   23.91700
 9197.50000   72.21400    9.22100    3.51700    0.08900   -0.00100    6.97000   24.17500
 9198.00000   79.30700    9.21400    3.51100    0.08300   -0.00600    6.99500   24.17500
 9198.50000   91.27700    9.20600    3.39500    0.09300   -0.00500    6.89200   23.85800
 9199.00000  103.25900    9.19900    3.27300    0.10700   -0.00300    6.76300   23.35000
 9199.50000  113.42500    9.19100    3.19000    0.14000   -0.00500    6.63100   22.49200
