~Version Information Block
 VERS.                2.00:     CWLS LOG ASCII STANDARD - VERSION 2.000000
 WRAP.                  NO:     One Line Per Depth Step
#
~Well Information Block
#MNEM.UNIT                     Data                         Information
#----------   ------------------------------------------   ----------------
 STRT.FT                                     8200.0000:     START DEPTH
 STOP.FT                                     9700.0000:     STOP DEPTH
 STEP.FT                                        0.1000:     STEP
 NULL.                                       -999.2500:     NULL VALUE
 COMP.                        PRESIDIO EXPLORATION INC:     COMPANY
 WELL.                                   HAY DAM 34-12:     WELL
 FLD .                                          HAYDAM:     FIELD
 LOC .                                   SEC12-23N-97W:     LOCATION
 CNTY.                                      SWEETWATER:     COUNTY
 STAT.                                         WYOMING:     STATE
 CTRY.                                             USA:     COUNTRY
 SRVC.                                    SCHLUMBERGER:     SERVICE COMPANY
 DATE.                                      26/07/1994:     DATE
 API .                                      4903723385:     API NUMBER
 UWI .                                         3723385:     UWI NUMBER
 TVD .                                              NO:     TVD flag
 WSTA.                                             LOC:     Well status
 USGS.                                            F041:     USGS Number
 LATI.DEG                                     41.97739:     LATITUDE
 LONG.DEG                                   -108.32133:     LONGITUDE
 UTM-N.                                        4650736:     Northing
 UTM-E.                                      721928.25:     Easting
 CORE.                                              -5:     Core/Log Offset
#
~Curve Information Block
#MNEM.UNIT       API CODE      Curve Description
#----------    -------------   -------------------
 DEPT.FT                   :   Depth in Feet
 ILD .OHMM     05 120 46 01:   Deep Induction Standard Processed Resistivity
 SP  .MV       01 010 01 01:   Spontaneous Potential
 RHOB.G/C3     42 350 01 01:   Bulk Density
 PEF .b/e                  :   Photo-Electric Factor
 GR  .GAPI     35 310 01 01:   Gamma Ray
 CALI.IN       70 280 01 01:   Caliper
 DPHI.V/V      45 890 01 01:   Density Porosity
 NPHI.V/V      42 890 03 01:   Neutron Porosity
 DTCO.US/F                 :   Delta-T Compressional
#
~Parameter Information Block
#MNEM.UNIT            Value               Description
#----------    --------------------    -------------------
 DATE.                  26-07-1994:    Date As Month-Day-Year
 RUN .                         ONE:    Run Number
 PDAT.                         UNK:    Permanent Datum
 EPD .FT                 6611.0000:    Elevation Of Perm. Datum
 LMF .                          KB:    Log Measured From
 FAPD.FT                   15.0000:    Feet Above Perm. Datum
 DMF .                          KB:    Drilling Measured From
 EKB .FT                 6627.0000:    Elevation Of Kelly Bushing
 EDF .FT                 6626.0000:    Elevation Of Derrick Floor
 EGL .FT                 6611.0000:    Elevation Of Ground Level
 TD  .FT                 9700.0000:    Total Depth
 DD  .FT                 9735.0000:    Depth Driller
 DL  .FT                 9729.0000:    Depth Logger
 BLI .FT                 9719.0000:    Bottom Log Interval
 TLI .FT                 1716.0000:    Top Log Interval
 CSIZ.IN                  9.625 IN:    Casing Size
 CBD1.                        1715:    Casing Bottom (Driller) 1
 CBL1.                        1716:    Casing Bottom (Logger) 1
 BS  .IN                   7.675IN:    Bit Size
 DFT .                    GEL-CHEM:    Drilling Fluid Type
 DFV .S                    45.0000:    Drilling Fluid Viscosity
 DFD .LB/G                 10.1000:    Drilling Fluid Density
 DFL .ML                    8.0000:    Drilling Fluid Loss
 DFPH.                     10.0000:    Drilling Fluid Ph
 MSS .                     MUDTANK:    Mud Sample Source
 RMS .OHMM                  1.4400:    Resistivity Of Mud Sample
 MST .DEGF                 85.0000:    Mud Sample Temperature
 RMF .OHMM                  1.1700:    Mud Filtrate Resistivity
 MFST.DEGF                 80.0000:    Mud Filtrate Sample Temperature
 RMC .OHMM                  1.3300:    Mud Cake Resistivity
 MCST.DEGF                 80.0000:    Mud Cake Sample Temperature
 RMB .OHMM                  0.7480:    Mud Resistivity At Bht
 BHT .DEGF                170.0000:    Bottom Hole Temperature
 MRT .DEGF                170.0000:    Maximum Recorded Temperature
 LUN .                        8415:    Logging Unit Number
 LUL .                      CASPER:    Logging Unit Location
 ENGI.                 CHRISTENSEN:    Engineer'S Name
 WITN.                       LYNON:    Witness' Name
 DGBY.                         R2V:    
 WSTA.                         LOC:    
#
~Other Information Block
<DescLogPlotStart>   NEURALOG PLOT DEFINITION
PLOTDEFVERSION: 3
LASFILE: C:\nds\projects\mf-nov-13\las\3723385A.las
DEPTHSCALE: 240.000000
RESOLUTION: 200
DEPTHLABELFREQ: 100.000000
HEAVYGRIDFREQ: 100.000000
MEDIUMGRIDFREQ: 50.000000
LIGHTGRIDFREQ: 10.000000
#
#   TRACK 1
#
STARTTRACK: 
 LEFTX: 0.500000 inch
 RIGHTX: 3.000000 inch
 SCALETYPE: Log
 NUMCYCLES: 4
 STARTCYCLE: 2
CURVE: ILD   0.200000   2000.000000 (0,0,255)      Solid             2     N   
ENDTRACK: 
#
#   TRACK 2
#
STARTTRACK: 
 LEFTX: 3.500000 inch
 RIGHTX: 6.000000 inch
 SCALETYPE: Linear
 NUMCHARTDIVISIONS: 10
CURVE: SP    -80.000000 20.000000  (0,131,131)    Solid             2     Y    
BACKUP: 20.000000  120.000000 (0,131,131)    Solid             2    
BACKUP: -180.000000 -80.000000 (0,131,131)    Solid             2    
ENDTRACK: 
#
#   TRACK 3
#
STARTTRACK: 
 LEFTX: 6.000000 inch
 RIGHTX: 11.000000 inch
 SCALETYPE: Linear
 NUMCHARTDIVISIONS: 10
CURVE: RHOB  2.000000   3.000000   (255,0,255)    Solid             2     Y    
BACKUP: 1.000000   2.000000   (255,0,255)    Solid             2    
CURVE: PEF   0.000000   10.000000  (255,0,0)      Dot               2     N    
ENDTRACK: 
#
#   TRACK 4
#
STARTTRACK: 
 LEFTX: 11.000000 inch
 RIGHTX: 13.500000 inch
 SCALETYPE: Linear
 NUMCHARTDIVISIONS: 10
CURVE: GR    0.000000   150.000000 (255,131,0)    Solid             2     Y    
BACKUP: 150.000000 300.000000 (255,131,0)    Solid             2    
CURVE: CALI  6.000000   16.000000  (255,255,0)    Dot               2     Y    
BACKUP: 16.000000  26.000000  (255,255,0)    Dot               2    
ENDTRACK: 
#
#   TRACK 5
#
STARTTRACK: 
 LEFTX: 13.500000 inch
 RIGHTX: 18.500000 inch
 SCALETYPE: Linear
 NUMCHARTDIVISIONS: 10
CURVE: DPHI  0.300000   -0.100000  (0,0,255)      Solid             2     N    
CURVE: NPHI  0.300000   -0.100000  (0,131,131)    Dot               2     Y    
BACKUP: 0.700000   0.300000   (0,131,131)    Dot               2    
ENDTRACK: 
#
#   TRACK 6
#
STARTTRACK: 
 LEFTX: 13.500000 inch
 RIGHTX: 18.500000 inch
 SCALETYPE: Linear
 NUMCHARTDIVISIONS: 10
CURVE: DTCO  240.000000 40.000000  (255,0,255)    Solid             2     N    
ENDTRACK: 
<DescLogPlotEnd>
~A DEPTH     ILD              SP               RHOB             PEF              GR               CALI             DPHI             NPHI             DTCO            
# ...
    8797.800 13.49527993      -17.76173076     2.67873944       3.32598183       145.40809697     8.80479940       -0.01789327      0.15260826       -999.25000000   
    8797.900 13.22440332      -17.73604596     2.67859292       3.32461434       145.73699853     8.80556216       -0.01801177      0.15236657       -999.25000000   
    8798.000 12.95896373      -17.70453483     2.67809604       3.31647653       146.02294315     8.80632493       -0.01800827      0.15236657       -999.25000000   
    8798.100 12.69885204      -17.68344576     2.67724565       3.30167778       146.30532502     8.80708815       -0.01736623      0.15486405       -999.25000000   
    8798.200 12.44679226      -17.69109230     2.67627747       3.28460752       146.62588811     8.80785234       -0.01687412      0.15655589       -999.25000000   
    8798.300 12.18704222      -17.72260380     2.67536752       3.26835670       146.95587756     8.80861622       -0.01640886      0.15824773       -999.25000000   
    8798.400 11.95361873      -17.75635538     2.67447541       3.25249775       147.15508072     8.80937827       -0.01594361      0.16042296       -999.25000000   
    8798.500 11.70099101      -17.78389144     2.67353833       3.23630559       147.06900125     8.81014136       -0.01547835      0.16263564       -999.25000000   
    8798.600 11.43482105      -17.81461613     2.67262128       3.22030551       146.71468687     8.81090843       -0.01501309      0.16573338       -999.25000000   
    8798.700 11.33207950      -17.84977289     2.67174998       3.20421495       146.28126002     8.81167291       -0.01454783      0.16883113       -999.25000000   
    8798.800 11.23544481      -17.87257416     2.67081002       3.18735556       145.91077142     8.81242954       -0.01408258      0.17192887       -999.25000000   
    8798.900 11.11515692      -17.87106896     2.66980823       3.17219424       145.58055520     8.81319198       -0.01359517      0.17502662       -999.25000000   
    8799.000 11.01805625      -17.85452101     2.66903893       3.16374817       145.22306736     8.81396847       -0.01341614      0.17812437       -999.25000000   
    8799.100 10.90318766      -17.83879016     2.66878145       3.16380792       144.84528875     8.81473256       -0.01322815      0.18122211       -999.25000000   
    8799.200 10.81440853      -17.82751805     2.66900865       3.16859047       144.48534774     8.81547241       -0.01304017      0.18431986       -999.25000000   
    8799.300 10.80993228      -17.81546104     2.66952080       3.17377469       144.14030405     8.81624036       -0.01285219      0.18741761       -999.25000000   
    8799.400 10.81318139      -17.80106982     2.67007730       3.17952804       143.78240597     8.81705320       -0.01266420      0.19051535       -999.25000000   
    8799.500 10.76017411      -17.78737223     2.67025955       3.18834294       143.40810547     8.81776244       -0.01247622      0.19361310       -999.25000000   
    8799.600 10.71782757      -17.77523025     2.66959698       3.19962698       143.06821120     8.81816137       -0.01228824      0.19671084       -999.25000000   
    8799.700 10.67522790      -17.76249241     2.66807404       3.20997397       142.86436300     8.81823633       -0.01210026      0.19980859       -999.25000000   
    8799.800 10.63199874      -17.74850106     2.66620727       3.21880108       142.84889868     8.81818528       -0.01198389      0.20290634       -999.25000000   
    8799.900 10.59031221      -17.73519622     2.66444498       3.22943306       142.90443211     8.81817357       -0.01038900      0.20600408       -999.25000000   
    8800.000 10.54718929      -17.72339808     2.66278364       3.24242185       142.86179225     8.81819735       -0.00923407      0.20910183       -999.25000000   
    8800.100 10.50579848      -17.71041407     2.66106556       3.25171827       142.78457289     8.81819927       -0.00807915      0.21219957       -999.25000000   
    8800.200 10.46329973      -17.69424193     2.65930244       3.25135810       142.96465386     8.81818487       -0.00692423      0.21529732       -999.25000000   
    8800.300 10.42159489      -17.67997940     2.65756955       3.24318899       143.59986700     8.81818347       -0.00576931      0.21923464       -999.25000000   
    8800.400 10.37996760      -17.67576855     2.65585472       3.23382783       144.65811636     8.81819010       -0.00461439      0.21972838       -999.25000000   
    8800.500 10.33798987      -17.67948891     2.65412993       3.22635807       146.00427154     8.81818926       -0.00345947      0.22040570       -999.25000000   
    8800.600 10.29736838      -17.67948219     2.65240177       3.21919394       147.38292589     8.81818465       -0.00230455      0.22108301       -999.25000000   
    8800.700 10.25502611      -17.67460065     2.65066260       3.21107750       148.37147614     8.81818393       -0.00114963      0.22176032       -999.25000000   
    8800.800 10.21539963      -17.67802284     2.64891570       3.20278353       148.72537621     8.81818481       0.00000530       0.22243763       -999.25000000   
    8800.900 10.17260448      -17.68740280     2.64720372       3.19493458       148.72580265     8.81818386       0.00116022       0.22311495       -999.25000000   
    8801.000 10.13386082      -17.66830967     2.64550727       3.18732148       148.85760618     8.81818236       0.00231514       0.22366566       -999.25000000   
    8801.100 10.09105842      -17.58921031     2.64373240       3.17953232       149.23238050     8.81818182       0.00347006       0.22366566       -999.25000000   
    8801.200 10.04256178      -17.46144059     2.64193961       3.17128846       149.62724465     8.81818182       0.00462498       0.22282226       -999.25000000   
    8801.300 10.04230040      -17.32318860     2.64043106       3.16410516       149.93522032     8.81818182       0.00533736       0.22214879       -999.25000000   
    8801.400 10.06378536      -17.19425812     2.63940099       3.16183667       150.24695321     8.81818182       0.00623162       0.22147533       -999.25000000   
    8801.500 10.09195045      -17.06771542     2.63863474       3.16617682       150.60554365     8.81818182       0.00687815       0.22080186       -999.25000000   
    8801.600 10.12019436      -16.93633095     2.63780127       3.17339457       150.95971569     8.81818182       0.00775428       0.22012840       -999.25000000   
    8801.700 10.14851732      -16.80410004     2.63693407       3.17996031       151.29168883     8.81818182       0.00787340       0.21945493       -999.25000000   
    8801.800 10.17691954      -16.67456928     2.63634914       3.18888466       151.62411310     8.81818182       0.00805812       0.21878147       -999.25000000   
    8801.900 10.20540125      -16.54532130     2.63615797       3.20503286       151.96230195     8.81818182       0.00824284       0.21810801       -999.25000000   
    8802.000 10.23396268      -16.41461626     2.63614196       3.22677380       152.30703335     8.81818182       0.00842756       0.21743454       -999.25000000   
    8802.100 10.26260403      -16.28383170     2.63608693       3.24814369       152.65696779     8.81818182       0.00861229       0.21676108       -999.25000000   
    8802.200 10.29132555      -16.15375631     2.63598833       3.26707522       152.97009774     8.81818182       0.00879701       0.21608761       -999.25000000   
    8802.300 10.32012744      -16.02368518     2.63590924       3.28601506       153.18643888     8.81818182       0.00896274       0.21541415       -999.25000000   
    8802.400 10.34900994      -15.89330164     2.63584659       3.30627828       153.30254271     8.81818182       0.00885711       0.21474068       -999.25000000   
    8802.500 10.37797328      -15.76294160     2.63578044       3.32655182       153.37558226     8.81818182       0.00876133       0.21406722       -999.25000000   
    8802.600 10.40701767      -15.63274854     2.63571173       3.34594792       153.45176946     8.81818182       0.00866555       0.21359517       -999.25000000   
