~Version Information Block
 VERS.                2.00:     CWLS LOG ASCII STANDARD - VERSION 2.000000
 WRAP.                  NO:     One Line Per Depth Step
#
~Well Information Block
#MNEM.UNIT                     Data                         Information
#----------   ------------------------------------------   ----------------
 STRT.FT                                     9000.0000:     START DEPTH
 STOP.FT                                    10600.0000:     STOP DEPTH
 STEP.FT                                        0.1000:     STEP
 NULL.                                       -999.2500:     NULL VALUE
 COMP.                            PRESIDIO OIL COMPANY:     COMPANY
 WELL.                          HAY RESERVIOR UNIT #58:     WELL
 FLD .                              HAY RESERVIOR UNIT:     FIELD
 LOC .                               1500' FSL 10' FWL:     LOCATION
 CNTY.                                      SWEETWATER:     COUNTY
 STAT.                                         WYOMING:     STATE
 CTRY.                                             USA:     COUNTRY
 SRVC.                                    SCHLUMBERGER:     SERVICE COMPANY
 DATE.                                      22/02/1994:     DATE
 API .                                      4903723301:     API NUMBER
 UWI .                                         3723301:     UWI NUMBER
 TVD .                                              NO:     TVD flag
 WSTA.                                             LOC:     Well status
 USGS.                                            E945:     USGS Number
 LATI.DEG                                     42.05082:     LATITUDE
 LONG.DEG                                   -108.37861:     LONGITUDE
 UTM-N.                                     4658743.82:     Northing
 UTM-E.                                      716932.37:     Easting
 CORE.FT                                          -9.2:     Core/Log Offset
#
~Curve Information Block
#MNEM.UNIT       API CODE      Curve Description
#----------    -------------   -------------------
 DEPT.FT                   :   Depth in Feet
 ILD .OHMM     05 120 46 01:   Deep Induction Standard Processed Resistivity
 SP  .MV       01 010 01 01:   Spontaneous Potential
 DPHI.DEC      42 890 03 01:   DPHI
 NPHI.DEC      42 890 03 01:   Neutron Porosity
 CALI.IN       70 280 01 01:   Caliper
 GR  .GAPI     35 310 01 01:   Gamma Ray
 RHOB.G/C3     42 350 01 01:   Bulk Density
 PEF .B/E                  :   Photo-Electric Factor
 DT4P.US/F                 :   
#
~Parameter Information Block
#MNEM.UNIT            Value               Description
#----------    --------------------    -------------------
 DATE.                  22-02-1994:    Date As Month-Day-Year
 RUN .                         ONE:    Run Number
 PDAT.                         UNK:    Permanent Datum
 EPD .FT                 6799.0000:    Elevation Of Perm. Datum
 LMF .                          KB:    Log Measured From
 FAPD.FT                   14.0000:    Feet Above Perm. Datum
 DMF .                          KB:    Drilling Measured From
 EKB .FT                 6813.0000:    Elevation Of Kelly Bushing
 EDF .FT                 6812.0000:    Elevation Of Derrick Floor
 EGL .FT                 6799.0000:    Elevation Of Ground Level
 TD  .FT                10600.0000:    Total Depth
 DD  .FT                10625.0000:    Depth Driller
 DL  .FT                10623.0000:    Depth Logger
 BLI .FT                 1061.0000:    Bottom Log Interval
 CSIZ.IN                     9.625:    Casing Size
 CBD1.                        1702:    Casing Bottom (Driller) 1
 CBL1.                        1700:    Casing Bottom (Logger) 1
 BS  .IN                     7.875:    Bit Size
 DFV .S                    45.0000:    Drilling Fluid Viscosity
 DFD .LB/G                 10.5000:    Drilling Fluid Density
 DFL .ML                    7.2000:    Drilling Fluid Loss
 DFPH.                      9.5000:    Drilling Fluid Ph
 MSS .                    MUD TANK:    Mud Sample Source
 RMS .OHMM                  4.6200:    Resistivity Of Mud Sample
 MST .DEGF                 50.0000:    Mud Sample Temperature
 RMF .OHMM                  3.0700:    Mud Filtrate Resistivity
 MFST.DEGF                 50.0000:    Mud Filtrate Sample Temperature
 RMC .OHMM                  7.1400:    Mud Cake Resistivity
 MCST.DEGF                 50.0000:    Mud Cake Sample Temperature
 RMB .OHMM                  1.0990:    Mud Resistivity At Bht
 BHT .DEGF                212.0000:    Bottom Hole Temperature
 MRT .DEGF                212.0000:    Maximum Recorded Temperature
 LUN .                        8415:    Logging Unit Number
 LUL .                      CASPER:    Logging Unit Location
 ENGI.               CHRIS PRESMYK:    Engineer'S Name
 WITN.                STEVE HEFNER:    Witness' Name
 DGBY.                         R2V:    
 WSTA.                         LOC:    
#
~Other Information Block
<DescLogPlotStart>   NEURALOG PLOT DEFINITION
PLOTDEFVERSION: 3
LASFILE: C:\nds\projects\mf-nov-13\las\3723301A.las
DEPTHSCALE: 240.000000
RESOLUTION: 200
DEPTHLABELFREQ: 100.000000
HEAVYGRIDFREQ: 100.000000
MEDIUMGRIDFREQ: 50.000000
LIGHTGRIDFREQ: 10.000000
#
#   TRACK 1
#
STARTTRACK: 
 LEFTX: 0.500000 inch
 RIGHTX: 3.000000 inch
 SCALETYPE: Log
 NUMCYCLES: 4
 STARTCYCLE: 2
CURVE: ILD   0.200000   2000.000000 (0,0,255)      Solid             2     N   
ENDTRACK: 
#
#   TRACK 2
#
STARTTRACK: 
 LEFTX: 3.500000 inch
 RIGHTX: 6.000000 inch
 SCALETYPE: Linear
 NUMCHARTDIVISIONS: 10
CURVE: SP    -80.000000 20.000000  (0,131,131)    Solid             2     Y    
BACKUP: -180.000000 -80.000000 (0,131,131)    Solid             2    
ENDTRACK: 
#
#   TRACK 3
#
STARTTRACK: 
 LEFTX: 6.000000 inch
 RIGHTX: 11.000000 inch
 SCALETYPE: Linear
 NUMCHARTDIVISIONS: 10
CURVE: DPHI  0.300000   -0.100000  (255,0,255)    Solid             2     N    
CURVE: NPHI  0.300000   -0.100000  (255,0,0)      Dot               2     Y    
BACKUP: 0.700000   0.300000   (255,0,0)      Dot               2    
ENDTRACK: 
#
#   TRACK 4
#
STARTTRACK: 
 LEFTX: 11.000000 inch
 RIGHTX: 13.500000 inch
 SCALETYPE: Linear
 NUMCHARTDIVISIONS: 10
CURVE: CALI  6.000000   16.000000  (255,131,0)    Solid             2     N    
CURVE: GR    0.000000   150.000000 (255,255,0)    Dot               2     Y    
BACKUP: 150.000000 300.000000 (255,255,0)    Dot               2    
ENDTRACK: 
#
#   TRACK 5
#
STARTTRACK: 
 LEFTX: 13.500000 inch
 RIGHTX: 18.500000 inch
 SCALETYPE: Linear
 NUMCHARTDIVISIONS: 10
CURVE: RHOB  2.000000   3.000000   (0,0,255)      Solid             2     Y    
BACKUP: 1.000000   2.000000   (0,0,255)      Solid             2    
CURVE: PEF   0.000000   10.000000  (0,131,131)    Dot               2     N    
ENDTRACK: 
#
#   TRACK 6
#
STARTTRACK: 
 LEFTX: 13.500000 inch
 RIGHTX: 18.500000 inch
 SCALETYPE: Linear
 NUMCHARTDIVISIONS: 10
CURVE: DT4P  240.000000 40.000000  (255,0,255)    Solid             2     N    
ENDTRACK: 
<DescLogPlotEnd>
~A DEPTH     ILD              SP               DPHI             NPHI             CALI             GR               RHOB             PEF              DT4P            
    9000.000 20.85156459      -101.67338710    0.14854564       0.30140421       8.75201613       119.00201613     2.31470292       3.26787513       -999.25000000   
    9000.100 20.85156459      -101.67338710    0.14854564       0.30140421       8.75201613       119.00201613     2.31470292       3.26787513       -999.25000000   
    9000.200 20.17460094      -101.69153226    0.14854564       0.30140421       8.75201613       119.00201613     2.29059416       3.26787513       -999.25000000   
    9000.300 19.73111595      -101.70388105    0.18056169       0.30140421       8.77620968       116.66906682     2.27435765       3.26787513       -999.25000000   
    9000.400 19.29737979      -101.71622984    0.20190572       0.30140421       8.79233871       115.11376728     2.25812113       3.26787513       -999.25000000   
    9000.500 18.87317817      -101.72857863    0.22324975       0.32547643       8.80846774       113.55846774     2.24188462       3.16455186       -999.25000000   
    9000.600 18.45830149      -101.74092742    0.25526580       0.34954865       8.82459677       112.00316820     2.22564811       3.09351712       -999.25000000   
    9000.700 18.05254478      -101.75327621    0.25526580       0.34954865       8.84072581       110.44786866     2.20941160       3.02248238       -999.25000000   
    9000.800 17.65570755      -101.76562500    0.26080241       0.34851698       8.85685484       108.11491935     2.19989930       2.95144763       -999.25000000   
    9000.900 17.26759373      -101.77797379    0.26449348       0.34782920       8.87298387       107.51008065     2.20342397       2.88041289       -999.25000000   
    9001.000 16.88801156      -101.79032258    0.26818455       0.34714142       8.88911290       106.30040323     2.20493454       2.80937815       -999.25000000   
    9001.100 16.51677350      -101.80267137    0.27372116       0.34645365       8.90524194       105.24193548     2.23193497       2.73834340       -999.25000000   
    9001.200 16.15369612      -101.81502016    0.27372116       0.34576587       8.92137097       104.48588710     2.25130485       2.69385700       -999.25000000   
    9001.300 15.79860003      -101.82736895    0.25058509       0.34473420       8.93750000       103.88104839     2.27067472       2.68407423       -999.25000000   
    9001.400 15.92452153      -101.99993863    0.25449602       0.34766949       8.95136744       104.02234224     2.27562406       2.68532887       -999.25000000   
    9001.500 15.45130978      -101.83751043    0.23516104       0.34473420       8.95357408       103.41633581     2.28922795       2.67392779       -999.25000000   
    9001.600 15.11165379      -101.85501651    0.21973699       0.29899699       8.97340879       103.13468040     2.31124806       2.67173403       -999.25000000   
    9001.700 14.77946424      -101.87120255    0.20431294       0.29899699       8.98966853       102.96484524     2.32598565       2.66540394       -999.25000000   
    9001.800 14.45457698      -101.86369654    0.18888889       0.28649281       8.99585632       102.95663022     2.34487822       2.65016537       -999.25000000   
    9001.900 14.13683151      -101.82193077    0.17346484       0.27815669       8.99376883       103.08677466     2.38678963       2.63948457       -999.25000000   
    9002.000 13.82607084      -101.76124247    0.15804079       0.26982057       8.99068847       103.29796809     2.42776878       2.66079346       -999.25000000   
    9002.100 13.52214140      -101.70315481    0.13490471       0.26148445       8.99011247       103.56789846     2.46055840       2.72362766       -999.25000000   
    9002.200 13.22489305      -101.65206302    0.13490471       0.25314833       8.99007987       103.85002697     2.49808310       2.80601900       -999.25000000   
    9002.300 12.93417892      -101.60013839    0.09578736       0.24481221       8.98880796       104.05875482     2.53436242       2.88323768       -999.25000000   
    9002.400 12.64985536      -101.54467037    0.05667001       0.23647609       8.98724710       104.15579896     2.55964524       2.95238560       -999.25000000   
    9002.500 12.37178190      -101.48965562    0.05667001       0.22397192       8.98636253       104.18386690     2.56791469       3.01862099       -999.25000000   
    9002.600 12.09982115      -101.43642507    0.05275827       0.22397192       8.98563071       104.19513843     2.57136697       3.07583219       -999.25000000   
    9002.700 11.83383873      -101.38290217    0.05015045       0.22719334       8.98453583       104.16438595     2.57766418       3.11599805       -999.25000000   
    9002.800 11.63101246      -101.32861920    0.04623872       0.22934096       8.98336926       104.02301817     2.58225684       3.14431929       -999.25000000   
    9002.900 11.48099379      -101.27458983    0.04623872       0.23148858       8.98239026       103.74956387     2.58734213       3.17216336       -999.25000000   
    9003.000 11.35759263      -101.22045715    0.04195605       0.23363620       8.98143560       103.40879367     2.59253345       3.20342969       -999.25000000   
    9003.100 11.23889553      -101.16598410    0.03743649       0.23578382       8.98037365       103.09814194     2.59667674       3.23506214       -999.25000000   
    9003.200 11.11929633      -101.11253255    0.03377826       0.23793144       8.97931258       102.85469450     2.59652820       3.26381673       -999.25000000   
    9003.300 11.00245529      -101.05965501    0.03284946       0.24007906       8.97835379       102.65063454     2.59640358       3.28747262       -999.25000000   
    9003.400 10.88583596      -101.00455599    0.03392741       0.24222668       8.97736616       102.47856517     2.59627895       3.30486941       -999.25000000   
    9003.500 10.77101593      -100.94843146    0.03364573       0.24437430       8.97625785       102.38065514     2.59615433       3.31764038       -999.25000000   
    9003.600 10.65719128      -100.89660399    0.03425197       0.24652192       8.97514892       102.38381087     2.59602971       3.32844112       -999.25000000   
    9003.700 10.54460002      -100.84674679    0.03425838       0.24866954       8.97421199       102.48230460     2.59590509       3.33730371       -999.25000000   
    9003.800 10.43312441      -100.78840571    0.03462768       0.25081716       8.97335731       102.71447088     2.59578046       3.34309090       -999.25000000   
    9003.900 10.32322561      -100.72412539    0.03495714       0.25296478       8.97233319       103.19332248     2.59565584       3.34845029       -999.25000000   
    9004.000 10.21345447      -100.67920644    0.03498775       0.25511240       8.97111487       104.00974888     2.59553122       3.35708059       -999.25000000   
    9004.100 10.10680850      -100.67529729    0.03490618       0.25726002       8.96992195       105.08423300     2.59540660       3.36557432       -999.25000000   
    9004.200 9.99814671       -100.70279698    0.03482661       0.26048144       8.96886275       106.15074336     2.59528197       3.36411019       -999.25000000   
    9004.300 9.89510325       -100.73428197    0.03481162       0.26048144       8.96782498       106.95874218     2.59515735       3.34791259       -999.25000000   
    9004.400 9.78724160       -100.75728308    0.03470734       0.25702106       8.96672044       107.56367943     2.59503273       3.32321313       -999.25000000   
    9004.500 9.68759958       -100.77874137    0.03470339       0.25471414       8.96560215       108.33836451     2.59490811       3.29901014       -999.25000000   
    9004.600 9.58427990       -100.80449672    0.03460381       0.25240722       8.96452055       109.56976301     2.59493877       3.27761587       -999.25000000   
    9004.700 9.48607019       -100.83106512    0.03460381       0.25010030       8.96344566       111.11485226     2.59441680       3.25637159       -999.25000000   
    9004.800 9.48046839       -100.85528933    0.03563548       0.24779338       8.96235112       112.57467645     2.59303404       3.23378180       -999.25000000   
