~Version Information Block
 VERS.                2.00:     CWLS LOG ASCII STANDARD - VERSION 2.000000
 WRAP.                  NO:     One Line Per Depth Step
#
~Well Information Block
#MNEM.UNIT                     Data                         Information
#----------   ------------------------------------------   ----------------
 STRT.FT                                     8200.0000:     START DEPTH
 STOP.FT                                     9700.0000:     STOP DEPTH
 STEP.FT                                        0.1000:     STEP
 NULL.                                       -999.2500:     NULL VALUE
 COMP.                        PRESIDIO EXPLORATION INC:     COMPANY
 WELL.                                   HAY DAM 34-12:     WELL
 FLD .                                          HAYDAM:     FIELD
 LOC .                                   SEC12-23N-97W:     LOCATION
 CNTY.                                      SWEETWATER:     COUNTY
 STAT.                                         WYOMING:     STATE
 CTRY.                                             USA:     COUNTRY
 SRVC.                                    SCHLUMBERGER:     SERVICE COMPANY
 DATE.                                      26/07/1994:     DATE
 API .                                      4903723385:     API NUMBER
 UWI .                                         3723385:     UWI NUMBER
 TVD .                                              NO:     TVD flag
 WSTA.                                             LOC:     Well status
 USGS.                                            F041:     USGS Number
 LATI.DEG                                     41.97739:     LATITUDE
 LONG.DEG                                   -108.32133:     LONGITUDE
 UTM-N.                                        4650736:     Northing
 UTM-E.                                      721928.25:     Easting
 CORE.                                              -5:     Core/Log Offset
#
~Curve Information Block
#MNEM.UNIT       API CODE      Curve Description
#----------    -------------   -------------------
 DEPT.FT                   :   Depth in Feet
 ILD .OHMM     05 120 46 01:   Deep Induction Standard Processed Resistivity
 SP  .MV       01 010 01 01:   Spontaneous Potential
 RHOB.G/C3     42 350 01 01:   Bulk Density
 PEF .b/e                  :   Photo-Electric Factor
 GR  .GAPI     35 310 01 01:   Gamma Ray
 CALI.IN       70 280 01 01:   Caliper
 DPHI.V/V      45 890 01 01:   Density Porosity
 NPHI.V/V      42 890 03 01:   Neutron Porosity
 DTCO.US/F                 :   Delta-T Compressional
#
~Parameter Information Block
#MNEM.UNIT            Value               Description
#----------    --------------------    -------------------
 DATE.                  26-07-1994:    Date As Month-Day-Year
 RUN .                         ONE:    Run Number
 PDAT.                         UNK:    Permanent Datum
 EPD .FT                 6611.0000:    Elevation Of Perm. Datum
 LMF .                          KB:    Log Measured From
 FAPD.FT                   15.0000:    Feet Above Perm. Datum
 DMF .                          KB:    Drilling Measured From
 EKB .FT                 6627.0000:    Elevation Of Kelly Bushing
 EDF .FT                 6626.0000:    Elevation Of Derrick Floor
 EGL .FT                 6611.0000:    Elevation Of Ground Level
 TD  .FT                 9700.0000:    Total Depth
 DD  .FT                 9735.0000:    Depth Driller
 DL  .FT                 9729.0000:    Depth Logger
 BLI .FT                 9719.0000:    Bottom Log Interval
 TLI .FT                 1716.0000:    Top Log Interval
 CSIZ.IN                  9.625 IN:    Casing Size
 CBD1.                        1715:    Casing Bottom (Driller) 1
 CBL1.                        1716:    Casing Bottom (Logger) 1
 BS  .IN                   7.675IN:    Bit Size
 DFT .                    GEL-CHEM:    Drilling Fluid Type
 DFV .S                    45.0000:    Drilling Fluid Viscosity
 DFD .LB/G                 10.1000:    Drilling Fluid Density
 DFL .ML                    8.0000:    Drilling Fluid Loss
 DFPH.                     10.0000:    Drilling Fluid Ph
 MSS .                     MUDTANK:    Mud Sample Source
 RMS .OHMM                  1.4400:    Resistivity Of Mud Sample
 MST .DEGF                 85.0000:    Mud Sample Temperature
 RMF .OHMM                  1.1700:    Mud Filtrate Resistivity
 MFST.DEGF                 80.0000:    Mud Filtrate Sample Temperature
 RMC .OHMM                  1.3300:    Mud Cake Resistivity
 MCST.DEGF                 80.0000:    Mud Cake Sample Temperature
 RMB .OHMM                  0.7480:    Mud Resistivity At Bht
 BHT .DEGF                170.0000:    Bottom Hole Temperature
 MRT .DEGF                170.0000:    Maximum Recorded Temperature
 LUN .                        8415:    Logging Unit Number
 LUL .                      CASPER:    Logging Unit Location
 ENGI.                 CHRISTENSEN:    Engineer'S Name
 WITN.                       LYNON:    Witness' Name
 DGBY.                         R2V:    
 WSTA.                         LOC:    
#
~Other Information Block
<DescLogPlotStart>   NEURALOG PLOT DEFINITION
PLOTDEFVERSION: 3
LASFILE: C:\nds\projects\mf-nov-13\las\3723385A.las
DEPTHSCALE: 240.000000
RESOLUTION: 200
DEPTHLABELFREQ: 100.000000
HEAVYGRIDFREQ: 100.000000
MEDIUMGRIDFREQ: 50.000000
LIGHTGRIDFREQ: 10.000000
#
#   TRACK 1
#
STARTTRACK: 
 LEFTX: 0.500000 inch
 RIGHTX: 3.000000 inch
 SCALETYPE: Log
 NUMCYCLES: 4
 STARTCYCLE: 2
CURVE: ILD   0.200000   2000.000000 (0,0,255)      Solid             2     N   
ENDTRACK: 
#
#   TRACK 2
#
STARTTRACK: 
 LEFTX: 3.500000 inch
 RIGHTX: 6.000000 inch
 SCALETYPE: Linear
 NUMCHARTDIVISIONS: 10
CURVE: SP    -80.000000 20.000000  (0,131,131)    Solid             2     Y    
BACKUP: 20.000000  120.000000 (0,131,131)    Solid             2    
BACKUP: -180.000000 -80.000000 (0,131,131)    Solid             2    
ENDTRACK: 
#
#   TRACK 3
#
STARTTRACK: 
 LEFTX: 6.000000 inch
 RIGHTX: 11.000000 inch
 SCALETYPE: Linear
 NUMCHARTDIVISIONS: 10
CURVE: RHOB  2.000000   3.000000   (255,0,255)    Solid             2     Y    
BACKUP: 1.000000   2.000000   (255,0,255)    Solid             2    
CURVE: PEF   0.000000   10.000000  (255,0,0)      Dot               2     N    
ENDTRACK: 
#
#   TRACK 4
#
STARTTRACK: 
 LEFTX: 11.000000 inch
 RIGHTX: 13.500000 inch
 SCALETYPE: Linear
 NUMCHARTDIVISIONS: 10
CURVE: GR    0.000000   150.000000 (255,131,0)    Solid             2     Y    
BACKUP: 150.000000 300.000000 (255,131,0)    Solid             2    
CURVE: CALI  6.000000   16.000000  (255,255,0)    Dot               2     Y    
BACKUP: 16.000000  26.000000  (255,255,0)    Dot               2    
ENDTRACK: 
#
#   TRACK 5
#
STARTTRACK: 
 LEFTX: 13.500000 inch
 RIGHTX: 18.500000 inch
 SCALETYPE: Linear
 NUMCHARTDIVISIONS: 10
CURVE: DPHI  0.300000   -0.100000  (0,0,255)      Solid             2     N    
CURVE: NPHI  0.300000   -0.100000  (0,131,131)    Dot               2     Y    
BACKUP: 0.700000   0.300000   (0,131,131)    Dot               2    
ENDTRACK: 
#
#   TRACK 6
#
STARTTRACK: 
 LEFTX: 13.500000 inch
 RIGHTX: 18.500000 inch
 SCALETYPE: Linear
 NUMCHARTDIVISIONS: 10
CURVE: DTCO  240.000000 40.000000  (255,0,255)    Solid             2     N    
ENDTRACK: 
<DescLogPlotEnd>
~A DEPTH     ILD              SP               RHOB             PEF              GR               CALI             DPHI             NPHI             DTCO            
# ...
    8699.800 19.83080009      -23.03301260     2.66176687       3.31744622       118.89278322     8.73546017       -0.00638568      0.15557508       -999.25000000   
    8699.900 19.72449529      -22.96191832     2.66180917       3.30393897       118.83582652     8.73520690       -0.00648294      0.15702854       -999.25000000   
    8700.000 19.57772190      -22.89071362     2.66187086       3.29181850       119.12726746     8.73496399       -0.00658021      0.15848587       -999.25000000   
    8700.100 19.47563085      -22.81951190     2.66198410       3.27926091       119.88345755     8.73474566       -0.00667747      0.15993934       -999.25000000   
    8700.200 19.37407217      -22.74848688     2.66208479       3.26602709       120.81331794     8.73452107       -0.00677474      0.16139551       -999.25000000   
    8700.300 19.27304308      -22.67749164     2.66216073       3.25306464       121.61457487     8.73428608       -0.00687201      0.16284860       -999.25000000   
    8700.400 19.17254083      -22.60614196     2.66224175       3.24045397       122.31011276     8.73405440       -0.00696927      0.16430359       -999.25000000   
    8700.500 19.07256266      -22.53475564     2.66233066       3.22767260       123.05588464     8.73382768       -0.00706654      0.16575885       -999.25000000   
    8700.600 18.97499803      -22.46410384     2.66243090       3.21471433       123.85614228     8.73360107       -0.00716381      0.16721686       -999.25000000   
    8700.700 18.86819448      -22.39346707     2.66257231       3.20185073       124.62391888     8.73337446       -0.00726107      0.16867502       -999.25000000   
    8700.800 18.77851698      -22.32144067     2.66276434       3.18905676       125.35703124     8.73314785       -0.00735834      0.17012608       -999.25000000   
    8700.900 18.67045329      -22.24954020     2.66297620       3.17619814       126.11601223     8.73292124       -0.00745560      0.17159403       -999.25000000   
    8701.000 18.58361807      -22.18017802     2.66318013       3.16331601       126.90444786     8.73269462       -0.00755287      0.17303059       -999.25000000   
    8701.100 18.48048048      -22.11011623     2.66337783       3.15048209       127.66615575     8.73246801       -0.00783484      0.17451995       -999.25000000   
    8701.200 18.31980845      -22.03508595     2.66358007       3.13763633       128.39335059     8.73224140       -0.00811682      0.17592615       -999.25000000   
    8701.300 18.31198003      -21.96482085     2.66378660       3.12472959       129.16346335     8.73201479       -0.00839879      0.17745606       -999.25000000   
    8701.400 18.31698171      -21.92174001     2.66399014       3.11187410       129.98983238     8.73178818       -0.00868077      0.17853441       -999.25000000   
    8701.500 18.31540251      -21.91628830     2.66418864       3.09911516       130.67327422     8.73156156       -0.00896274      0.17866781       -999.25000000   
    8701.600 18.31303298      -21.93318791     2.66439118       3.08624427       130.95277070     8.73133495       -0.00916415      0.17850428       -999.25000000   
    8701.700 18.31910886      -21.95005453     2.66460283       3.07321184       130.82522842     8.73110834       -0.00927291      0.17870063       -999.25000000   
    8701.800 18.30955986      -21.96069430     2.66480691       3.06039578       130.56002560     8.73088173       -0.00935750      0.17847984       -999.25000000   
    8701.900 18.32151867      -21.97179655     2.66499401       3.04784310       130.36166915     8.73065512       -0.00944209      0.17872082       -999.25000000   
    8702.000 18.55181889      -21.98590983     2.66519654       3.03483171       130.18877188     8.73042851       -0.00956697      0.17806880       -999.25000000   
    8702.100 18.73400726      -21.99886778     2.66542878       3.02133252       129.96337611     8.73020189       -0.00958838      0.17392052       -999.25000000   
    8702.200 18.90805028      -22.00991545     2.66562941       3.00959033       129.75222175     8.72997528       -0.00956838      0.17105740       -999.25000000   
    8702.300 19.08371019      -22.02308141     2.66577945       3.00276390       129.60096419     8.72974867       -0.00959422      0.16819428       -999.25000000   
    8702.400 19.26100203      -22.03762772     2.66599916       3.00162545       129.34163413     8.72952206       -0.00956643      0.16533116       -999.25000000   
    8702.500 19.43994094      -22.04836773     2.66631170       3.00381003       128.75003933     8.72929545       -0.00924758      0.16246805       -999.25000000   
    8702.600 19.62054224      -22.05809153     2.66637369       3.00706811       127.83180860     8.72906884       -0.00871694      0.15960493       -999.25000000   
    8702.700 19.80282136      -22.07467327     2.66574021       3.01225837       126.80175837     8.72884222       -0.00826469      0.15674181       -999.25000000   
    8702.800 19.98679389      -22.09179722     2.66440978       3.02192603       125.81621634     8.72861561       -0.00772719      0.15387869       -999.25000000   
    8702.900 20.17247557      -22.09548814     2.66282918       3.03650475       124.86070809     8.72838900       -0.00727970      0.15101557       -999.25000000   
    8703.000 20.35988227      -22.09927821     2.66134509       3.05345671       123.88120077     8.72816239       -0.00674028      0.14815245       -999.25000000   
    8703.100 20.54903002      -22.14398872     2.65992725       3.07016211       122.88831278     8.72793578       -0.00541542      0.14528933       -999.25000000   
    8703.200 20.73993500      -22.24562001     2.65845071       3.08616535       121.90927443     8.72770916       -0.00400248      0.14269889       -999.25000000   
    8703.300 20.93261352      -22.37121574     2.65695011       3.10226907       120.93621721     8.72748255       -0.00267015      0.14015106       -999.25000000   
    8703.400 21.12708207      -22.48394145     2.65549362       3.11877687       119.95584622     8.72725594       -0.00126746      0.13782477       -999.25000000   
    8703.500 21.32335728      -22.58415697     2.65403693       3.13528639       118.97421230     8.72702933       0.00007720       0.13549849       -999.25000000   
    8703.600 21.52145593      -22.68937609     2.65253765       3.15146651       117.99516042     8.72680272       0.00146563       0.13317221       -999.25000000   
    8703.700 21.72985449      -22.80075253     2.65106312       3.16752932       117.01317810     8.72657611       0.00283159       0.13084592       -999.25000000   
    8703.800 21.91313823      -22.90908111     2.64964331       3.18404000       116.03279098     8.72634949       0.00419999       0.12851964       -999.25000000   
    8703.900 22.04874056      -23.01405983     2.64810783       3.20089056       115.06025348     8.72612288       0.00556839       0.12619335       -999.25000000   
    8704.000 22.36956117      -23.12117206     2.64622596       3.21593661       114.08134614     8.72589627       0.00693679       0.12386707       -999.25000000   
    8704.100 22.63020415      -23.23019672     2.64399460       3.22515275       113.08854612     8.72566966       0.00830520       0.12054381       -999.25000000   
    8704.200 22.85695738      -23.33724993     2.64164962       3.22511786       112.11118541     8.72544305       0.00967360       0.12054381       -999.25000000   
    8704.300 23.11907885      -23.44316052     2.63936790       3.21568960       111.15830330     8.72521644       0.01104200       0.12054381       -999.25000000   
    8704.400 23.35634582      -23.55155727     2.63710437       3.20013976       110.17133476     8.72498982       0.01241040       0.12054381       -999.25000000   
    8704.500 23.61807075      -23.66099059     2.63478600       3.18266266       109.13979957     8.72476321       0.01377880       0.12054381       -999.25000000   
    8704.600 23.86648702      -23.76709375     2.63248479       3.16570777       108.23179113     8.72453660       0.01540785       0.12118832       -999.25000000   
