~Version Information Block
 VERS.                2.00:     CWLS LOG ASCII STANDARD - VERSION 2.000000
 WRAP.                  NO:     One Line Per Depth Step
#
~Well Information Block
#MNEM.UNIT                     Data                         Information
#----------   ------------------------------------------   ----------------
 STRT.FT                                    12600.0000:     START DEPTH
 STOP.FT                                    13950.0000:     STOP DEPTH
 STEP.FT                                        0.1000:     STEP
 NULL.                                       -999.2500:     NULL VALUE
 COMP.                        PRESIDIO EXPLORATION INC:     COMPANY
 WELL.                          PICKETLAKE UNIT #40-13:     WELL
 FLD .                                         WILDCAT:     FIELD
 LOC .                           1320' FSL & 1320' FEL:     LOCATION
 CNTY.                                      SWEETWATER:     COUNTY
 STAT.                                         WYOMING:     STATE
 CTRY.                                             USA:     COUNTRY
 SRVC.                                                :     SERVICE COMPANY
 DATE.                                      15/05/1995:     DATE
 API .                                      4903723472:     API NUMBER
 UWI .                                         3723472:     UWI NUMBER
 TVD .                                              NO:     TVD flag
 WSTA.                                             LOC:     Well status
 USGS.                                            F042:     USGS Number
 LATI.DEG                                     42.22387:     LATITUDE
 LONG.DEG                                   -108.34765:     LONGITUDE
 UTM-N.                                     4678038.95:     Northing
 UTM-E.                                       718897.4:     Easting
 CORE.                                              +5:     Core/Log Offset
#
~Curve Information Block
#MNEM.UNIT       API CODE      Curve Description
#----------    -------------   -------------------
 DEPT.FT                   :   Depth in Feet
 DTCO.US/F     60 520 08 01:   DTCO
 SPHI.V/V      61 890 01 01:   Sonic Porosity
 GR  .GAPI     35 310 01 01:   Gamma Ray
 CALI.IN       70 280 01 01:   Caliper
 ILD .OHMM     05 120 46 01:   Deep Induction Standard Processed Resistivity
 SP  .MV       01 010 01 01:   Spontaneous Potential
 PEF .b/e                  :   Photo-Electric Factor
 RHOB.G/C3     42 350 01 01:   Bulk Density
 DPHI.V/V      45 890 01 01:   Density Porosity
 NPHI.V/V      42 890 03 01:   Neutron Porosity
#
~Parameter Information Block
#MNEM.UNIT            Value               Description
#----------    --------------------    -------------------
 DATE.                  15-05-1995:    Date As Month-Day-Year
 RUN .                         ONE:    Run Number
 PDAT.                         UNK:    Permanent Datum
 EPD .FT                 7224.0000:    Elevation Of Perm. Datum
 LMF .                          KB:    Log Measured From
 FAPD.FT                   15.0000:    Feet Above Perm. Datum
 DMF .                          KB:    Drilling Measured From
 EKB .FT                 7240.0000:    Elevation Of Kelly Bushing
 EDF .FT                 7239.0000:    Elevation Of Derrick Floor
 EGL .FT                 7224.0000:    Elevation Of Ground Level
 TD  .FT                13950.0000:    Total Depth
 DD  .FT                13957.0000:    Depth Driller
 DL  .FT                13952.0000:    Depth Logger
 BLI .FT                13925.0000:    Bottom Log Interval
 TLI .FT                10000.0000:    Top Log Interval
 CSIZ.IN                   9.625IN:    Casing Size
 CBD1.                        2520:    Casing Bottom (Driller) 1
 CBL1.                        2518:    Casing Bottom (Logger) 1
 BS  .IN                   7.875IN:    Bit Size
 DFT .                         WTD:    Drilling Fluid Type
 DFV .S                    74.0000:    Drilling Fluid Viscosity
 DFD .LB/G                 10.8000:    Drilling Fluid Density
 DFL .ML                    7.2000:    Drilling Fluid Loss
 DFPH.                      9.5000:    Drilling Fluid Ph
 MSS .                     MUDTANK:    Mud Sample Source
 RMS .OHMM                  4.3300:    Resistivity Of Mud Sample
 MST .DEGF                 65.0000:    Mud Sample Temperature
 RMF .OHMM                  3.3800:    Mud Filtrate Resistivity
 MFST.DEGF                 65.0000:    Mud Filtrate Sample Temperature
 RMC .OHMM                  4.5000:    Mud Cake Resistivity
 MCST.DEGF                 65.0000:    Mud Cake Sample Temperature
 RMB .OHMM                  1.3760:    Mud Resistivity At Bht
 BHT .DEGF                219.0000:    Bottom Hole Temperature
 MRT .DEGF                219.0000:    Maximum Recorded Temperature
 LUN .                        8415:    Logging Unit Number
 LUL .                      CASPER:    Logging Unit Location
 ENGI.               T.CHRISTENSEN:    Engineer'S Name
 WITN.                STEVE HEFNER:    Witness' Name
 DGBY.                         R2V:    
 WSTA.                         LOC:    
#
~Other Information Block
<DescLogPlotStart>   NEURALOG PLOT DEFINITION
PLOTDEFVERSION: 3
LASFILE: C:\nds\projects\mf-nov-13\las\3723472C.las
DEPTHSCALE: 240.000000
RESOLUTION: 200
DEPTHLABELFREQ: 100.000000
HEAVYGRIDFREQ: 100.000000
MEDIUMGRIDFREQ: 50.000000
LIGHTGRIDFREQ: 10.000000
#
#   TRACK 1
#
STARTTRACK: 
 LEFTX: 0.500000 inch
 RIGHTX: 3.000000 inch
 SCALETYPE: Linear
 NUMCHARTDIVISIONS: 10
CURVE: DTCO  140.000000 40.000000  (0,0,255)      Solid             2     N    
CURVE: SPHI  0.300000   -0.100000  (0,131,131)    Dot               2     N    
ENDTRACK: 
#
#   TRACK 2
#
STARTTRACK: 
 LEFTX: 3.500000 inch
 RIGHTX: 6.000000 inch
 SCALETYPE: Linear
 NUMCHARTDIVISIONS: 10
CURVE: GR    0.000000   150.000000 (255,0,255)    Solid             2     Y    
BACKUP: 150.000000 300.000000 (255,0,255)    Solid             2    
CURVE: CALI  6.000000   16.000000  (255,0,0)      Dot               2     N    
ENDTRACK: 
#
#   TRACK 3
#
STARTTRACK: 
 LEFTX: 6.000000 inch
 RIGHTX: 11.000000 inch
 SCALETYPE: Log
 NUMCYCLES: 4
 STARTCYCLE: 2
CURVE: ILD   0.200000   2000.000000 (255,131,0)    Solid             2     N   
ENDTRACK: 
#
#   TRACK 4
#
STARTTRACK: 
 LEFTX: 11.000000 inch
 RIGHTX: 13.500000 inch
 SCALETYPE: Linear
 NUMCHARTDIVISIONS: 10
CURVE: SP    -80.000000 20.000000  (255,255,0)    Solid             2     N    
ENDTRACK: 
#
#   TRACK 5
#
STARTTRACK: 
 LEFTX: 13.500000 inch
 RIGHTX: 18.500000 inch
 SCALETYPE: Linear
 NUMCHARTDIVISIONS: 10
CURVE: PEF   0.000000   10.000000  (0,0,255)      Solid             2     N    
CURVE: RHOB  2.000000   3.000000   (0,131,131)    Dot               2     Y    
BACKUP: 1.000000   2.000000   (0,131,131)    Dot               2    
ENDTRACK: 
#
#   TRACK 6
#
STARTTRACK: 
 LEFTX: 18.500000 inch
 RIGHTX: 23.500000 inch
 SCALETYPE: Linear
 NUMCHARTDIVISIONS: 10
CURVE: DPHI  0.300000   -0.100000  (255,0,255)    Solid             2     N    
CURVE: NPHI  0.300000   -0.100000  (255,0,0)      Dot               2     Y    
BACKUP: 0.700000   0.300000   (255,0,0)      Dot               2    
ENDTRACK: 
<DescLogPlotEnd>
~A DEPTH     DTCO             SPHI             GR               CALI             ILD              SP               PEF              RHOB             DPHI             NPHI            
# ...
   12868.400 75.40574231      0.17581690       93.35360527      9.22222222       28.95907923      -42.54657383     3.27314272       2.53257231       0.08925777       0.15199195      
   12868.500 75.05586827      0.17200034       93.59761760      9.22222222       28.89766354      -42.57415264     3.28568097       2.52359237       0.09317013       0.15947686      
   12868.600 74.56004650      0.16832412       93.92540407      9.22222222       28.83238365      -42.60174468     3.29744661       2.51542428       0.09708249       0.16696177      
   12868.700 74.03345750      0.16454158       94.34833861      9.22222222       28.76907239      -42.62837204     3.30962795       2.50691829       0.10099486       0.17444668      
   12868.800 73.53611055      0.16083114       94.81849353      9.22222222       28.70592270      -42.65500524     3.32355777       2.49845348       0.10490722       0.18193159      
   12868.900 73.01309601      0.15707763       95.23269674      9.22222222       28.64164570      -42.68215181     3.33802739       2.49038664       0.10881958       0.18941650      
   12869.000 72.51087782      0.15334477       95.53363734      9.22222222       28.57949325      -42.70927801     3.34965366       2.48138659       0.11468813       0.19690141      
   12869.100 71.99320425      0.14961074       95.84762001      9.22222222       28.51458191      -42.73615676     3.36033472       2.47116712       0.11468813       0.20438632      
   12869.200 71.48592686      0.14587348       96.43091810      9.22222222       28.45289544      -42.76305219     3.37947344       2.46273560       0.11448692       0.21187123      
   12869.300 70.97247561      0.14213602       97.37918281      9.22222222       28.38850526      -42.79003305     3.41261053       2.45914762       0.11348089       0.21935614      
   12869.400 70.46224494      0.13840270       98.47972271      9.22222222       28.32586256      -42.81706651     3.45271652       2.46004553       0.11267606       0.23058350      
   12869.500 69.95039055      0.13466186       99.47613343      9.22222222       28.26409288      -42.84405306     3.48942660       2.46359301       0.10288469       0.23058350      
   12869.600 69.43917610      0.13092696       100.36276533     9.22222222       28.20373385      -42.87097730     3.52155494       2.46922022       0.09635712       0.23360161      
   12869.700 68.92852911      0.12719465       101.28385455     9.22222222       28.14158006      -42.89784523     3.55427073       2.47579158       0.08982954       0.23561368      
   12869.800 68.41788212      0.12346233       102.26540408     9.22222222       28.04860609      -42.92490845     3.58920351       2.48212048       0.08330197       0.23863179      
   12869.900 67.90723513      0.11973002       103.21652447     9.22222222       28.04860609      -42.95208582     3.62401657       2.48615827       0.07677439       0.23863179      
   12870.000 67.39658814      0.11599770       104.12485634     9.22222222       28.04860609      -42.97885423     3.65783276       2.49142657       0.07024682       0.23558380      
   12870.100 66.88594115      0.11226539       105.07283710     9.22222222       28.04860609      -43.00541418     3.69141460       2.50503820       0.06371924       0.23259557      
   12870.200 66.37529416      0.10853308       106.05730016     9.22222222       28.30971050      -43.03275136     3.72510876       2.52062236       0.05719167       0.22909155      
   12870.300 65.86464717      0.10480076       106.97786388     9.22222222       28.30971050      -43.06046447     3.75953827       2.53186170       0.05066409       0.22247284      
   12870.400 65.35400018      0.10106845       107.85041327     9.22222222       28.30971050      -43.08675286     3.79469924       2.54390805       0.04144869       0.21585412      
   12870.500 64.84335319      0.09733613       108.84303628     9.22222222       28.57324553      -43.11227439     3.82837697       2.55701798       0.02615694       0.20923541      
   12870.600 64.33270620      0.09360382       109.95856792     9.22222222       28.81849223      -43.14060115     3.86020519       2.56891263       0.02296892       0.20261670      
   12870.700 63.82205921      0.08855422       110.84825163     9.22222222       29.26614624      -43.17186886     3.89510265       2.58134748       0.01772412       0.19599799      
   12870.800 63.31141222      0.08643373       111.14008659     9.22222222       29.72075391      -43.19960544     3.93478180       2.59377635       0.01247932       0.18937928      
   12870.900 62.64056225      0.08315663       110.85008002     9.22222222       30.18242326      -43.21850322     3.96825345       2.60605779       0.00723452       0.18068410      
   12871.000 62.40629183      0.07987952       110.31697052     9.22222222       30.65126398      -43.23153228     3.98027380       2.61857560       0.00198972       0.17989537      
   12871.100 62.06492637      0.07570281       109.85050684     9.22222222       31.12738747      -43.24539229     3.96922870       2.63049045       -0.00325509      0.17874608      
   12871.200 61.62393810      0.07715573       109.52042040     9.22222222       31.61090685      -43.26202863     3.94752291       2.64365927       -0.00847727      0.17759678      
   12871.300 61.63108149      0.07915841       109.16423459     9.22222222       32.10193702      -43.27892734     3.92614884       2.65631472       -0.01419962      0.17644748      
   12871.400 61.89582312      0.08116109       108.60242361     9.22222222       32.60059464      -43.29450986     3.90762675       2.66316651       -0.01998690      0.17505030      
   12871.500 62.23684084      0.08316377       108.01366336     9.22222222       33.10699819      -43.30933774     3.89097515       2.66836099       -0.02066969      0.17505030      
   12871.600 62.59519117      0.08516644       107.99670917     9.22221286       33.62126800      -43.32472488     3.87287915       2.67643993       -0.01997235      0.18284290      
   12871.700 62.92502048      0.08716912       108.98394601     9.22220434       34.14352625      -43.34154916     3.84558320       2.68069145       -0.01222563      0.19253614      
   12871.800 63.29292329      0.08917180       110.70714911     9.22221198       34.67389703      -43.35841649     3.80349387       2.67745673       -0.00140744      0.20222938      
   12871.900 63.61535350      0.09117448       112.53082420     9.22221818       35.21250637      -43.37276974     3.75134837       2.67076600       0.00831176       0.21192261      
   12872.000 63.98817155      0.09337349       114.17930802     9.22218734       35.75948222      -43.38714719     3.69896473       2.66495404       0.01893111       0.22161585      
   12872.100 64.33545662      0.09337349       115.80760151     9.22215981       36.31495457      -43.40622786     3.64967599       2.66207637       0.02887407       0.23130909      
   12872.200 64.25152324      0.09337349       117.51721491     9.22220985       37.03698532      -43.41969267     3.60036301       2.65368659       0.03926599       0.24100232      
   12872.300 64.10837293      0.09337349       119.21560151     9.22225295       37.33424464      -43.39781233     3.54956528       2.63164390       0.04940316       0.25069556      
   12872.400 64.01043749      0.09297189       120.88142965     9.22214865       37.74945923      -43.31836029     3.49904627       2.60608606       0.05962732       0.26038879      
   12872.500 63.87424820      0.09176707       122.63537308     9.22205750       38.16929165      -43.19353071     3.44906854       2.58507666       0.06990693       0.27008203      
   12872.600 63.76824989      0.09053815       124.53170274     9.22223658       38.59379325      -43.05774942     3.39835619       2.56243585       0.08001253       0.27977527      
   12872.700 63.63989290      0.08935551       126.52043555     9.22239154       39.02301596      -42.93157917     3.34790348       2.53972390       0.09035332       0.28946850      
