~Version ---------------------------------------------------
VERS.   2.0 : CWLS log ASCII Standard -VERSION 2.0
WRAP.    NO : One line per depth step
DLM . SPACE : Column Data Section Delimiter
~Well ------------------------------------------------------
STRT.FT       8390.0 : START DEPTH
STOP.FT       9710.0 : STOP DEPTH
STEP.FT          0.5 : STEP
NULL.        -999.25 : NULL VALUE
COMP.  HRM Resources : COMPANY
WELL.  23-12 Hay Dam : WELL
FLD .        Hay Dam : FIELD
LOC . 23N R97W Sec12 : LOCATION
CNTY.     Sweetwater : COUNTY
STAT.             WY : STATE
CTRY.            USA : COUNTRY
SRVC.            SLB : SERVICE COMPANY
DATE.     11/14/2019 : DATE
API .     4903723253 : API NUMBER
UWI .       3723253A : UWI NUMBER
TVD .             NO : TVD flag
WSTA.            LOC : Well status
USGS.           E974 : USGS Number
LATI.DEG     41.97803: LATITUDE
LONG.DEG    -108.3282: LONGITUDE
UTM-N.     4650790.25: Northing
UTM-E.       721356.8: Easting
CORE.             -13: Core/Log Offset
~Curve Information -----------------------------------------
DEPT.FT               : Depth in Feet
GR  .API 35 310 01 01 : Gamma Ray
CALI.IN  70 280 01 01 : Caliper
PEF .BARN             : Photoelectric Effect
NPHI.V/V 42 890 03 01 : Neutron Porosity
DPHI.V/V 45 890 01 01 : Density Porosity
SP  .                 : 
ILD .                 : 
~Params ----------------------------------------------------
~Other -----------------------------------------------------
~ASCII -----------------------------------------------------
# ...
 8480.00000  138.14900    9.23800    3.25400    0.16000   -0.01300  -11.20100   20.65600
 8480.50000  140.96400    9.23600    3.26400    0.15900   -0.01200  -11.41100   20.70000
 8481.00000  137.73600    9.23400    3.29600    0.15100   -0.01600  -11.61900   20.79300
 8481.50000  130.50400    9.23200    3.32700    0.13700   -0.02000  -11.82800   20.88800
 8482.00000  122.36900    9.23100    3.35900    0.12700   -0.02000  -12.01900   20.98600
 8482.50000  119.54400    9.23700    3.37300    0.13100   -0.01300  -12.17900   21.04300
 8483.00000  126.28900    9.26100    3.37400    0.14000   -0.00900  -12.33400   20.45500
 8483.50000  134.85600    9.28400    3.37400    0.15100   -0.00800  -12.54600   20.03500
 8484.00000  141.94100    9.30700    3.37300    0.16000   -0.00900  -12.75900   19.62300
 8484.50000  144.02600    9.30700    3.38100    0.16500   -0.01400  -12.97300   19.18500
 8485.00000  143.08900    9.30300    3.43300    0.16600   -0.02000  -13.18600   18.82000
 8485.50000  142.82700    9.29900    3.45700    0.16700   -0.02000  -13.39900   18.42800
 8486.00000  142.03100    9.29500    3.35400    0.16700   -0.02000  -13.61200   18.04500
 8486.50000  139.24400    9.29100    3.25500    0.16500   -0.02100  -13.82500   17.66900
 8487.00000  137.72300    9.29800    3.17400    0.16500   -0.02300  -14.03900   17.30100
 8487.50000  141.08400    9.31200    3.21800    0.17000   -0.02300  -14.25100   16.94000
 8488.00000  146.62100    9.32600    3.25500    0.17600   -0.02000  -14.40000   16.54600
 8488.50000  154.15700    9.34100    3.33900    0.18100   -0.01800  -14.45500   16.26800
 8489.00000  159.29400    9.35500    3.48400    0.18500   -0.01900  -14.51200   15.97500
 8489.50000  163.60300    9.37000    3.50700    0.18500   -0.01900  -14.56800   15.68700
 8490.00000  163.52200    9.37300    3.45800    0.18100   -0.01800  -14.62500   15.40400
 8490.50000  158.78200    9.37600    3.40900    0.17700   -0.01600  -14.68100   15.36600
 8491.00000  154.10700    9.38000    3.36100    0.17200   -0.01500  -14.73700   15.85300
 8491.50000  150.63100    9.38300    3.31200    0.16600   -0.01400  -14.79400   16.31400
 8492.00000  148.10000    9.38600    3.27200    0.15900   -0.02000  -14.85000   16.78700
 8492.50000  145.56200    9.38900    3.27800    0.15800   -0.02600  -14.90700   17.27500
 8493.00000  141.55300    9.39200    3.29100    0.15700   -0.03300  -14.96300   17.77700
 8493.50000  135.59200    9.39500    3.30300    0.15800   -0.03200  -15.02000   18.31800
 8494.00000  128.98800    9.39800    3.31600    0.15900   -0.02900  -15.07600   18.64000
 8494.50000  128.68600    9.40100    3.33000    0.16000   -0.02400  -15.13200   19.01000
 8495.00000  132.65800    9.40500    3.30600    0.15800   -0.02200  -15.19900   19.54300
 8495.50000  136.51300    9.40800    3.29300    0.15600   -0.02300  -15.32200   19.55300
 8496.00000  139.73100    9.41200    3.27900    0.15600   -0.02500  -15.44700   19.30700
 8496.50000  141.85500    9.42600    3.31100    0.15700   -0.02600  -15.57100   19.01700
 8497.00000  140.73200    9.43900    3.40800    0.15800   -0.02500  -15.69600   18.74400
 8497.50000  138.01100    9.45300    3.50600    0.16000   -0.02400  -15.82000   18.47400
 8498.00000  135.21200    9.46700    3.52000    0.16200   -0.02200  -15.94400   18.20800
 8498.50000  135.32900    9.48000    3.50200    0.16500   -0.01300  -16.06700   18.14900
 8499.00000  140.18300    9.49100    3.35500    0.17200   -0.00500  -16.19600   18.14900
 8499.50000  144.59600    9.49200    3.17700    0.17800    0.00400  -16.46900   17.93300
 8500.00000  142.65800    9.49300    2.99700    0.17900    0.01500  -16.74300   17.68000
 8500.50000  133.30800    9.49400    2.91300    0.16000    0.02500  -17.01600   17.43000
 8501.00000  121.50600    9.49500    2.87900    0.14300    0.03600  -17.29000   17.18400
 8501.50000  109.57900    9.49700    2.85800    0.12900    0.03800  -17.56200   16.94100
 8502.00000  102.30400    9.49800    2.85000    0.13800    0.03600  -17.64800   16.70000
 8502.50000  104.17000    9.49900    2.85000    0.15000    0.03800  -17.70200   16.54400
 8503.00000  104.72700    9.50000    2.85100    0.15600    0.04900  -17.75600   16.54700
 8503.50000  101.88700    9.50100    2.79900    0.16000    0.06200  -17.81000   16.54600
 8504.00000   95.79300    9.50200    2.71300    0.16100    0.07500  -17.86400   16.54600
 8504.50000   89.76300    9.50300    2.62600    0.16200    0.08800  -17.91900   16.86300
 8505.00000   83.74500    9.50400    2.58800    0.15600    0.08800  -17.97300   17.21300
 8505.50000   78.54400    9.50500    2.61700    0.15100    0.07100  -18.04700   17.57100
 8506.00000   76.51900    9.50600    2.78300    0.14800    0.05600  -18.14700   17.93600
 8506.50000   76.39100    9.50700    2.92500    0.15200    0.04600  -18.24600   18.31700
 8507.00000   76.54000    9.50800    2.83200    0.15900    0.04700  -18.34600   18.49400
 8507.50000   75.82000    9.51000    2.74300    0.16400    0.05200  -18.44600   18.67400
 8508.00000   73.23600    9.51100    2.71200    0.15700    0.05700  -18.54600   18.85600
 8508.50000   70.63800    9.51200    2.84500    0.15200    0.05700  -18.64600   19.04100
 8509.00000   70.10000    9.51500    2.91100    0.14500    0.04900  -18.74600   19.18500
 8509.50000   74.17500    9.51700    2.91000    0.14300    0.04700  -18.84600   19.43500
 8510.00000   79.07600    9.52000    2.86500    0.14100    0.05200  -18.94400   19.52200
 8510.50000   82.20000    9.52200    2.81500    0.14000    0.05800  -18.98600   19.60800
 8511.00000   81.97700    9.52500    2.76500    0.13900    0.06500  -18.89900   19.69500
 8511.50000   80.61500    9.52700    2.71600    0.13900    0.07000  -18.81400   19.78200
 8512.00000   79.25900    9.52900    2.70200    0.14000    0.07000  -18.73000   19.87000
 8512.50000   77.90500    9.52900    2.76300    0.14400    0.06900  -18.64400   19.99800
 8513.00000   76.57300    9.52000    2.81200    0.14400    0.06700  -18.68600   20.15700
 8513.50000   76.25400    9.51100    2.86100    0.14200    0.06400  -18.81600   20.31700
 8514.00000   79.05400    9.50200    2.90900    0.14200    0.05800  -18.94900   20.47900
 8514.50000   84.46200    9.49300    2.88500    0.14900    0.05300  -19.08200   20.64100
 8515.00000   85.26300    9.48400    2.84400    0.15800    0.05800  -19.21500   20.80500
 8515.50000   81.36400    9.47500    2.80100    0.16000    0.06500  -19.34100   20.97100
 8516.00000   77.47600    9.46600    2.78900    0.16200    0.07000  -19.15000   21.13800
 8516.50000   76.18500    9.45700    2.85700    0.16800    0.06900  -18.59200   21.27800
 8517.00000   80.61000    9.44800    2.99600    0.17400    0.05900  -18.03700   21.46700
 8517.50000   86.95800    9.44100    3.13500    0.17800    0.04700  -17.47900   21.63500
 8518.00000   90.66200    9.43400    3.20800    0.16300    0.04000  -16.92200   21.63500
 8518.50000   88.41400    9.42700    3.09300    0.14500    0.03700  -16.36400   21.73500
 8519.00000   85.34700    9.42000    3.01300    0.13300    0.03800  -15.80700   22.21200
 8519.50000   91.46800    9.41300    3.03800    0.14100    0.03700  -15.33200   22.41300
 8520.00000   99.05700    9.40600    3.06200    0.15600    0.03200  -15.14000   21.88500
 8520.50000  105.60900    9.39900    3.01900    0.15900    0.02700  -14.94400   21.51500
 8521.00000   99.77600    9.39200    2.93400    0.14400    0.02600  -14.74800   21.15100
 8521.50000   91.87000    9.38500    2.86800    0.12500    0.02500  -14.55300   20.85000
 8522.00000   87.51100    9.37800    2.88100    0.11900    0.02300  -14.36900   20.91700
 8522.50000   93.45700    9.37000    2.98500    0.13500    0.01900  -14.23000   20.97600
 8523.00000   99.72300    9.36300    3.08900    0.14600    0.01800  -14.09600   21.03600
 8523.50000  101.39300    9.35600    3.17500    0.15300    0.01900  -13.97900   21.60100
 8524.00000  101.00500    9.35000    3.17200    0.15300    0.02400  -14.11800   22.24200
 8524.50000  103.13200    9.35000    3.15200    0.15200    0.03000  -14.26100   22.87200
