~Version ---------------------------------------------------
VERS.   2.0 : CWLS log ASCII Standard -VERSION 2.0
WRAP.    NO : One line per depth step
DLM . SPACE : Column Data Section Delimiter
~Well ------------------------------------------------------
STRT.FT       8390.0 : START DEPTH
STOP.FT       9710.0 : STOP DEPTH
STEP.FT          0.5 : STEP
NULL.        -999.25 : NULL VALUE
COMP.  HRM Resources : COMPANY
WELL.  23-12 Hay Dam : WELL
FLD .        Hay Dam : FIELD
LOC . 23N R97W Sec12 : LOCATION
CNTY.     Sweetwater : COUNTY
STAT.             WY : STATE
CTRY.            USA : COUNTRY
SRVC.            SLB : SERVICE COMPANY
DATE.     11/14/2019 : DATE
API .     4903723253 : API NUMBER
UWI .       3723253A : UWI NUMBER
TVD .             NO : TVD flag
WSTA.            LOC : Well status
USGS.           E974 : USGS Number
LATI.DEG     41.97803: LATITUDE
LONG.DEG    -108.3282: LONGITUDE
UTM-N.     4650790.25: Northing
UTM-E.       721356.8: Easting
CORE.             -13: Core/Log Offset
~Curve Information -----------------------------------------
DEPT.FT               : Depth in Feet
GR  .API 35 310 01 01 : Gamma Ray
CALI.IN  70 280 01 01 : Caliper
PEF .BARN             : Photoelectric Effect
NPHI.V/V 42 890 03 01 : Neutron Porosity
DPHI.V/V 45 890 01 01 : Density Porosity
SP  .                 : 
ILD .                 : 
~Params ----------------------------------------------------
~Other -----------------------------------------------------
~ASCII -----------------------------------------------------
# ...
 8570.00000   90.43000    9.38500    3.21300    0.13500    0.04500   -9.12400   22.42900
 8570.50000   84.73100    9.38900    3.18500    0.12900    0.05300   -8.95600   23.53700
 8571.00000   80.44400    9.39400    3.15500    0.12100    0.05400   -8.77200   24.70100
 8571.50000   81.90200    9.40200    3.15300    0.12100    0.04800   -8.58900   25.55400
 8572.00000   87.87200    9.41000    3.28900    0.12600    0.03500   -8.40800   25.56700
 8572.50000   94.15400    9.41800    3.35100    0.13800    0.02200   -7.98100   25.66200
 8573.00000   99.56000    9.42600    3.27400    0.14000    0.01000   -7.37500   25.75700
 8573.50000  103.94100    9.41700    3.18500    0.13500    0.01200   -6.76100   26.14900
 8574.00000  108.32600    9.38900    3.25500    0.13200    0.00800   -6.13900   26.60300
 8574.50000  112.78600    9.36200    3.42000    0.13200   -0.00200   -6.01900   27.06300
 8575.00000  112.85900    9.33400    3.59600    0.13400   -0.01100   -5.90700   27.48100
 8575.50000  107.14700    9.30600    3.77800    0.12900   -0.02000   -5.79100   27.77500
 8576.00000  102.89200    9.27800    3.77600    0.12500   -0.02400   -5.68300   27.77700
 8576.50000  102.67700    9.27600    3.59000    0.12000   -0.02200   -5.59400   27.24800
 8577.00000  115.01400    9.28400    3.37400    0.11900   -0.01800   -5.50700   26.61500
 8577.50000  124.25500    9.29200    3.25200    0.11900   -0.01500   -5.41900   25.71500
 8578.00000  131.34500    9.30100    3.26900    0.13000   -0.01500   -5.33200   24.84500
 8578.50000  135.60300    9.30900    3.33600    0.13800   -0.01800   -5.19300   24.00400
 8579.00000  138.62400    9.31800    3.40200    0.14600   -0.02500   -5.03300   23.19300
 8579.50000  136.86700    9.32600    3.45600    0.15300   -0.02600   -4.90600   22.40200
 8580.00000  135.38400    9.33500    3.43900    0.16000   -0.02200   -4.98000   22.15100
 8580.50000  135.44500    9.34300    3.24300    0.16200   -0.00800   -5.05100   22.03900
 8581.00000  132.05600    9.35100    3.03500    0.16000    0.01000   -5.18900   22.17400
 8581.50000  122.64500    9.35300    2.81800    0.15500    0.02800   -5.55300   22.30100
 8582.00000  109.63700    9.35500    2.77100    0.14900    0.04700   -5.90400   22.43000
 8582.50000   96.37900    9.35700    2.85300    0.14300    0.04700   -6.25300   22.55900
 8583.00000   89.62300    9.35900    2.94300    0.13800    0.04300   -6.60900   22.68800
 8583.50000   87.58300    9.36200    3.01300    0.13200    0.04000   -6.65900   22.81900
 8584.00000   89.39300    9.36400    3.01200    0.13200    0.03600   -6.58400   22.95000
 8584.50000   92.27400    9.36600    2.86400    0.13600    0.03600   -6.50500   23.08200
 8585.00000   94.00100    9.36800    2.65800    0.13900    0.03500   -6.42700   23.30000
 8585.50000   93.31000    9.36900    2.61000    0.14200    0.03500   -6.34900   23.57200
 8586.00000   91.01800    9.36200    2.57400    0.14400    0.03700   -6.35200   23.84800
 8586.50000   88.81200    9.35400    2.56800    0.14400    0.04000   -6.43500   24.12700
 8587.00000   88.23500    9.34600    2.57300    0.14000    0.04300   -6.51700   24.40900
 8587.50000   85.15300    9.33800    2.58400    0.13200    0.04500   -6.60000   24.62600
 8588.00000   80.64300    9.33000    2.64600    0.12100    0.04500   -6.68200   24.14000
 8588.50000   77.08000    9.32300    2.72800    0.12100    0.04600   -6.76500   23.75600
 8589.00000   78.61300    9.31500    2.80700    0.12600    0.04700   -6.84800   23.37700
 8589.50000   80.43200    9.30300    2.80600    0.13300    0.05300   -6.93000   23.00500
 8590.00000   84.09000    9.28500    2.79800    0.13700    0.05700   -7.01300   22.63800
 8590.50000   90.59600    9.26700    2.78800    0.14100    0.05200   -7.09600   22.27800
 8591.00000   97.11300    9.24800    2.85400    0.14500    0.03500   -7.17800   22.03900
 8591.50000  103.73000    9.23000    2.92600    0.14900    0.02200   -7.26100   22.31300
 8592.00000  104.29000    9.21200    2.99400    0.14900    0.01500   -7.34300   22.55600
 8592.50000  104.65400    9.19400    2.95300    0.14900    0.01200   -7.42600   22.80200
 8593.00000  105.90300    9.17500    2.90400    0.14600    0.00900   -7.50900   23.05100
 8593.50000  106.61600    9.16800    2.85600    0.14400    0.00700   -7.59100   23.30200
 8594.00000  105.42500    9.16600    2.84800    0.14100    0.00600   -7.67300   23.55600
 8594.50000  104.28600    9.16500    2.91400    0.13600    0.00900   -7.70400   23.81400
 8595.00000  103.14100    9.16300    2.97900    0.13300    0.01300   -7.66100   23.97000
 8595.50000  102.05600    9.16100    3.04700    0.13400    0.01500   -7.61800   24.03900
 8596.00000  103.04000    9.16000    3.11400    0.13800    0.01400   -7.57500   24.10700
 8596.50000  108.38200    9.15800    3.18100    0.14100    0.00900   -7.53200   24.17500
 8597.00000  114.11400    9.15700    3.24800    0.14500    0.00500   -7.48900   24.17100
 8597.50000  120.05300    9.15500    3.29400    0.14700    0.00100   -7.44700   24.52800
 8598.00000  121.64900    9.15300    3.29600    0.14400   -0.00100   -7.40300   24.94400
 8598.50000  115.69700    9.15200    3.17700    0.13900   -0.00300   -7.36000   25.36900
 8599.00000  107.80900    9.15000    3.22300    0.13100   -0.00700   -7.32300   25.80200
 8599.50000  100.33000    9.14900    3.34100    0.12500   -0.01200   -7.42400   26.24200
 8600.00000   96.71300    9.14700    3.46500    0.12300   -0.02000   -7.52900   26.68900
 8600.50000   95.53300    9.14500    3.49500    0.12300   -0.02400   -7.63300   27.26300
 8601.00000   95.53600    9.14400    3.44000    0.12500   -0.01900   -7.73800   27.10200
 8601.50000   98.01600    9.14200    3.34400    0.12800   -0.00700   -7.84200   26.88700
 8602.00000  102.56500    9.14000    3.24800    0.13100    0.00300   -7.94700   26.67300
 8602.50000  108.08800    9.13900    3.15200    0.13300    0.00800   -8.05100   26.46200
 8603.00000  111.19100    9.13700    3.07600    0.13600    0.00500   -8.15600   26.25200
 8603.50000  111.02700    9.13600    3.08200    0.13700    0.00200   -8.25900   26.04300
 8604.00000  109.68300    9.13400    3.10900    0.13800   -0.00200   -8.30000   25.83700
 8604.50000  108.33100    9.13200    3.13500    0.13700   -0.00800   -8.22100   25.63200
 8605.00000  107.99300    9.13100    3.16200    0.13100   -0.01100   -8.14500   25.42800
 8605.50000  110.18800    9.12900    3.18800    0.12800   -0.01400   -8.06700   25.22600
 8606.00000  112.90500    9.12700    3.21400    0.12800   -0.01400   -7.99000   25.05300
 8606.50000  115.45100    9.12600    3.23300    0.13700   -0.01000   -7.90100   24.94400
 8607.00000  116.13000    9.12400    3.16600    0.14700   -0.00300   -7.74800   24.77700
 8607.50000  116.87400    9.12300    3.07200    0.15000   -0.00100   -7.59300   24.32600
 8608.00000  117.63800    9.12100    3.16200    0.14800   -0.00500   -7.43900   23.88200
 8608.50000  116.87000    9.11900    3.25200    0.14600   -0.01400   -7.28200   23.44700
 8609.00000  115.87600    9.11800    3.28800    0.14600   -0.01300   -7.12500   23.02000
 8609.50000  117.09100    9.11600    3.26700    0.14600   -0.01000   -7.25600   22.65900
 8610.00000  119.65900    9.11400    3.22900    0.14800   -0.00700   -7.41200   22.83700
 8610.50000  122.32600    9.11300    3.19300    0.15000   -0.01300   -7.56700   22.99400
 8611.00000  122.80100    9.11100    3.15600    0.15500   -0.01900   -7.72200   23.08400
 8611.50000  122.60400    9.11000    3.12000    0.16100   -0.02400   -7.87800   22.96900
 8612.00000  123.64800    9.10500    3.08300    0.16300   -0.02500   -7.92300   22.86900
 8612.50000  125.36900    9.09700    3.09600    0.15400   -0.02600   -7.93700   22.87000
 8613.00000  126.51500    9.08900    3.15300    0.15300   -0.02600   -7.97900   22.81800
 8613.50000  126.01000    9.08100    3.21700    0.15100   -0.02700   -8.02100   22.76300
 8614.00000  120.46200    9.07300    3.43400    0.14500   -0.03000   -8.06300   22.70900
 8614.50000  114.63900    9.05700    3.63400    0.13700   -0.03600   -8.10400   22.65900
