~Version ---------------------------------------------------
VERS.   2.0 : CWLS log ASCII Standard -VERSION 2.0
WRAP.    NO : One line per depth step
DLM . SPACE : Column Data Section Delimiter
~Well ------------------------------------------------------
STRT.FT   8950.0     : START DEPTH
STOP.FT  10550.0     : STOP DEPTH
STEP.FT      0.5     : STEP
NULL.    -999.25     : NULL VALUE
COMP.        HRM     : COMPANY
WELL.57 Hay Reservoir: WELL
FLD .  Hay Reservoir : FIELD
LOC .     24N 97W    : LOCATION
CNTY.     Sweetwater : COUNTY
STAT.         WY     : STATE
CTRY.          USA   : COUNTRY
SRVC.           SLB? : SERVICE COMPANY
DATE. 11/14/2019     : DATE
API . 4903723193     : API NUMBER
UWI .   3723193A     : UWI NUMBER
TVD .         NO     : TVD flag
WSTA.        LOC     : Well status
USGS.            E952: USGS Number
LATI.DEG     42.04063: LATITUDE
LONG.DEG   -108.36672: LONGITUDE
UTM-N.     4657642.54: Northing
UTM-E.      717951.25: Easting
CORE.              -4: Core/Log Offset
~Curve Information -----------------------------------------
DEPT.FT                : Depth in Feet
DPHI.V/V  45 890 01 01 : Density Porosity
NPHI.V/V  42 890 03 01 : Neutron Porosity
GR  .API  35 310 01 01 : Gamma Ray
CALI.IN   70 280 01 01 : Caliper
RHOB.G/CC 42 350 01 01 : Bulk Density
PEF .BARN              : Photoelectric Effect
ILD .                  : Deep Induction
SP  .                  : Spontaneous Potential
~Params ----------------------------------------------------
~Other -----------------------------------------------------
~ASCII -----------------------------------------------------
# ...
 9990.00000    0.01000    0.09900   68.72100    9.57600    2.63700    3.50800   24.85400  -16.35500
 9990.50000    0.01500    0.09300   65.35200    9.58400    2.62400    3.54500   25.38500  -16.37300
 9991.00000    0.02000    0.09100   65.31700    9.57900    2.61700    3.59800   25.79600  -16.81200
 9991.50000    0.02100    0.09700   65.94200    9.57100    2.61400    3.54300   26.30200  -17.25500
 9992.00000    0.01400    0.10800   69.23500    9.56600    2.62400    3.44300   25.85900  -17.29300
 9992.50000    0.00400    0.12000   78.23600    9.56600    2.63900    3.40100   25.35700  -17.25400
 9993.00000   -0.00500    0.12700   87.32300    9.56600    2.65300    3.55200   24.85900  -17.21400
 9993.50000   -0.01000    0.12600   94.40100    9.56600    2.66500    3.88100   24.18400  -17.17600
 9994.00000   -0.00700    0.11700   94.83900    9.56600    2.65900    4.16200   24.40900  -17.13500
 9994.50000    0.00100    0.10600   82.74200    9.56600    2.64700    4.03700   24.63300  -17.28300
 9995.00000    0.00900    0.10300   72.12900    9.56600    2.63500    3.86900   25.09700  -17.53000
 9995.50000    0.01700    0.10300   62.82100    9.56600    2.62300    3.70100   26.26800  -17.77900
 9996.00000    0.02400    0.10200   58.15100    9.56600    2.61200    3.53300   27.38400  -18.03000
 9996.50000    0.02600    0.09800   55.84100    9.56600    2.60600    3.37000   28.54800  -18.09700
 9997.00000    0.01900    0.09200   57.83100    9.56300    2.61500    3.24500   29.76100  -18.05000
 9997.50000    0.00800    0.09800   59.87800    9.55300    2.63000    3.13000   29.92800  -18.00000
 9998.00000    0.00100    0.11000   62.05900    9.54500    2.64400    3.07000   28.38900  -17.95100
 9998.50000   -0.00500    0.12300   68.19200    9.54500    2.65600    3.21400   27.05300  -17.63400
 9999.00000   -0.00600    0.13800   78.78000    9.54500    2.65900    3.36500   25.19300  -17.11000
 9999.50000   -0.00400    0.14800   90.45100    9.54500    2.65600    3.51600   23.20100  -16.80600
 10000.00000   -0.00100    0.15700  106.72900    9.54500    2.65200    3.67200   21.36700  -16.62000
 10000.50000   -0.00000    0.15800  107.75300    9.54500    2.65100    3.72300   19.66600  -16.44000
 10001.00000   -0.00400    0.15900  105.92800    9.54500    2.65200    3.76100   18.64300  -16.34700
 10001.50000   -0.00700    0.15800  103.43500    9.54500    2.65900    3.76200   18.66100  -16.44400
 10002.00000   -0.00700    0.15800  101.54000    9.54500    2.66500    3.82400   18.65300  -16.56800
 10002.50000   -0.00700    0.15700  100.57500    9.54500    2.66300    3.93300   18.96400  -16.83100
 10003.00000   -0.00900    0.15600  100.19800    9.54100    2.66000    3.88200   19.27000  -17.09000
 10003.50000   -0.01100    0.15400   99.88600    9.53100    2.66400    3.74600   19.58000  -17.34800
 10004.00000   -0.01400    0.15300  100.82800    9.52800    2.67000    3.60900   19.89400  -17.60700
 10004.50000   -0.01500    0.15300  101.89000    9.53600    2.67400    3.53100   20.21400  -17.68000
 10005.00000   -0.01500    0.15300  101.90600    9.54500    2.67400    3.53800   20.53800  -17.60000
 10005.50000   -0.01100    0.14900   99.59900    9.53600    2.67400    3.54400   20.86800  -17.51700
 10006.00000   -0.00300    0.13300   96.58200    9.52600    2.67100    3.55000   21.52300  -17.43400
 10006.50000    0.00500    0.11600   91.62600    9.54500    2.66200    3.55500   22.57700  -17.35000
 10007.00000    0.01300    0.09500   81.60600    9.54600    2.64600    3.54300   23.68300  -17.31300
 10007.50000    0.01800    0.10000   71.23300    9.54500    2.63000    3.50200   24.84900  -17.29600
 10008.00000    0.02000    0.10800   63.18500    9.54500    2.62000    3.46100   26.04100  -17.28000
 10008.50000    0.01500    0.11600   58.97000    9.54500    2.61500    3.48600   25.56600  -17.26400
 10009.00000    0.00700    0.12100   61.79200    9.54200    2.62300    3.51700   25.08800  -17.24700
 10009.50000   -0.00100    0.10900   65.29000    9.53300    2.63600    3.51600   24.62600  -17.23100
 10010.00000   -0.00900    0.09500   68.02900    9.52700    2.64900    3.48300   24.40900  -17.21400
 10010.50000   -0.01400    0.09600   67.62100    9.53600    2.66200    3.47800   24.18400  -17.19800
 10011.00000   -0.01900    0.11400   68.10500    9.54500    2.67000    3.47900   24.18400  -17.18200
 10011.50000   -0.02100    0.13200   72.66400    9.53700    2.67900    3.67500   24.18400  -17.16500
 10012.00000   -0.02200    0.15100   81.24300    9.52700    2.68400    3.91100   24.18400  -17.14800
 10012.50000   -0.01800    0.16000   90.96900    9.53000    2.68400    4.09700   24.18400  -17.13400
 10013.00000   -0.01400    0.15900   98.73000    9.53700    2.67900    4.06800   23.37500  -17.20100
 10013.50000   -0.01200    0.15600  105.31700    9.54400    2.67200    3.91300   22.51100  -17.38900
 10014.00000   -0.01200    0.15300  109.47200    9.54000    2.66800    3.80500   21.67900  -17.46900
 10014.50000   -0.01400    0.15100  106.75700    9.53300    2.66900    3.76000   20.87700  -17.20900
 10015.00000   -0.01300    0.14800  103.38600    9.52600    2.67100    3.78900   20.10500  -16.96000
 10015.50000   -0.01100    0.14500  101.46600    9.53400    2.67000    3.81500   19.36200  -16.71200
 10016.00000   -0.01100    0.14300  105.25600    9.54200    2.66700    3.70900   18.92300  -16.46400
 10016.50000   -0.01200    0.14700  109.16400    9.55700    2.66600    3.60100   18.66100  -16.25800
 10017.00000   -0.01300    0.15100  111.85100    9.57400    2.66700    3.57700   18.40300  -16.11600
 10017.50000   -0.01400    0.15200  110.27500    9.58600    2.66900    3.57300   18.14900  -15.97400
 10018.00000   -0.01700    0.14800  107.18400    9.58600    2.67200    3.57100   17.89400  -15.83100
 10018.50000   -0.01700    0.15300  106.07700    9.58600    2.67400    3.51400   17.51500  -15.68800
 10019.00000   -0.01600    0.16100  109.17400    9.58600    2.67700    3.44900   17.06900  -15.54200
 10019.50000   -0.01400    0.17000  111.17400    9.58600    2.67700    3.55900   16.63600  -15.51300
 10020.00000   -0.01400    0.17500  112.09300    9.58600    2.67300    3.70700   16.21500  -15.51300
 10020.50000   -0.01600    0.17400  112.14600    9.58600    2.67000    3.85400   15.80400  -15.51300
 10021.00000   -0.01800    0.17200  111.76800    9.58600    2.67300    3.93000   15.40400  -15.51300
 10021.50000   -0.01600    0.16900  110.11600    9.58900    2.67700    3.84100   15.01400  -15.51300
 10022.00000   -0.01200    0.16700  107.17200    9.59700    2.67700    3.72900   14.52900  -15.53500
 10022.50000   -0.01200    0.16400  105.66000    9.60600    2.67400    3.62700   14.71600  -15.55900
 10023.00000   -0.01500    0.16100  105.71400    9.61500    2.67000    3.56900   14.93700  -15.58300
 10023.50000   -0.01900    0.15700  105.85800    9.62500    2.67000    3.53900   15.46400  -15.60700
 10024.00000   -0.02000    0.15300  105.52600    9.61900    2.67500    3.55900   16.16800  -15.63100
 10024.50000   -0.02100    0.15400  104.28100    9.60900    2.67900    3.64500   16.90400  -15.65500
 10025.00000   -0.02600    0.15400  104.08700    9.59100    2.68200    3.71600   17.67400  -15.67900
 10025.50000   -0.03000    0.15500  104.13800    9.60300    2.68800    3.68400   18.47800  -15.70400
 10026.00000   -0.03300    0.15600  104.53100    9.62600    2.69400    3.65200   19.18300  -15.58900
 10026.50000   -0.03500    0.15800  104.90300    9.63400    2.70100    3.68200   19.18300  -15.36000
 10027.00000   -0.03300    0.16000  106.17000    9.64200    2.70600    3.71900   19.20900  -15.12800
 10027.50000   -0.03000    0.16200  107.60800    9.64600    2.70500    3.75600   19.36200  -14.91900
 10028.00000   -0.02500    0.16400  108.39400    9.64700    2.69900    3.76600   18.70100  -15.05400
 10028.50000   -0.02000    0.16600  108.51400    9.65200    2.69200    3.67300   17.75700  -15.19700
 10029.00000   -0.01500    0.16800  108.64500    9.67000    2.68100    3.70700   16.72500  -15.33800
 10029.50000   -0.01600    0.17100  109.01300    9.68700    2.67400    3.80700   15.51500  -15.48300
