~Version ---------------------------------------------------
VERS.   2.0 : CWLS log ASCII Standard -VERSION 2.0
WRAP.    NO : One line per depth step
DLM . SPACE : Column Data Section Delimiter
~Well ------------------------------------------------------
STRT.FT   8950.0     : START DEPTH
STOP.FT  10550.0     : STOP DEPTH
STEP.FT      0.5     : STEP
NULL.    -999.25     : NULL VALUE
COMP.        HRM     : COMPANY
WELL.57 Hay Reservoir: WELL
FLD .  Hay Reservoir : FIELD
LOC .     24N 97W    : LOCATION
CNTY.     Sweetwater : COUNTY
STAT.         WY     : STATE
CTRY.          USA   : COUNTRY
SRVC.           SLB? : SERVICE COMPANY
DATE. 11/14/2019     : DATE
API . 4903723193     : API NUMBER
UWI .   3723193A     : UWI NUMBER
TVD .         NO     : TVD flag
WSTA.        LOC     : Well status
USGS.            E952: USGS Number
LATI.DEG     42.04063: LATITUDE
LONG.DEG   -108.36672: LONGITUDE
UTM-N.     4657642.54: Northing
UTM-E.      717951.25: Easting
CORE.              -4: Core/Log Offset
~Curve Information -----------------------------------------
DEPT.FT                : Depth in Feet
DPHI.V/V  45 890 01 01 : Density Porosity
NPHI.V/V  42 890 03 01 : Neutron Porosity
GR  .API  35 310 01 01 : Gamma Ray
CALI.IN   70 280 01 01 : Caliper
RHOB.G/CC 42 350 01 01 : Bulk Density
PEF .BARN              : Photoelectric Effect
ILD .                  : Deep Induction
SP  .                  : Spontaneous Potential
~Params ----------------------------------------------------
~Other -----------------------------------------------------
~ASCII -----------------------------------------------------
# ...
 10310.00000   -0.01100    0.16600   93.01600    8.65800    2.67100    3.46900   14.99400  -14.09400
 10310.50000   -0.01100    0.16100  105.34600    8.66500    2.66600    3.34400   14.70400  -14.10400
 10311.00000   -0.01200    0.15700  105.35100    8.67300    2.66700    3.36800   14.41900  -14.10400
 10311.50000   -0.01100    0.15200  105.83800    8.68300    2.66700    3.49500   14.14000  -14.00700
 10312.00000   -0.00800    0.15200  107.65900    8.69500    2.66700    3.62000   13.87000  -13.68300
 10312.50000   -0.00200    0.16600  109.06600    8.69600    2.66000    3.65800   13.26800  -13.36200
 10313.00000    0.00500    0.17500  109.63900    8.72300    2.64900    3.55900   12.69900  -13.04100
 10313.50000    0.01200    0.18900  110.59900    8.75400    2.63600    3.46600   12.15400  -12.72100
 10314.00000    0.01700    0.19800  112.53800    8.77300    2.62700    3.37100   11.63300  -12.45600
 10314.50000    0.01600    0.20200  116.36800    8.79100    2.62100    3.36600   11.13300  -12.33600
 10315.00000    0.00800    0.20100  120.15100    8.79800    2.62900    3.41000   10.65800  -12.21300
 10315.50000    0.00200    0.19900  122.28600    8.79800    2.63900    3.34100   10.31100  -12.09100
 10316.00000   -0.00000    0.19700  122.27200    8.79800    2.64900    3.23300   10.25900  -11.96800
 10316.50000   -0.00200    0.19500  122.27500    8.79800    2.65200    3.17900   10.20000  -11.84600
 10317.00000   -0.00500    0.19300  122.27300    8.79800    2.65700    3.24300   10.14100  -11.72000
 10317.50000   -0.00900    0.19100  122.25100    8.79800    2.66200    3.29400   10.08300  -11.59400
 10318.00000   -0.00900    0.18900  122.98200    8.79800    2.66300    3.31300   10.02800  -11.46400
 10318.50000    0.00100    0.18300  125.09300    8.80500    2.64700    3.33300    9.81200  -11.33400
 10319.00000    0.01400    0.17700  126.82000    8.81400    2.62700    3.36400    9.61400  -11.20400
 10319.50000    0.02600    0.17100  126.47800    8.81300    2.60800    3.46400    9.41900  -11.07400
 10320.00000    0.03500    0.16900  126.28800    8.80400    2.59200    3.62200    9.22900  -10.94300
 10320.50000    0.03500    0.16800  127.66100    8.79300    2.59000    3.61400    9.04200  -10.88600
 10321.00000    0.03200    0.16700  127.39100    8.77300    2.59600    3.45200    8.85900  -10.88500
 10321.50000    0.02900    0.16700  124.65100    8.76000    2.60100    3.34000    8.67600  -10.88400
 10322.00000    0.02500    0.16600  120.17400    8.77700    2.60800    3.34100    8.48800  -10.88000
 10322.50000    0.02000    0.16600  118.32900    8.79300    2.61400    3.53300    8.48800  -11.00600
 10323.00000    0.01400    0.16500  116.85800    8.79000    2.62300    3.70900    8.48800  -11.54500
 10323.50000    0.00800    0.16500  115.27100    8.78000    2.63300    3.88900    8.76200  -11.68400
 10324.00000    0.00400    0.16500  113.03100    8.79200    2.64200    3.88800    9.19400  -11.81000
 10324.50000    0.00000    0.16700  111.99300    8.79200    2.64600    3.84700    9.64700  -11.93600
 10325.00000   -0.00000    0.16900  113.63800    8.78200    2.64800    3.80400   10.12200  -12.06300
 10325.50000   -0.00100    0.17000  115.32800    8.75900    2.65000    3.76100   10.62000  -12.18900
 10326.00000   -0.00200    0.17100  116.30500    8.72400    2.65200    3.71800   11.14400  -12.27000
 10326.50000   -0.00500    0.17000  117.19300    8.69600    2.66000    3.67600   11.69300  -12.09400
 10327.00000   -0.01000    0.17000  119.21800    8.69700    2.66700    3.63300   12.26900  -11.97100
 10327.50000   -0.01100    0.17000  120.04500    8.69700    2.66800    3.62000   12.87300  -11.85100
 10328.00000   -0.01000    0.16600  118.84900    8.69700    2.66500    3.61900   13.36500  -11.73100
 10328.50000   -0.01000    0.16100  116.16700    8.69700    2.66400    3.62000   13.61500  -11.61000
 10329.00000   -0.01000    0.15500  112.51500    8.69700    2.66600    3.59000   13.81900  -11.49300
 10329.50000   -0.01200    0.15600  109.81000    8.69700    2.66900    3.54100   13.90800  -11.50900
 10330.00000   -0.01400    0.16900  111.20900    8.69700    2.67300    3.49200   13.99900  -11.53100
 10330.50000   -0.01600    0.18400  113.75000    8.69700    2.67700    3.46500   14.12900  -11.55200
 10331.00000   -0.01800    0.19400  115.63400    8.69700    2.67800    3.48900   14.12900  -11.57400
 10331.50000   -0.02000    0.19700  115.43900    8.69700    2.68100    3.51100   14.12900  -11.59500
 10332.00000   -0.02100    0.20000  113.26800    8.69700    2.68300    3.50300   14.12900  -11.61600
 10332.50000   -0.02300    0.20300  111.95300    8.69700    2.68400    3.47900   13.87000  -11.63800
 10333.00000   -0.02100    0.20600  112.64300    8.69700    2.68200    3.47200   12.76800  -11.65900
 10333.50000   -0.01900    0.21000  114.87100    8.69700    2.68000    3.57700   11.61700  -11.68000
 10334.00000   -0.01700    0.21000  117.85600    8.70600    2.67400    3.66800   10.57000  -11.66400
 10334.50000   -0.01200    0.20600  120.86600    8.72000    2.67300    3.68700    9.61700  -11.61500
 10335.00000   -0.00500    0.20300  123.89200    8.73400    2.66400    3.65800    8.75000  -11.56500
 10335.50000    0.00200    0.20000  125.95100    8.74700    2.64800    3.62600    8.25500  -11.51200
 10336.00000    0.01000    0.19500  123.41600    8.76700    2.63200    3.59400    8.10400  -11.34300
 10336.50000    0.00700    0.18900  120.32600    8.80200    2.63400    3.57000    8.06700  -11.03500
 10337.00000    0.00400    0.19200  117.39200    8.81200    2.64100    3.61100    8.02900  -10.73000
 10337.50000    0.00000    0.19600  115.61000    8.82100    2.64800    3.65600    8.02900  -10.48300
 10338.00000   -0.00300    0.19900  115.49800    8.82900    2.65200    3.77000    8.17900  -10.52600
 10338.50000   -0.00600    0.20200  116.94500    8.83800    2.65400    3.75200    8.17900  -10.56300
 10339.00000   -0.00800    0.20000  118.94900    8.83000    2.65700    3.70700    8.17900  -10.60000
 10339.50000   -0.01100    0.19700  119.65300    8.82000    2.66000    3.61600    8.00000  -10.63600
 10340.00000   -0.01300    0.19300  118.55800    8.81800    2.66800    3.50200    7.64200  -10.67300
 10340.50000   -0.01500    0.19500  117.73200    8.81800    2.67500    3.38300    7.29900  -10.70900
 10341.00000   -0.01600    0.19800  120.21500    8.81800    2.68300    3.34300    6.97100  -10.74600
 10341.50000   -0.01800    0.20000  124.65900    8.81800    2.68100    3.53400    6.79300  -10.78300
 10342.00000   -0.01900    0.20300  129.10300    8.81200    2.67900    3.76900    6.79500  -10.81900
 10342.50000   -0.02100    0.20600  132.07600    8.79800    2.68100    3.81000    6.93600  -10.85600
 10343.00000   -0.02200    0.20800  126.60800    8.79800    2.68400    3.68500    7.04900  -10.89100
 10343.50000   -0.02300    0.20800  120.35400    8.79900    2.68700    3.57000    7.16200  -10.92000
 10344.00000   -0.01800    0.19900  115.60000    8.80800    2.68000    3.59400    7.69300  -10.94900
 10344.50000   -0.01200    0.18800  114.25500    8.81700    2.67000    3.61700    8.36800  -10.97800
 10345.00000   -0.00800    0.17600  115.06800    8.81800    2.66400    3.58500    9.10300  -11.00700
 10345.50000   -0.00800    0.17000  117.68000    8.81800    2.66300    3.51500    9.54800  -11.03700
 10346.00000   -0.00800    0.17100  121.45500    8.81800    2.66100    3.49500    9.88200  -11.06500
 10346.50000   -0.00500    0.17700  124.65000    8.81800    2.65500    3.57000   10.21600  -11.01400
 10347.00000   -0.00200    0.18400  126.62500    8.82000    2.65000    3.64000   10.53800  -10.65600
 10347.50000    0.00100    0.18700  128.65500    8.83000    2.64700    3.60100   10.70000  -10.30800
 10348.00000    0.00200    0.19300  131.36100    8.84200    2.64200    3.56900   10.28100   -9.94800
 10348.50000    0.00200    0.20100  133.17200    8.85900    2.64100    3.58900    9.72600  -10.01200
 10349.00000   -0.00300    0.20900  133.74300    8.85900    2.65100    3.61500    9.20100  -10.18400
 10349.50000   -0.00700    0.21200  134.09700    8.85900    2.66300    3.60800    8.70400  -10.35900
