~Version ---------------------------------------------------
VERS. 2.0 : CWLS log ASCII Standard -VERSION 2.0
WRAP.  NO : One Line Per Depth Step
~Well ------------------------------------------------------
STRT .FT              12000.0 : START DEPTH
STOP .FT              13400.0 : STOP DEPTH
STEP .FT   0.1000000000003638 : STEP
NULL .                -999.25 : NULL VALUE
COMP . ENRON OIL &GAS COMPANY : COMPANY
WELL .       CEPO-LEWIS 21-38 : WELL
FLD  .             CEPO-LEWIS : FIELD
LOC  .   1205' FWL &1300' FSL : LOCATION
CNTY .             SWEETWATER : COUNTY
STAT .                WYOMING : STATE
CTRY .                    USA : COUNTRY
SRVC .                        : SERVICE COMPANY
DATE .             25/05/1998 : DATE
API  .             4903724185 : API NUMBER
UWI  .                3724185 : UWI NUMBER
TVD  .                     NO : TVD flag
WSTA .                    LOC : Well status
USGS .                   CEPO : USGS Number
LATI .DEG            41.18194 : LATITUDE
LONG .DEG          -108.14139 : LONGITUDE
UTM-N.             4562894.53 : Northing
UTM-E.              739764.57 : Easting
CORE .FT                 -3.9 : Core/Log Offset
~Curve Information -----------------------------------------
DEPT .FT                : Depth in Feet
GR   .GAPI 35 310 01 01 : Gamma Ray
SP   .MV   01 010 01 01 : Spontaneous Potential
CALI .IN   70 280 01 01 : Caliper
AHT90.OHMM              : 
ILD  .OHMM 05 120 46 01 : Deep Induction Standard Processed Resistivity
HCAL .IN                : 
DPHI .V/V  45 890 01 01 : Density Porosity
NPOR .V/V               : Neutron Porosity Output From An Application Program
RHOB .G/C3 42 350 01 01 : Bulk Density
PEF  .b/e               : Photo-Electric Factor
DT   .US/F 60 520 08 01 : Delta-T
SPHI .V/V  61 890 01 01 : Sonic Porosity
RESD .OHMM              : Deep Resistivity - Merged AHT90 & ILD
~Params ----------------------------------------------------
DATE.  25-05-1998 : Date As Month-Day-Year
RUN .         ONE : Run Number
PDAT.         UNK : Permanent Datum
EPD .FT    6416.0 : Elevation Of Perm. Datum
LMF .          KB : Log Measured From
FAPD.FT      21.0 : Feet Above Perm. Datum
DMF .          KB : Drilling Measured From
EKB .FT    6437.0 : Elevation Of Kelly Bushing
EDF .FT    6436.0 : Elevation Of Derrick Floor
EGL .FT    6416.0 : Elevation Of Ground Level
TD  .FT   13400.0 : Total Depth
DD  .FT   12587.0 : Depth Driller
DL  .FT   12616.0 : Depth Logger
BLI .FT   12602.0 : Bottom Log Interval
TLI .FT    2346.0 : Top Log Interval
DFT .    GEL-CHEM : Drilling Fluid Type
LUN .        8269 : Logging Unit Number
LUL . ROCK SPRING : Logging Unit Location
DGBY.         R2V : 
WSTA.         LOC : 
~Other -----------------------------------------------------
<DescLogPlotStart>   NEURALOG PLOT DEFINITION
PLOTDEFVERSION: 3
LASFILE: C:\nds\projects\mf-nov-13\las\3724185G.las
DEPTHSCALE: 240.000000
RESOLUTION: 200
DEPTHLABELFREQ: 100.000000
HEAVYGRIDFREQ: 100.000000
MEDIUMGRIDFREQ: 50.000000
LIGHTGRIDFREQ: 10.000000
#
#   TRACK 1
#
STARTTRACK:
LEFTX: 0.500000 inch
RIGHTX: 3.000000 inch
SCALETYPE: Linear
NUMCHARTDIVISIONS: 10
CURVE: GR    0.000000   150.000000 (0,0,255)      Solid             2     N
CURVE: SP    -100.000000 0.000000   (0,131,131)    Dot               2     Y
BACKUP: 0.000000   100.000000 (0,131,131)    Dot               2
BACKUP: 100.000000 200.000000 (0,131,131)    Dot               2
BACKUP: 200.000000 300.000000 (0,131,131)    Dot               2
BACKUP: 300.000000 400.000000 (0,131,131)    Dot               2
CURVE: CALI  4.000000   14.000000  (255,0,255)    Short_Dash        2     N
CURVE: HCAL  4.000000   14.000000  (255,0,0)      Medium_Dash       2     Y
BACKUP: -6.000000  4.000000   (255,0,0)      Medium_Dash       2
ENDTRACK:
#
#   TRACK 2
#
STARTTRACK:
LEFTX: 3.500000 inch
RIGHTX: 8.500000 inch
SCALETYPE: Log
NUMCYCLES: 4
STARTCYCLE: 2
CURVE: AHT90 0.200000   2000.000000 (255,131,0)    Solid             2     N
CURVE: ILD   0.200000   2000.000000 (255,255,0)    Dot               2     N
ENDTRACK:
#
#   TRACK 3
#
STARTTRACK:
LEFTX: 3.500000 inch
RIGHTX: 8.500000 inch
SCALETYPE: Linear
NUMCHARTDIVISIONS: 10
CURVE: DPHI  0.300000   -0.100000  (0,0,255)      Solid             2     Y
BACKUP: 0.700000   0.300000   (0,0,255)      Solid             2
CURVE: NPOR  0.300000   -0.100000  (0,131,131)    Dot               2     Y
BACKUP: 0.700000   0.300000   (0,131,131)    Dot               2
ENDTRACK:
#
#   TRACK 4
#
STARTTRACK:
LEFTX: 3.500000 inch
RIGHTX: 8.500000 inch
SCALETYPE: Linear
NUMCHARTDIVISIONS: 10
CURVE: RHOB  2.000000   3.000000   (255,0,255)    Solid             2     Y
BACKUP: 1.000000   2.000000   (255,0,255)    Solid             2
BACKUP: 3.000000   4.000000   (255,0,255)    Solid             2
CURVE: PEF   0.000000   20.000000  (255,0,0)      Dot               2     N
ENDTRACK:
#
#   TRACK 5
#
STARTTRACK:
LEFTX: 3.500000 inch
RIGHTX: 8.500000 inch
SCALETYPE: Linear
NUMCHARTDIVISIONS: 10
CURVE: DT    140.000000 40.000000  (255,131,0)    Solid             2     Y
BACKUP: 240.000000 140.000000 (255,131,0)    Solid             2
ENDTRACK:
<DescLogPlotEnd>
~ASCII -----------------------------------------------------
# ...
 13107.60000   -2.52257    7.29708    -999.25    -999.25    6.18217    7.16255    0.03303    0.18259    2.62258    5.73373    -999.25    -999.25    6.18217
 13107.70000   -2.38987    7.27588    -999.25    -999.25    6.16327    7.15987    0.03273    0.18291    2.62349    5.73072    -999.25    -999.25    6.16327
 13107.80000   -2.22105    7.25258    -999.25    -999.25    6.14444    7.15693    0.03273    0.18319    2.62397    5.72530    -999.25    -999.25    6.14444
 13107.90000   -1.98159    7.23726    -999.25    -999.25    6.12566    7.15473    0.03273    0.18345    2.62408    5.71369    -999.25    -999.25    6.12566
 13108.00000   -1.67886    7.22567    -999.25    -999.25    6.10128    7.15409    0.03273    0.18373    2.62406    5.68905    -999.25    -999.25    6.10128
 13108.10000   -1.35268    7.19805    -999.25    -999.25    6.10128    7.15463    0.03299    0.18400    2.62396    5.65038    -999.25    -999.25    6.10128
 13108.20000   -1.03160    7.16315    -999.25    -999.25    6.10128    7.15525    0.03320    0.18428    2.62353    5.60550    -999.25    -999.25    6.10128
 13108.30000   -0.71617    7.17686    -999.25    -999.25    6.10128    7.15553    0.03340    0.18455    2.62257    5.56194    -999.25    -999.25    6.10128
 13108.40000   -0.39842    7.28610    -999.25    -999.25    6.10128    7.15577    0.03353    0.18482    2.62121    5.51948    -999.25    -999.25    6.10128
 13108.50000   -0.07940    7.47613    -999.25    -999.25    6.10128    7.15619    0.03471    0.18499    2.61970    5.47557    -999.25    -999.25    6.10128
 13108.60000    0.23972    7.69533    -999.25    -999.25    6.10128    7.15662    0.03558    0.18554    2.61816    5.43379    -999.25    -999.25    6.10128
 13108.70000    0.56191    7.90470    -999.25    -999.25    6.10128    7.15696    0.03646    0.18595    2.61662    5.40072    -999.25    -999.25    6.10128
 13108.80000    0.88110    8.09269    -999.25    -999.25    6.10128    7.15730    0.03733    0.18636    2.61507    5.37681    -999.25    -999.25    6.10128
 13108.90000    1.19203    8.27793    -999.25    -999.25    6.10128    7.15768    0.03821    0.18676    2.61351    5.35606    -999.25    -999.25    6.10128
 13109.00000    1.50975    8.49661    -999.25    -999.25    6.10127    7.15806    0.03909    0.18717    2.61197    5.33374    -999.25    -999.25    6.10127
 13109.10000    1.84519    8.74171    -999.25    -999.25    6.10123    7.15842    0.03996    0.18758    2.61045    5.31033    -999.25    -999.25    6.10123
 13109.20000    2.16698    8.92733    -999.25    -999.25    6.10130    7.15879    0.04084    0.18798    2.60890    5.28798    -999.25    -999.25    6.10130
 13109.30000    2.45337    8.97192    -999.25    -999.25    6.10125    7.15916    0.04172    0.18839    2.60731    5.26637    -999.25    -999.25    6.10125
 13109.40000    2.76952    8.90266    -999.25    -999.25    6.10128    7.15953    0.04259    0.18880    2.60578    5.24367    -999.25    -999.25    6.10128
 13109.50000    3.17100    8.81746    -999.25    -999.25    6.10128    7.15989    0.04347    0.18920    2.60432    5.22030    -999.25    -999.25    6.10128
 13109.60000    3.52694    8.76348    -999.25    -999.25    6.10128    7.16026    0.04435    0.18943    2.60274    5.20053    -999.25    -999.25    6.10128
 13109.70000    3.62376    8.71529    -999.25    -999.25    6.10128    7.16062    0.04481    0.18983    2.60103    5.18968    -999.25    -999.25    6.10128
 13109.80000    3.48366    8.65111    -999.25    -999.25    6.10128    7.16099    0.04496    0.18983    2.59972    5.18855    -999.25    -999.25    6.10128
 13109.90000    3.35613    8.58409    -999.25    -999.25    6.10128    7.16135    0.04506    0.18983    2.59951    5.19101    -999.25    -999.25    6.10128
 13110.00000    3.31278    8.52585    -999.25    -999.25    6.10128    7.16172    0.04517    0.18983    2.60038    5.18997    -999.25    -999.25    6.10128
 13110.10000    3.10502    8.46888    -999.25    -999.25    6.10128    7.16208    0.04481    0.18621    2.60165    5.18685    -999.25    -999.25    6.10128
 13110.20000    2.55603    8.40713    -999.25    -999.25    6.10128    7.16245    0.04428    0.18379    2.60280    5.19152    -999.25    -999.25    6.10128
 13110.30000    1.84709    8.34451    -999.25    -999.25    6.10128    7.16281    0.04401    0.18137    2.60384    5.21146    -999.25    -999.25    6.10128
 13110.40000    1.24291    8.28438    -999.25    -999.25    6.10128    7.16318    0.04374    0.18016    2.60493    5.24568    -999.25    -999.25    6.10128
 13110.50000    0.73857    8.22532    -999.25    -999.25    6.10128    7.16354    0.04330    0.18016    2.60605    5.29148    -999.25    -999.25    6.10128
 13110.60000    0.17768    8.16474    -999.25    -999.25    6.10128    7.16391    0.04270    0.18016    2.60718    5.35035    -999.25    -999.25    6.10128
 13110.70000   -0.43730    8.10238    -999.25    -999.25    6.10128    7.16427    0.04209    0.18016    2.60832    5.42244    -999.25    -999.25    6.10128
 13110.80000   -0.95610    8.04162    -999.25    -999.25    6.10128    7.16464    0.04149    0.18036    2.60935    5.50100    -999.25    -999.25    6.10128
 13110.90000   -1.31695    7.98399    -999.25    -999.25    6.10128    7.16500    0.04089    0.18056    2.61003    5.57853    -999.25    -999.25    6.10128
 13111.00000   -1.59161    7.92413    -999.25    -999.25    6.10128    7.16537    0.04028    0.18077    2.61037    5.65442    -999.25    -999.25    6.10128
 13111.10000   -1.81003    7.85826    -999.25    -999.25    6.10128    7.16573    0.04008    0.18189    2.61059    5.73222    -999.25    -999.25    6.10128
 13111.20000   -1.88785    7.79981    -999.25    -999.25    6.10128    7.16610    0.04028    0.18373    2.61078    5.81290    -999.25    -999.25    6.10128
 13111.30000   -1.78183    7.77195    -999.25    -999.25    6.10128    7.16647    0.04048    0.18557    2.61084    5.89449    -999.25    -999.25    6.10128
 13111.40000   -1.60885    7.77994    -999.25    -999.25    6.10128    7.16683    0.04068    0.18741    2.61070    5.97515    -999.25    -999.25    6.10128
 13111.50000   -1.50893    7.80382    -999.25    -999.25    6.10128    7.16720    0.04089    0.18925    2.61045    6.05461    -999.25    -999.25    6.10128
 13111.60000   -1.43579    7.82326    -999.25    -999.25    6.10128    7.16756    0.04109    0.19109    2.61020    6.13473    -999.25    -999.25    6.10128
 13111.70000   -1.21250    7.83694    -999.25    -999.25    6.10130    7.16793    0.04105    0.19294    2.61008    6.21712    -999.25    -999.25    6.10130
 13111.80000   -0.77615    7.85259    -999.25    -999.25    6.10131    7.16829    0.04079    0.19335    2.61014    6.29878    -999.25    -999.25    6.10131
 13111.90000   -0.24627    7.87111    -999.25    -999.25    6.10130    7.16866    0.04052    0.19235    2.61040    6.37615    -999.25    -999.25    6.10130
 13112.00000    0.23953    7.88852    -999.25    -999.25    6.10131    7.16902    0.03998    0.19134    2.61082    6.45492    -999.25    -999.25    6.10131
 13112.10000    0.66012    7.90438    -999.25    -999.25    6.10136    7.16939    0.03917    0.19033    2.61145    6.54204    -999.25    -999.25    6.10136
 13112.20000    1.08284    7.92088    -999.25    -999.25    6.10136    7.16976    0.03837    0.18933    2.61240    6.62112    -999.25    -999.25    6.10136
 13112.30000    1.56511    7.93820    -999.25    -999.25    6.10128    7.17012    0.03797    0.18832    2.61355    6.65430    -999.25    -999.25    6.10128
 13112.40000    2.05408    7.95519    -999.25    -999.25    6.10131    7.17048    0.03797    0.18749    2.61443    6.62406    -999.25    -999.25    6.10131
 13112.50000    2.35839    7.97176    -999.25    -999.25    6.10148    7.17086    0.03797    0.18685    2.61465    6.55641    -999.25    -999.25    6.10148
 13112.60000    2.29443    7.98850    -999.25    -999.25    6.10144    7.17123    0.03837    0.18620    2.61428    6.48480    -999.25    -999.25    6.10144
 13112.70000    1.89537    8.00549    -999.25    -999.25    6.10116    7.17158    0.03917    0.18556    2.61372    6.40797    -999.25    -999.25    6.10116
