~Version ---------------------------------------------------
VERS.   2.0 : CWLS log ASCII Standard -VERSION 2.0
WRAP.    NO : One line per depth step
DLM . SPACE : Column Data Section Delimiter
~Well ------------------------------------------------------
STRT.FT   8950.0     : START DEPTH
STOP.FT  10550.0     : STOP DEPTH
STEP.FT      0.5     : STEP
NULL.    -999.25     : NULL VALUE
COMP.        HRM     : COMPANY
WELL.57 Hay Reservoir: WELL
FLD .  Hay Reservoir : FIELD
LOC .     24N 97W    : LOCATION
CNTY.     Sweetwater : COUNTY
STAT.         WY     : STATE
CTRY.          USA   : COUNTRY
SRVC.           SLB? : SERVICE COMPANY
DATE. 11/14/2019     : DATE
API . 4903723193     : API NUMBER
UWI .   3723193A     : UWI NUMBER
TVD .         NO     : TVD flag
WSTA.        LOC     : Well status
USGS.            E952: USGS Number
LATI.DEG     42.04063: LATITUDE
LONG.DEG   -108.36672: LONGITUDE
UTM-N.     4657642.54: Northing
UTM-E.      717951.25: Easting
CORE.              -4: Core/Log Offset
~Curve Information -----------------------------------------
DEPT.FT                : Depth in Feet
DPHI.V/V  45 890 01 01 : Density Porosity
NPHI.V/V  42 890 03 01 : Neutron Porosity
GR  .API  35 310 01 01 : Gamma Ray
CALI.IN   70 280 01 01 : Caliper
RHOB.G/CC 42 350 01 01 : Bulk Density
PEF .BARN              : Photoelectric Effect
ILD .                  : Deep Induction
SP  .                  : Spontaneous Potential
~Params ----------------------------------------------------
~Other -----------------------------------------------------
~ASCII -----------------------------------------------------
# ...
 9870.00000    0.00100    0.12800   78.36800    9.52500    2.64700    3.12200   16.30300  -14.16300
 9870.50000   -0.00100    0.12600   79.55800    9.52500    2.65000    3.11000   16.41000  -14.21500
 9871.00000   -0.00200    0.12400   82.10400    9.52500    2.65000    3.41400   16.51700  -14.26700
 9871.50000   -0.00100    0.12400   82.71600    9.52500    2.64500    3.62300   16.66600  -14.32000
 9872.00000    0.00100    0.12600   82.77900    9.52500    2.63900    3.63800   16.82800  -14.37200
 9872.50000    0.00500    0.12800   83.95500    9.52500    2.63700    3.53500   17.00600  -14.42400
 9873.00000    0.00700    0.13000   86.23200    9.52500    2.63900    3.45500   17.00600  -14.48100
 9873.50000    0.00500    0.13200   86.75200    9.52500    2.64200    3.44400   16.95200  -14.67600
 9874.00000    0.00300    0.13400   84.35300    9.53300    2.64500    3.42400   16.80400  -15.05600
 9874.50000    0.00200    0.13400   80.95400    9.54800    2.64300    3.37100   16.65700  -15.30500
 9875.00000    0.00300    0.13300   77.38300    9.56000    2.64000    3.35100   16.51200  -15.27200
 9875.50000    0.00400    0.12800   75.62000    9.56100    2.63900    3.42900   16.38700  -15.24300
 9876.00000    0.00500    0.12300   73.68500    9.55400    2.63800    3.51000   16.59600  -15.21300
 9876.50000    0.00500    0.11900   72.16700    9.54600    2.64000    3.59000   16.92400  -15.18300
 9877.00000    0.00400    0.11400   72.35400    9.54500    2.64400    3.60300   17.25900  -15.15400
 9877.50000    0.00200    0.11300   75.83600    9.54500    2.64700    3.58300   17.60000  -15.12400
 9878.00000   -0.00100    0.11800   78.92500    9.54500    2.64700    3.56300   17.94800  -15.09400
 9878.50000    0.00000    0.12400   83.92900    9.54500    2.64400    3.57800   18.30300  -15.06500
 9879.00000    0.00300    0.12500   85.28700    9.55400    2.63800    3.60100   18.65700  -15.03500
 9879.50000    0.00600    0.12400   85.30900    9.56600    2.63500    3.64400   18.46800  -15.00500
 9880.00000    0.00800    0.12200   85.30700    9.57800    2.63300    3.69500   18.17400  -14.97500
 9880.50000    0.00600    0.12200   85.30400    9.59000    2.63900    3.74200   17.88400  -14.94600
 9881.00000    0.00000    0.12300   85.30700    9.60200    2.65200    3.54800   17.59900  -14.90600
 9881.50000   -0.00700    0.12600   84.50000    9.61100    2.66100    3.19200   17.31900  -15.49300
 9882.00000   -0.00900    0.12700   81.84100    9.61800    2.66200    3.11400   17.04100  -15.59400
 9882.50000   -0.00600    0.12500   78.97700    9.62600    2.65600    3.31200   17.00500  -15.66900
 9883.00000   -0.00300    0.12300   78.09300    9.64400    2.65000    3.48300   17.01400  -15.74700
 9883.50000    0.00100    0.12200   80.54800    9.66300    2.64400    3.53700   17.32400  -15.82500
 9884.00000    0.00300    0.12000   83.92900    9.66700    2.64100    3.53200   17.47400  -15.90900
 9884.50000    0.00300    0.11800   86.38600    9.66700    2.64300    3.52100   17.62800  -15.72800
 9885.00000    0.00100    0.12000   86.04600    9.66700    2.64700    3.50900   17.78200  -15.50200
 9885.50000   -0.00100    0.12400   84.58400    9.66700    2.64900    3.54200   17.93900  -15.27600
 9886.00000   -0.00100    0.12900   83.87600    9.66700    2.64900    3.65500   18.24000  -15.05000
 9886.50000    0.00200    0.13500   84.80400    9.66700    2.64500    3.76700   18.59500  -14.82600
 9887.00000    0.00400    0.13900   87.06500    9.66700    2.64000    3.90400   18.95700  -14.72200
 9887.50000    0.00100    0.13500   88.26800    9.67000    2.65100    3.87600   19.32600  -14.75200
 9888.00000   -0.00700    0.12900   88.90400    9.67800    2.66300    3.74000   19.70200  -14.78100
 9888.50000   -0.01400    0.12300   87.66800    9.68500    2.67200    3.69200   20.08500  -14.81000
 9889.00000   -0.01200    0.11700   86.41400    9.71900    2.66700    3.67700   20.47600  -14.83900
 9889.50000   -0.00800    0.11400   85.16500    9.75800    2.66200    3.65900   20.84900  -14.86800
 9890.00000   -0.00600    0.11500   83.91900    9.78000    2.65700    3.60900   20.32000  -14.89800
 9890.50000   -0.00100    0.11500   82.92000    9.79800    2.64900    3.56100   19.82300  -14.93100
 9891.00000    0.00400    0.11500   82.25200    9.81500    2.64100    3.56500   19.34000  -14.96700
 9891.50000    0.00900    0.11800   83.60000    9.83400    2.63300    3.56400   18.87000  -15.00400
 9892.00000    0.00800    0.12200   85.73600    9.85200    2.63200    3.54500   18.41200  -15.04000
 9892.50000    0.00200    0.12600   87.77700    9.87000    2.63900    3.42900   17.96400  -15.07700
 9893.00000   -0.00200    0.12700   86.69100    9.89300    2.64700    3.36700   17.52800  -15.10600
 9893.50000   -0.00100    0.12400   84.23600    9.90900    2.65200    3.30900   17.10200  -14.99900
 9894.00000    0.00300    0.12100   81.36200    9.90900    2.64500    3.24300   16.69400  -14.89000
 9894.50000    0.00500    0.11900   76.91000    9.90900    2.63900    3.14400   16.54000  -14.78300
 9895.00000    0.00500    0.11900   74.56700    9.91600    2.63800    3.04500   16.38700  -14.67500
 9895.50000    0.00900    0.11800   70.84600    9.92500    2.63700    2.98800   16.23600  -14.56800
 9896.00000    0.01400    0.11800   68.77000    9.92500    2.63000    3.19100   16.23600  -14.46100
 9896.50000    0.01500    0.11900   69.23800    9.91700    2.62300    3.36000   16.49100  -14.35300
 9897.00000    0.01100    0.11800   70.38500    9.90900    2.62500    3.33800   16.92700  -14.24600
 9897.50000    0.00600    0.11500   71.09200    9.90900    2.63300    3.25500   17.37500  -14.13600
 9898.00000    0.00600    0.11000   71.50100    9.91000    2.63700    3.18400   17.83800  -14.16900
 9898.50000    0.01000    0.10500   70.38700    9.91800    2.63500    3.17200   18.31500  -14.26000
 9899.00000    0.01300    0.10600   68.06600    9.92600    2.62900    3.20700   18.14600  -14.35300
 9899.50000    0.01600    0.11000   67.47800    9.93400    2.62300    3.26900   17.94300  -14.44500
 9900.00000    0.01700    0.11400   66.96200    9.94200    2.62000    3.28800   17.88800  -14.53800
 9900.50000    0.01800    0.11600   66.34100    9.94900    2.61800    3.26700   17.83400  -14.63000
 9901.00000    0.02000    0.11600   65.14600    9.93300    2.61600    3.22900   17.77900  -14.72200
 9901.50000    0.02200    0.11600   64.88300    9.91500    2.61100    3.22600   17.72400  -14.80000
 9902.00000    0.02300    0.11500   65.81500    9.90900    2.60800    3.26900   17.67000  -14.88200
 9902.50000    0.02100    0.11400   67.57300    9.90900    2.61200    3.29900   17.61600  -14.72800
 9903.00000    0.01900    0.11400   68.79400    9.90600    2.61700    3.30000   17.56200  -14.44300
 9903.50000    0.01800    0.11500   68.42200    9.89600    2.61800    3.24700   17.50800  -14.15500
 9904.00000    0.01700    0.11700   68.52100    9.87900    2.61900    3.19900   17.45400  -13.88400
 9904.50000    0.01600    0.12100   69.51500    9.84800    2.62100    3.16400   17.40100  -13.79300
 9905.00000    0.01300    0.12100   72.68500    9.84800    2.62600    3.23200   17.34700  -13.69400
 9905.50000    0.00900    0.11900   75.88600    9.83900    2.63200    3.29700   17.31100  -13.59500
 9906.00000    0.00800    0.11600   77.41700    9.81400    2.63500    3.31500   17.28800  -13.50700
 9906.50000    0.00800    0.11600   77.43400    9.78900    2.63400    3.30900   17.26600  -13.63300
 9907.00000    0.00900    0.12000   77.42300    9.76300    2.63200    3.35300   17.24300  -13.76400
 9907.50000    0.00800    0.12400   77.42100    9.73700    2.63300    3.42100   17.22000  -13.89300
 9908.00000    0.00800    0.12500   77.44800    9.71200    2.63400    3.48900   17.19700  -14.02300
 9908.50000    0.00700    0.12300   78.64200    9.68700    2.63500    3.48700   17.17500  -14.15200
 9909.00000    0.00600    0.12300   81.09000    9.66000    2.63600    3.51400   17.16300  -14.27700
 9909.50000    0.01100    0.12400   82.80900    9.61800    2.63200    3.54600   17.44600  -14.53600
