~Version Information Block
 VERS.                2.00:     CWLS LOG ASCII STANDARD - VERSION 2.000000
 WRAP.                  NO:     One Line Per Depth Step
#
~Well Information Block
#MNEM.UNIT                     Data                         Information
#----------   ------------------------------------------   ----------------
 STRT.FT                                    12600.0000:     START DEPTH
 STOP.FT                                    13950.0000:     STOP DEPTH
 STEP.FT                                        0.1000:     STEP
 NULL.                                       -999.2500:     NULL VALUE
 COMP.                        PRESIDIO EXPLORATION INC:     COMPANY
 WELL.                          PICKETLAKE UNIT #40-13:     WELL
 FLD .                                         WILDCAT:     FIELD
 LOC .                           1320' FSL & 1320' FEL:     LOCATION
 CNTY.                                      SWEETWATER:     COUNTY
 STAT.                                         WYOMING:     STATE
 CTRY.                                             USA:     COUNTRY
 SRVC.                                                :     SERVICE COMPANY
 DATE.                                      15/05/1995:     DATE
 API .                                      4903723472:     API NUMBER
 UWI .                                         3723472:     UWI NUMBER
 TVD .                                              NO:     TVD flag
 WSTA.                                             LOC:     Well status
 USGS.                                            F042:     USGS Number
 LATI.DEG                                     42.22387:     LATITUDE
 LONG.DEG                                   -108.34765:     LONGITUDE
 UTM-N.                                     4678038.95:     Northing
 UTM-E.                                       718897.4:     Easting
 CORE.                                              +5:     Core/Log Offset
#
~Curve Information Block
#MNEM.UNIT       API CODE      Curve Description
#----------    -------------   -------------------
 DEPT.FT                   :   Depth in Feet
 DTCO.US/F     60 520 08 01:   DTCO
 SPHI.V/V      61 890 01 01:   Sonic Porosity
 GR  .GAPI     35 310 01 01:   Gamma Ray
 CALI.IN       70 280 01 01:   Caliper
 ILD .OHMM     05 120 46 01:   Deep Induction Standard Processed Resistivity
 SP  .MV       01 010 01 01:   Spontaneous Potential
 PEF .b/e                  :   Photo-Electric Factor
 RHOB.G/C3     42 350 01 01:   Bulk Density
 DPHI.V/V      45 890 01 01:   Density Porosity
 NPHI.V/V      42 890 03 01:   Neutron Porosity
#
~Parameter Information Block
#MNEM.UNIT            Value               Description
#----------    --------------------    -------------------
 DATE.                  15-05-1995:    Date As Month-Day-Year
 RUN .                         ONE:    Run Number
 PDAT.                         UNK:    Permanent Datum
 EPD .FT                 7224.0000:    Elevation Of Perm. Datum
 LMF .                          KB:    Log Measured From
 FAPD.FT                   15.0000:    Feet Above Perm. Datum
 DMF .                          KB:    Drilling Measured From
 EKB .FT                 7240.0000:    Elevation Of Kelly Bushing
 EDF .FT                 7239.0000:    Elevation Of Derrick Floor
 EGL .FT                 7224.0000:    Elevation Of Ground Level
 TD  .FT                13950.0000:    Total Depth
 DD  .FT                13957.0000:    Depth Driller
 DL  .FT                13952.0000:    Depth Logger
 BLI .FT                13925.0000:    Bottom Log Interval
 TLI .FT                10000.0000:    Top Log Interval
 CSIZ.IN                   9.625IN:    Casing Size
 CBD1.                        2520:    Casing Bottom (Driller) 1
 CBL1.                        2518:    Casing Bottom (Logger) 1
 BS  .IN                   7.875IN:    Bit Size
 DFT .                         WTD:    Drilling Fluid Type
 DFV .S                    74.0000:    Drilling Fluid Viscosity
 DFD .LB/G                 10.8000:    Drilling Fluid Density
 DFL .ML                    7.2000:    Drilling Fluid Loss
 DFPH.                      9.5000:    Drilling Fluid Ph
 MSS .                     MUDTANK:    Mud Sample Source
 RMS .OHMM                  4.3300:    Resistivity Of Mud Sample
 MST .DEGF                 65.0000:    Mud Sample Temperature
 RMF .OHMM                  3.3800:    Mud Filtrate Resistivity
 MFST.DEGF                 65.0000:    Mud Filtrate Sample Temperature
 RMC .OHMM                  4.5000:    Mud Cake Resistivity
 MCST.DEGF                 65.0000:    Mud Cake Sample Temperature
 RMB .OHMM                  1.3760:    Mud Resistivity At Bht
 BHT .DEGF                219.0000:    Bottom Hole Temperature
 MRT .DEGF                219.0000:    Maximum Recorded Temperature
 LUN .                        8415:    Logging Unit Number
 LUL .                      CASPER:    Logging Unit Location
 ENGI.               T.CHRISTENSEN:    Engineer'S Name
 WITN.                STEVE HEFNER:    Witness' Name
 DGBY.                         R2V:    
 WSTA.                         LOC:    
#
~Other Information Block
<DescLogPlotStart>   NEURALOG PLOT DEFINITION
PLOTDEFVERSION: 3
LASFILE: C:\nds\projects\mf-nov-13\las\3723472C.las
DEPTHSCALE: 240.000000
RESOLUTION: 200
DEPTHLABELFREQ: 100.000000
HEAVYGRIDFREQ: 100.000000
MEDIUMGRIDFREQ: 50.000000
LIGHTGRIDFREQ: 10.000000
#
#   TRACK 1
#
STARTTRACK: 
 LEFTX: 0.500000 inch
 RIGHTX: 3.000000 inch
 SCALETYPE: Linear
 NUMCHARTDIVISIONS: 10
CURVE: DTCO  140.000000 40.000000  (0,0,255)      Solid             2     N    
CURVE: SPHI  0.300000   -0.100000  (0,131,131)    Dot               2     N    
ENDTRACK: 
#
#   TRACK 2
#
STARTTRACK: 
 LEFTX: 3.500000 inch
 RIGHTX: 6.000000 inch
 SCALETYPE: Linear
 NUMCHARTDIVISIONS: 10
CURVE: GR    0.000000   150.000000 (255,0,255)    Solid             2     Y    
BACKUP: 150.000000 300.000000 (255,0,255)    Solid             2    
CURVE: CALI  6.000000   16.000000  (255,0,0)      Dot               2     N    
ENDTRACK: 
#
#   TRACK 3
#
STARTTRACK: 
 LEFTX: 6.000000 inch
 RIGHTX: 11.000000 inch
 SCALETYPE: Log
 NUMCYCLES: 4
 STARTCYCLE: 2
CURVE: ILD   0.200000   2000.000000 (255,131,0)    Solid             2     N   
ENDTRACK: 
#
#   TRACK 4
#
STARTTRACK: 
 LEFTX: 11.000000 inch
 RIGHTX: 13.500000 inch
 SCALETYPE: Linear
 NUMCHARTDIVISIONS: 10
CURVE: SP    -80.000000 20.000000  (255,255,0)    Solid             2     N    
ENDTRACK: 
#
#   TRACK 5
#
STARTTRACK: 
 LEFTX: 13.500000 inch
 RIGHTX: 18.500000 inch
 SCALETYPE: Linear
 NUMCHARTDIVISIONS: 10
CURVE: PEF   0.000000   10.000000  (0,0,255)      Solid             2     N    
CURVE: RHOB  2.000000   3.000000   (0,131,131)    Dot               2     Y    
BACKUP: 1.000000   2.000000   (0,131,131)    Dot               2    
ENDTRACK: 
#
#   TRACK 6
#
STARTTRACK: 
 LEFTX: 18.500000 inch
 RIGHTX: 23.500000 inch
 SCALETYPE: Linear
 NUMCHARTDIVISIONS: 10
CURVE: DPHI  0.300000   -0.100000  (255,0,255)    Solid             2     N    
CURVE: NPHI  0.300000   -0.100000  (255,0,0)      Dot               2     Y    
BACKUP: 0.700000   0.300000   (255,0,0)      Dot               2    
ENDTRACK: 
<DescLogPlotEnd>
~A DEPTH     DTCO             SPHI             GR               CALI             ILD              SP               PEF              RHOB             DPHI             NPHI            
# ...
   13766.000 63.63830321      0.08900291       137.35402937     8.66729197       19.01502134      8.05065627       3.87255423       2.68530434       -0.02241421      0.16177062      
   13766.100 63.57429719      0.08841566       136.48956624     8.66776335       18.99530572      8.06378293       3.88571539       2.68633443       -0.02281864      0.16177062      
   13766.200 63.51029116      0.08776915       135.59152535     8.66823473       18.93522221      8.07690960       3.89837920       2.68735898       -0.02329294      0.16156942      
   13766.300 63.44628514      0.08765993       134.74511436     8.66870611       18.86565157      8.09003626       3.91053059       2.68835412       -0.02372483      0.16116700      
   13766.400 63.38227912      0.08760482       134.13111196     8.66917749       18.82792993      8.10316292       3.91578175       2.68935734       -0.02418893      0.16096579      
   13766.500 63.31827309      0.08747983       133.79073060     8.66964879       18.76411763      8.11628959       3.90411628       2.69042910       -0.02461779      0.15979209      
   13766.600 63.24297189      0.08741447       133.56468728     8.67012097       18.72066122      8.12941625       3.87318178       2.69145423       -0.02509244      0.15900961      
   13766.700 63.25702811      0.08730253       133.34863718     8.67059329       18.66288300      8.14254292       3.83266024       2.69216273       -0.02573375      0.15822714      
   13766.800 63.27409639      0.08722775       133.23700877     8.67106409       18.61458295      8.15566958       3.79374578       2.69243555       -0.02576866      0.15744467      
   13766.900 63.29116466      0.08712411       133.33273756     8.67153456       18.56121828      8.16879624       3.75871715       2.69246905       -0.02573568      0.15666220      
   13767.000 63.30823293      0.08704344       133.56438194     8.67200853       18.51030400      8.18192291       3.72323358       2.69253210       -0.02576186      0.15587972      
   13767.100 63.32291885      0.08694779       133.78779853     8.67248318       18.45955139      8.19504957       3.68523643       2.69266315       -0.02575453      0.15509725      
   13767.200 63.34259794      0.08694779       133.96162899     8.67295051       18.40830914      8.20817624       3.64743809       2.69275096       -0.02575453      0.15431478      
   13767.300 63.35745482      0.08694779       134.12823687     8.67341655       18.35720913      8.22130290       3.61202086       2.69280931       -0.02575453      0.15353230      
   13767.400 63.37662340      0.08694779       134.31952581     8.67389650       18.30625098      8.23442956       3.57650829       2.69293523       -0.02575453      0.15274983      
   13767.500 63.39169608      0.08729310       134.53148087     8.67437881       18.25543427      8.24755623       3.53782528       2.69306926       -0.02575453      0.15196736      
   13767.600 63.41089331      0.08764532       134.73094605     8.67483562       18.20475863      8.26068289       3.49896490       2.69307167       -0.02575453      0.15118489      
   13767.700 63.42579188      0.08799753       134.88678432     8.67528777       18.15422367      8.27380956       3.46689449       2.69308423       -0.02575453      0.15040241      
   13767.800 63.44417979      0.08834975       135.04901790     8.67579027       18.10382898      8.28693622       3.44363513       2.69350687       -0.02674619      0.14961994      
   13767.900 63.50222267      0.08870197       135.36672252     8.67630795       18.05357418      8.30006288       3.42517534       2.69450193       -0.02740730      0.14883747      
   13768.000 63.56142115      0.08905418       135.94257231     8.67668577       17.97845344      8.31318955       3.41028457       2.69576560       -0.02806841      0.14805500      
   13768.100 63.61646578      0.08940640       136.70599464     8.67681860       17.97845344      8.32631621       3.40354398       2.69692868       -0.02872952      0.14688129      
   13768.200 63.67510468      0.08975862       137.49164688     8.67678748       17.99768532      8.33944287       3.40735884       2.69796307       -0.02939063      0.14688129      
   13768.300 63.73072344      0.09011083       138.21810292     8.67675170       18.01051800      8.35256954       3.41788476       2.69903580       -0.03005174      0.14688129      
   13768.400 63.78860387      0.09046305       138.93233021     8.67676627       18.02335983      8.36569620       3.43078697       2.70017299       -0.03071285      0.14688129      
   13768.500 63.84493345      0.09081527       139.69528648     8.67678320       18.03621082      8.37882287       3.44532164       2.70128036       -0.03137396      0.14784708      
   13768.600 63.90224767      0.09116748       140.47300489     8.67677463       18.04907097      8.39194953       3.46102479       2.70235525       -0.03203507      0.14849095      
   13768.700 63.95890997      0.09151970       141.19021251     8.67676477       18.06194028      8.40507619       3.47599310       2.70347022       -0.03269618      0.14913481      
   13768.800 64.01618659      0.09187192       141.88145825     8.67676882       18.07481878      8.41821346       3.48966130       2.70459775       -0.03335729      0.14977867      
   13768.900 64.07256749      0.09222413       142.67279482     8.67677356       18.08770646      8.43131477       3.50337091       2.70560378       -0.03401840      0.15042254      
   13769.000 64.13042561      0.09257635       143.54268884     8.67680532       18.10060333      8.44441313       3.51770946       2.70640147       -0.03501006      0.15106640      
   13769.100 64.18598510      0.09292857       144.25828442     8.67680241       18.11350939      8.45757358       3.53209954       2.70702188       -0.03501006      0.15171026      
   13769.200 64.24481097      0.09328078       144.69530960     8.67673546       18.12642465      8.47074946       3.54627029       2.70755012       -0.03552745      0.15235412      
   13769.300 64.29937021      0.09363300       145.04258983     8.67673052       18.14581482      8.48378307       3.56024015       2.70805725       -0.03587238      0.15299799      
   13769.400 64.35911261      0.09398522       145.47288177     8.67687415       18.14581482      8.49678959       3.57410564       2.70857589       -0.03621730      0.15364185      
   13769.500 64.41287248      0.09433743       145.78838974     8.67687739       18.01649914      8.51009404       3.58843092       2.70909183       -0.03656223      0.15428571      
   13769.600 64.44961376      0.09468965       145.67244769     8.67656439       17.93080108      8.52343822       3.60312872       2.70957735       -0.03690716      0.15492958      
   13769.700 64.50584476      0.09504187       145.15524162     8.67654608       17.84551065      8.53621619       3.61698619       2.71006652       -0.03742455      0.15557344      
   13769.800 64.55107843      0.09539408       144.55601773     8.67713674       17.76062592      8.54892991       3.62991134       2.71061876       -0.03742455      0.15653924      
   13769.900 64.59043992      0.09574630       144.05563890     8.67716541       17.67614496      8.56268152       3.64459782       2.71113484       -0.03677975      0.15653924      
   13770.000 64.63493543      0.09609852       143.58487512     8.67607321       17.59206584      8.57659415       3.66197619       2.71131534       -0.03634989      0.15653924      
   13770.100 64.67504855      0.09645073       143.06479130     8.67601260       17.50838665      8.58845760       3.67668108       2.71093992       -0.03592003      0.15653924      
   13770.200 64.71864829      0.09680295       142.52663517     8.67814674       17.42510550      8.59922898       3.68128170       2.71014007       -0.03548995      0.15611303      
   13770.300 64.75965110      0.09698795       142.01262475     8.67825162       17.34222048      8.61355128       3.67479104       2.70925412       -0.03506793      0.15582024      
