~Version Information Block
 VERS.                2.00:     CWLS LOG ASCII STANDARD - VERSION 2.000000
 WRAP.                  NO:     One Line Per Depth Step
#
~Well Information Block
#MNEM.UNIT                     Data                         Information
#----------   ------------------------------------------   ----------------
 STRT.FT                                     9000.0000:     START DEPTH
 STOP.FT                                    10600.0000:     STOP DEPTH
 STEP.FT                                        0.1000:     STEP
 NULL.                                       -999.2500:     NULL VALUE
 COMP.                            PRESIDIO OIL COMPANY:     COMPANY
 WELL.                          HAY RESERVIOR UNIT #58:     WELL
 FLD .                              HAY RESERVIOR UNIT:     FIELD
 LOC .                               1500' FSL 10' FWL:     LOCATION
 CNTY.                                      SWEETWATER:     COUNTY
 STAT.                                         WYOMING:     STATE
 CTRY.                                             USA:     COUNTRY
 SRVC.                                    SCHLUMBERGER:     SERVICE COMPANY
 DATE.                                      22/02/1994:     DATE
 API .                                      4903723301:     API NUMBER
 UWI .                                         3723301:     UWI NUMBER
 TVD .                                              NO:     TVD flag
 WSTA.                                             LOC:     Well status
 USGS.                                            E945:     USGS Number
 LATI.DEG                                     42.05082:     LATITUDE
 LONG.DEG                                   -108.37861:     LONGITUDE
 UTM-N.                                     4658743.82:     Northing
 UTM-E.                                      716932.37:     Easting
 CORE.FT                                          -9.2:     Core/Log Offset
#
~Curve Information Block
#MNEM.UNIT       API CODE      Curve Description
#----------    -------------   -------------------
 DEPT.FT                   :   Depth in Feet
 ILD .OHMM     05 120 46 01:   Deep Induction Standard Processed Resistivity
 SP  .MV       01 010 01 01:   Spontaneous Potential
 DPHI.DEC      42 890 03 01:   DPHI
 NPHI.DEC      42 890 03 01:   Neutron Porosity
 CALI.IN       70 280 01 01:   Caliper
 GR  .GAPI     35 310 01 01:   Gamma Ray
 RHOB.G/C3     42 350 01 01:   Bulk Density
 PEF .B/E                  :   Photo-Electric Factor
 DT4P.US/F                 :   
#
~Parameter Information Block
#MNEM.UNIT            Value               Description
#----------    --------------------    -------------------
 DATE.                  22-02-1994:    Date As Month-Day-Year
 RUN .                         ONE:    Run Number
 PDAT.                         UNK:    Permanent Datum
 EPD .FT                 6799.0000:    Elevation Of Perm. Datum
 LMF .                          KB:    Log Measured From
 FAPD.FT                   14.0000:    Feet Above Perm. Datum
 DMF .                          KB:    Drilling Measured From
 EKB .FT                 6813.0000:    Elevation Of Kelly Bushing
 EDF .FT                 6812.0000:    Elevation Of Derrick Floor
 EGL .FT                 6799.0000:    Elevation Of Ground Level
 TD  .FT                10600.0000:    Total Depth
 DD  .FT                10625.0000:    Depth Driller
 DL  .FT                10623.0000:    Depth Logger
 BLI .FT                 1061.0000:    Bottom Log Interval
 CSIZ.IN                     9.625:    Casing Size
 CBD1.                        1702:    Casing Bottom (Driller) 1
 CBL1.                        1700:    Casing Bottom (Logger) 1
 BS  .IN                     7.875:    Bit Size
 DFV .S                    45.0000:    Drilling Fluid Viscosity
 DFD .LB/G                 10.5000:    Drilling Fluid Density
 DFL .ML                    7.2000:    Drilling Fluid Loss
 DFPH.                      9.5000:    Drilling Fluid Ph
 MSS .                    MUD TANK:    Mud Sample Source
 RMS .OHMM                  4.6200:    Resistivity Of Mud Sample
 MST .DEGF                 50.0000:    Mud Sample Temperature
 RMF .OHMM                  3.0700:    Mud Filtrate Resistivity
 MFST.DEGF                 50.0000:    Mud Filtrate Sample Temperature
 RMC .OHMM                  7.1400:    Mud Cake Resistivity
 MCST.DEGF                 50.0000:    Mud Cake Sample Temperature
 RMB .OHMM                  1.0990:    Mud Resistivity At Bht
 BHT .DEGF                212.0000:    Bottom Hole Temperature
 MRT .DEGF                212.0000:    Maximum Recorded Temperature
 LUN .                        8415:    Logging Unit Number
 LUL .                      CASPER:    Logging Unit Location
 ENGI.               CHRIS PRESMYK:    Engineer'S Name
 WITN.                STEVE HEFNER:    Witness' Name
 DGBY.                         R2V:    
 WSTA.                         LOC:    
#
~Other Information Block
<DescLogPlotStart>   NEURALOG PLOT DEFINITION
PLOTDEFVERSION: 3
LASFILE: C:\nds\projects\mf-nov-13\las\3723301A.las
DEPTHSCALE: 240.000000
RESOLUTION: 200
DEPTHLABELFREQ: 100.000000
HEAVYGRIDFREQ: 100.000000
MEDIUMGRIDFREQ: 50.000000
LIGHTGRIDFREQ: 10.000000
#
#   TRACK 1
#
STARTTRACK: 
 LEFTX: 0.500000 inch
 RIGHTX: 3.000000 inch
 SCALETYPE: Log
 NUMCYCLES: 4
 STARTCYCLE: 2
CURVE: ILD   0.200000   2000.000000 (0,0,255)      Solid             2     N   
ENDTRACK: 
#
#   TRACK 2
#
STARTTRACK: 
 LEFTX: 3.500000 inch
 RIGHTX: 6.000000 inch
 SCALETYPE: Linear
 NUMCHARTDIVISIONS: 10
CURVE: SP    -80.000000 20.000000  (0,131,131)    Solid             2     Y    
BACKUP: -180.000000 -80.000000 (0,131,131)    Solid             2    
ENDTRACK: 
#
#   TRACK 3
#
STARTTRACK: 
 LEFTX: 6.000000 inch
 RIGHTX: 11.000000 inch
 SCALETYPE: Linear
 NUMCHARTDIVISIONS: 10
CURVE: DPHI  0.300000   -0.100000  (255,0,255)    Solid             2     N    
CURVE: NPHI  0.300000   -0.100000  (255,0,0)      Dot               2     Y    
BACKUP: 0.700000   0.300000   (255,0,0)      Dot               2    
ENDTRACK: 
#
#   TRACK 4
#
STARTTRACK: 
 LEFTX: 11.000000 inch
 RIGHTX: 13.500000 inch
 SCALETYPE: Linear
 NUMCHARTDIVISIONS: 10
CURVE: CALI  6.000000   16.000000  (255,131,0)    Solid             2     N    
CURVE: GR    0.000000   150.000000 (255,255,0)    Dot               2     Y    
BACKUP: 150.000000 300.000000 (255,255,0)    Dot               2    
ENDTRACK: 
#
#   TRACK 5
#
STARTTRACK: 
 LEFTX: 13.500000 inch
 RIGHTX: 18.500000 inch
 SCALETYPE: Linear
 NUMCHARTDIVISIONS: 10
CURVE: RHOB  2.000000   3.000000   (0,0,255)      Solid             2     Y    
BACKUP: 1.000000   2.000000   (0,0,255)      Solid             2    
CURVE: PEF   0.000000   10.000000  (0,131,131)    Dot               2     N    
ENDTRACK: 
#
#   TRACK 6
#
STARTTRACK: 
 LEFTX: 13.500000 inch
 RIGHTX: 18.500000 inch
 SCALETYPE: Linear
 NUMCHARTDIVISIONS: 10
CURVE: DT4P  240.000000 40.000000  (255,0,255)    Solid             2     N    
ENDTRACK: 
<DescLogPlotEnd>
~A DEPTH     ILD              SP               DPHI             NPHI             CALI             GR               RHOB             PEF              DT4P            
# ...
   10278.900 53.42424510      -13.33674049     0.06205540       0.06083003       7.78427419       48.41197807      2.54646109       2.83610471       65.05030181     
   10279.000 53.07702697      -13.40769057     0.06393797       0.06085186       7.78427419       48.21820404      2.54344282       2.79077384       65.05030181     
   10279.100 52.73206551      -13.48764543     0.06582054       0.06090046       7.78427419       48.19321249      2.54044581       2.74862031       65.05030181     
   10279.200 52.38934603      -13.55177253     0.06770311       0.06092929       7.78427419       48.23770790      2.53756525       2.71160099       65.05030181     
   10279.300 52.04885398      -13.57724261     0.06958568       0.06095516       7.78427419       48.24363536      2.53468586       2.67610630       65.05030181     
   10279.400 51.71057488      -13.57299823     0.07146825       0.06100903       7.78427419       48.22446647      2.53171993       2.63907978       65.05030181     
   10279.500 51.37449434      -13.56620493     0.07335082       0.06101288       7.78427419       48.22878878      2.52872727       2.59727452       65.05030181     
   10279.600 51.04059808      -13.56812847     0.07523339       0.06110241       7.78427419       48.22459259      2.52582808       2.55184419       65.05030181     
   10279.700 50.70887189      -13.57104575     0.07711596       0.06105172       7.78427419       48.12079799      2.52299814       2.51420357       65.05030181     
   10279.800 50.37930168      -13.57020153     0.07993982       0.06031996       7.78427419       47.87967973      2.52002775       2.49590242       65.05030181     
   10279.900 50.05187344      -13.56938354     0.07993982       0.05973372       7.78427419       47.55085770      2.51692218       2.49327856       65.15090543     
   10280.000 49.72657323      -13.56936369     0.08201933       0.05927190       7.78427419       47.22000735      2.51406087       2.49208269       65.21797451     
   10280.100 49.40338724      -13.56833063     0.08340567       0.05867248       7.78427419       46.92862964      2.51145493       2.48529329       65.28504359     
   10280.200 49.08230171      -13.56937100     0.08479201       0.05822658       7.78427419       46.66656704      2.50838856       2.47724860       65.35211268     
   10280.300 48.76330301      -13.57303222     0.08617835       0.05760836       7.78427419       46.39797033      2.50463190       2.47295085       65.41918176     
   10280.400 48.44637756      -13.56640974     0.08756469       0.05718338       7.78427419       46.09791784      2.50159762       2.47219986       65.48625084     
   10280.500 48.13151189      -13.53419714     0.08956871       0.05654310       7.78427419       45.79144626      2.50104723       2.47281134       65.55331992     
   10280.600 47.81869262      -13.47815669     0.08889468       0.05591164       7.78427419       45.53264334      2.50284449       2.47373771       65.62038900     
   10280.700 47.50790644      -13.41371275     0.08767904       0.05639265       7.78427419       45.29530525      2.50515406       2.47452092       65.68745808     
   10280.800 47.19914014      -13.35097522     0.08646339       0.05760681       7.78427419       44.97094948      2.50675095       2.47512679       65.75452716     
   10280.900 46.89238060      -13.29016477     0.08524774       0.05900004       7.78427419       44.58529499      2.50801781       2.47590016       65.85513078     
   10281.000 46.58761476      -13.23079958     0.08403210       0.05997342       7.78427419       44.39998120      2.50964530       2.47671126       65.85513078     
   10281.100 46.28482968      -13.17163082     0.08281645       0.06131048       7.78427419       44.62281435      2.51147615       2.47720958       65.78327105     
   10281.200 45.83433783      -13.10728704     0.08160080       0.06282832       7.78427419       45.13574234      2.51302661       2.47780110       65.73536457     
   10281.300 45.83433783      -13.03769947     0.07993982       0.06421673       7.78427419       45.70135629      2.51440210       2.47888835       65.68745808     
   10281.400 46.06964132      -12.97646782     0.07983711       0.06567610       7.78427419       46.31589616      2.51610519       2.47972843       65.63955160     
   10281.500 46.22718104      -12.93619282     0.07967503       0.06712814       7.78427419       47.10996981      2.51812624       2.47962791       65.59164511     
   10281.600 46.38525948      -12.91045552     0.07951294       0.06852384       7.78427419       48.00533479      2.51972751       2.48008281       65.54421611     
   10281.700 46.54387848      -12.88270391     0.07935085       0.07003448       7.78427419       48.75855929      2.52025468       2.48234182       65.49693517     
   10281.800 46.69975304      -12.84851980     0.07913741       0.07142409       7.78427419       49.32650626      2.51985798       2.48354078       65.44821641     
   10281.900 46.86011557      -12.81591758     0.07941424       0.07286076       7.78427419       49.92902509      2.51922311       2.47917101       65.40079707     
   10282.000 47.01972187      -12.78696837     0.07981946       0.07472417       7.78427419       50.70752830      2.51883882       2.46929472       65.35239783     
   10282.100 47.18239841      -12.75496516     0.08022467       0.07475266       7.78427419       51.51722598      2.51870038       2.45788817       65.30447280     
   10282.200 47.34346165      -12.72031120     0.08062989       0.07479318       7.78427419       52.13854077      2.51846023       2.44661761       65.25678971     
   10282.300 47.50539681      -12.69139846     0.08103511       0.07483370       7.78427419       52.56511514      2.51775910       2.43472613       65.20808678     
   10282.400 47.67073049      -12.66519937     0.08144032       0.07487422       7.78427419       52.97327832      2.51662148       2.42471390       65.16172985     
   10282.500 47.82960464      -12.62763889     0.08184554       0.07491474       7.78427419       53.46375051      2.51550708       2.42159555       65.11118590     
   10282.600 48.00089718      -12.58514180     0.08234704       0.07495527       7.78427419       53.94417383      2.51476967       2.42561061       65.06718470     
   10282.700 48.15579401      -12.57638972     0.08314945       0.07499579       7.78427419       54.29242008      2.51423696       2.43130921       65.01423323     
   10282.800 48.33343727      -12.63157040     0.08333353       0.07503631       7.78427419       54.53141188      2.51359895       2.43483819       64.97292873     
   10282.900 48.48422714      -12.73471738     0.08357189       0.07507683       7.78427419       54.77698825      2.51289229       2.43738928       64.91714798     
   10283.000 48.66614332      -12.84567865     0.08381025       0.07511735       7.78427419       55.06906725      2.51227083       2.44093962       64.85533679     
   10283.100 48.89953611      -12.94669566     0.08404862       0.07515787       7.78427419       55.35567566      2.51164446       2.44501426       64.84362731     
   10283.200 48.91590256      -13.04530542     0.08428698       0.07519840       7.78427419       55.62183151      2.51091330       2.44853804       64.79879276     
   10283.300 48.90575586      -13.14675894     0.08452534       0.07523892       7.78427419       55.91135659      2.51026243       2.45175442       64.76525822     
   10283.400 48.90575586      -13.24916760     0.08476370       0.07527944       7.78427419       56.21531238      2.50995248       2.45529565       64.73172368     
   10283.500 48.90575586      -13.35396134     0.08500207       0.07531996       7.78427277       56.46805742      2.50999373       2.45908296       64.69818913     
   10283.600 48.90575586      -13.45872854     0.08524043       0.07536048       7.78427132       56.70788429      2.51015616       2.46263898       64.64788732     
   10283.700 48.90575586      -13.55502495     0.08547879       0.07540100       7.78427235       57.05337288      2.51015904       2.46589292       64.64788732     
