~Version ---------------------------------------------------
VERS. 2.0 : CWLS log ASCII Standard -VERSION 2.0
WRAP.  NO : One Line Per Depth Step
~Well ------------------------------------------------------
STRT .FT              12000.0 : START DEPTH
STOP .FT              13400.0 : STOP DEPTH
STEP .FT   0.1000000000003638 : STEP
NULL .                -999.25 : NULL VALUE
COMP . ENRON OIL &GAS COMPANY : COMPANY
WELL .       CEPO-LEWIS 21-38 : WELL
FLD  .             CEPO-LEWIS : FIELD
LOC  .   1205' FWL &1300' FSL : LOCATION
CNTY .             SWEETWATER : COUNTY
STAT .                WYOMING : STATE
CTRY .                    USA : COUNTRY
SRVC .                        : SERVICE COMPANY
DATE .             25/05/1998 : DATE
API  .             4903724185 : API NUMBER
UWI  .                3724185 : UWI NUMBER
TVD  .                     NO : TVD flag
WSTA .                    LOC : Well status
USGS .                   CEPO : USGS Number
LATI .DEG            41.18194 : LATITUDE
LONG .DEG          -108.14139 : LONGITUDE
UTM-N.             4562894.53 : Northing
UTM-E.              739764.57 : Easting
CORE .FT                 -3.9 : Core/Log Offset
~Curve Information -----------------------------------------
DEPT .FT                : Depth in Feet
GR   .GAPI 35 310 01 01 : Gamma Ray
SP   .MV   01 010 01 01 : Spontaneous Potential
CALI .IN   70 280 01 01 : Caliper
AHT90.OHMM              : 
ILD  .OHMM 05 120 46 01 : Deep Induction Standard Processed Resistivity
HCAL .IN                : 
DPHI .V/V  45 890 01 01 : Density Porosity
NPOR .V/V               : Neutron Porosity Output From An Application Program
RHOB .G/C3 42 350 01 01 : Bulk Density
PEF  .b/e               : Photo-Electric Factor
DT   .US/F 60 520 08 01 : Delta-T
SPHI .V/V  61 890 01 01 : Sonic Porosity
RESD .OHMM              : Deep Resistivity - Merged AHT90 & ILD
~Params ----------------------------------------------------
DATE.  25-05-1998 : Date As Month-Day-Year
RUN .         ONE : Run Number
PDAT.         UNK : Permanent Datum
EPD .FT    6416.0 : Elevation Of Perm. Datum
LMF .          KB : Log Measured From
FAPD.FT      21.0 : Feet Above Perm. Datum
DMF .          KB : Drilling Measured From
EKB .FT    6437.0 : Elevation Of Kelly Bushing
EDF .FT    6436.0 : Elevation Of Derrick Floor
EGL .FT    6416.0 : Elevation Of Ground Level
TD  .FT   13400.0 : Total Depth
DD  .FT   12587.0 : Depth Driller
DL  .FT   12616.0 : Depth Logger
BLI .FT   12602.0 : Bottom Log Interval
TLI .FT    2346.0 : Top Log Interval
DFT .    GEL-CHEM : Drilling Fluid Type
LUN .        8269 : Logging Unit Number
LUL . ROCK SPRING : Logging Unit Location
DGBY.         R2V : 
WSTA.         LOC : 
~Other -----------------------------------------------------
<DescLogPlotStart>   NEURALOG PLOT DEFINITION
PLOTDEFVERSION: 3
LASFILE: C:\nds\projects\mf-nov-13\las\3724185G.las
DEPTHSCALE: 240.000000
RESOLUTION: 200
DEPTHLABELFREQ: 100.000000
HEAVYGRIDFREQ: 100.000000
MEDIUMGRIDFREQ: 50.000000
LIGHTGRIDFREQ: 10.000000
#
#   TRACK 1
#
STARTTRACK:
LEFTX: 0.500000 inch
RIGHTX: 3.000000 inch
SCALETYPE: Linear
NUMCHARTDIVISIONS: 10
CURVE: GR    0.000000   150.000000 (0,0,255)      Solid             2     N
CURVE: SP    -100.000000 0.000000   (0,131,131)    Dot               2     Y
BACKUP: 0.000000   100.000000 (0,131,131)    Dot               2
BACKUP: 100.000000 200.000000 (0,131,131)    Dot               2
BACKUP: 200.000000 300.000000 (0,131,131)    Dot               2
BACKUP: 300.000000 400.000000 (0,131,131)    Dot               2
CURVE: CALI  4.000000   14.000000  (255,0,255)    Short_Dash        2     N
CURVE: HCAL  4.000000   14.000000  (255,0,0)      Medium_Dash       2     Y
BACKUP: -6.000000  4.000000   (255,0,0)      Medium_Dash       2
ENDTRACK:
#
#   TRACK 2
#
STARTTRACK:
LEFTX: 3.500000 inch
RIGHTX: 8.500000 inch
SCALETYPE: Log
NUMCYCLES: 4
STARTCYCLE: 2
CURVE: AHT90 0.200000   2000.000000 (255,131,0)    Solid             2     N
CURVE: ILD   0.200000   2000.000000 (255,255,0)    Dot               2     N
ENDTRACK:
#
#   TRACK 3
#
STARTTRACK:
LEFTX: 3.500000 inch
RIGHTX: 8.500000 inch
SCALETYPE: Linear
NUMCHARTDIVISIONS: 10
CURVE: DPHI  0.300000   -0.100000  (0,0,255)      Solid             2     Y
BACKUP: 0.700000   0.300000   (0,0,255)      Solid             2
CURVE: NPOR  0.300000   -0.100000  (0,131,131)    Dot               2     Y
BACKUP: 0.700000   0.300000   (0,131,131)    Dot               2
ENDTRACK:
#
#   TRACK 4
#
STARTTRACK:
LEFTX: 3.500000 inch
RIGHTX: 8.500000 inch
SCALETYPE: Linear
NUMCHARTDIVISIONS: 10
CURVE: RHOB  2.000000   3.000000   (255,0,255)    Solid             2     Y
BACKUP: 1.000000   2.000000   (255,0,255)    Solid             2
BACKUP: 3.000000   4.000000   (255,0,255)    Solid             2
CURVE: PEF   0.000000   20.000000  (255,0,0)      Dot               2     N
ENDTRACK:
#
#   TRACK 5
#
STARTTRACK:
LEFTX: 3.500000 inch
RIGHTX: 8.500000 inch
SCALETYPE: Linear
NUMCHARTDIVISIONS: 10
CURVE: DT    140.000000 40.000000  (255,131,0)    Solid             2     Y
BACKUP: 240.000000 140.000000 (255,131,0)    Solid             2
ENDTRACK:
<DescLogPlotEnd>
~ASCII -----------------------------------------------------
# ...
 12920.40000   -6.77452  -13.21324    -999.25    -999.25    7.34503    7.32792    0.17783    0.17191    2.38146    2.08365    -999.25    -999.25    7.34503
 12920.50000   -6.66017  -13.17136    -999.25    -999.25    7.34496    7.32818    0.17130    0.17339    2.38688    2.07319    -999.25    -999.25    7.34496
 12920.60000   -6.54259  -13.12458    -999.25    -999.25    7.34495    7.32844    0.17092    0.17533    2.38845    2.06384    -999.25    -999.25    7.34495
 12920.70000   -6.43466  -13.07606    -999.25    -999.25    7.34492    7.32870    0.17033    0.17628    2.38959    2.05485    -999.25    -999.25    7.34492
 12920.80000   -6.32738  -13.03044    -999.25    -999.25    7.34487    7.32896    0.16975    0.17766    2.39177    2.04528    -999.25    -999.25    7.34487
 12920.90000   -6.16203  -12.98519    -999.25    -999.25    7.34487    7.32922    0.16917    0.17905    2.39434    2.03555    -999.25    -999.25    7.34487
 12921.00000   -5.85946  -12.93822    -999.25    -999.25    7.34483    7.32948    0.16848    0.18043    2.39685    2.02614    -999.25    -999.25    7.34483
 12921.10000   -5.40292  -12.89212    -999.25    -999.25    7.34479    7.32974    0.17166    0.18181    2.39846    2.01680    -999.25    -999.25    7.34479
 12921.20000   -4.87805  -12.84718    -999.25    -999.25    7.34483    7.33001    0.17560    0.18338    2.39704    2.00730    -999.25    -999.25    7.34483
 12921.30000   -4.40161  -12.79984    -999.25    -999.25    7.34466    7.33027    0.17954    0.18258    2.39167    1.99775    -999.25    -999.25    7.34466
 12921.40000   -4.00999  -12.75145    -999.25    -999.25    7.34488    7.33053    0.18348    0.18164    2.38451    1.98829    -999.25    -999.25    7.34488
 12921.50000   -3.64887  -12.70775    -999.25    -999.25    7.34488    7.33079    0.18742    0.18071    2.37801    1.97886    -999.25    -999.25    7.34488
 12921.60000   -3.26420  -12.66548    -999.25    -999.25    7.34488    7.33105    0.19136    0.17976    2.37212    1.96937    -999.25    -999.25    7.34488
 12921.70000   -2.85858  -12.61373    -999.25    -999.25    7.34488    7.33131    0.19531    0.18001    2.36591    1.95988    -999.25    -999.25    7.34488
 12921.80000   -2.45651  -12.55921    -999.25    -999.25    7.34488    7.33157    0.19925    0.18026    2.35964    1.95041    -999.25    -999.25    7.34488
 12921.90000   -2.06422  -12.53319    -999.25    -999.25    7.34488    7.33183    0.20319    0.18052    2.35363    1.94097    -999.25    -999.25    7.34488
 12922.00000   -1.67525  -12.55755    -999.25    -999.25    7.34488    7.33209    0.20675    0.18077    2.34719    1.93150    -999.25    -999.25    7.34488
 12922.10000   -1.28162  -12.61641    -999.25    -999.25    7.36348    7.33235    0.20675    0.18103    2.34030    1.92201    -999.25    -999.25    7.36348
 12922.20000   -0.87553  -12.67732    -999.25    -999.25    7.38048    7.33261    0.20675    0.18129    2.33497    1.91256    -999.25    -999.25    7.38048
 12922.30000   -0.46974  -12.72858    -999.25    -999.25    7.39752    7.33287    0.20611    0.18154    2.33302    1.90317    -999.25    -999.25    7.39752
 12922.40000   -0.10765  -12.77939    -999.25    -999.25    7.41460    7.33314    0.20555    0.18180    2.33358    1.89367    -999.25    -999.25    7.41460
 12922.50000    0.17972  -12.83509    -999.25    -999.25    7.43172    7.33341    0.20514    0.18205    2.33419    1.88408    -999.25    -999.25    7.43172
 12922.60000    0.41552  -12.89090    -999.25    -999.25    7.44888    7.33367    0.20256    0.18231    2.33370    1.87469    -999.25    -999.25    7.44888
 12922.70000    0.65138  -12.94408    -999.25    -999.25    7.46608    7.33392    0.20048    0.18256    2.33324    1.86568    -999.25    -999.25    7.46608
 12922.80000    0.90838  -12.99722    -999.25    -999.25    7.48331    7.33421    0.19841    0.18282    2.33432    1.85680    -999.25    -999.25    7.48331
 12922.90000    1.16657  -13.05172    -999.25    -999.25    7.50059    7.33449    0.19633    0.18298    2.33713    1.84781    -999.25    -999.25    7.50059
 12923.00000    1.40774  -13.10627    -999.25    -999.25    7.51791    7.33471    0.19426    0.18298    2.34066    1.83890    -999.25    -999.25    7.51791
 12923.10000    1.64638  -13.16023    -999.25    -999.25    7.53526    7.33493    0.19219    0.18333    2.34397    1.83030    -999.25    -999.25    7.53526
 12923.20000    1.90755  -13.21408    -999.25    -999.25    7.55266    7.33529    0.19011    0.18358    2.34703    1.82184    -999.25    -999.25    7.55266
 12923.30000    2.16759  -13.26802    -999.25    -999.25    7.57009    7.33563    0.18804    0.18382    2.35020    1.81333    -999.25    -999.25    7.57009
 12923.40000    2.34214  -13.32228    -999.25    -999.25    7.58757    7.33572    0.18596    0.18419    2.35351    1.80483    -999.25    -999.25    7.58757
 12923.50000    2.37744  -13.37667    -999.25    -999.25    7.60509    7.33585    0.18389    0.18419    2.35670    1.79633    -999.25    -999.25    7.60509
 12923.60000    2.34278  -13.43049    -999.25    -999.25    7.62265    7.33647    0.18181    0.18375    2.35979    1.78765    -999.25    -999.25    7.62265
 12923.70000    2.35772  -13.48385    -999.25    -999.25    7.64025    7.33700    0.17895    0.18296    2.36307    1.77906    -999.25    -999.25    7.64025
 12923.80000    2.40269  -13.53825    -999.25    -999.25    7.65788    7.33589    0.17625    0.18218    2.36642    1.77085    -999.25    -999.25    7.65788
 12923.90000    2.29688  -13.59355    -999.25    -999.25    7.67556    7.33252    0.17189    0.18140    2.36943    1.76244    -999.25    -999.25    7.67556
 12924.00000    1.94000  -13.64683    -999.25    -999.25    7.69328    7.32804    0.16753    0.18061    2.37240    1.75323    -999.25    -999.25    7.69328
 12924.10000    1.48171  -13.69622    -999.25    -999.25    7.71105    7.32391    0.16318    0.17983    2.37643    1.74447    -999.25    -999.25    7.71105
 12924.20000    1.12961  -13.74366    -999.25    -999.25    7.72885    7.32028    0.15882    0.17905    2.38225    1.73839    -999.25    -999.25    7.72885
 12924.30000    0.84664  -13.79264    -999.25    -999.25    7.74669    7.31651    0.15358    0.17826    2.38912    1.73573    -999.25    -999.25    7.74669
 12924.40000    0.40233  -13.84375    -999.25    -999.25    7.76458    7.31249    0.15291    0.17734    2.39592    1.73580    -999.25    -999.25    7.76458
 12924.50000   -0.29452  -13.89302    -999.25    -999.25    7.78112    7.30856    0.15208    0.17666    2.40252    1.73861    -999.25    -999.25    7.78112
 12924.60000   -1.07879  -13.93649    -999.25    -999.25    7.80087    7.30477    0.15125    0.17583    2.40935    1.74465    -999.25    -999.25    7.80087
 12924.70000   -1.77235  -13.97810    -999.25    -999.25    7.81673    7.30089    0.15042    0.17500    2.41582    1.75282    -999.25    -999.25    7.81673
 12924.80000   -2.39808  -14.02771    -999.25    -999.25    7.83805    7.29694    0.14960    0.17417    2.42057    1.76091    -999.25    -999.25    7.83805
 12924.90000   -3.06953  -14.08459    -999.25    -999.25    7.90649    7.29310    0.14874    0.17334    2.42338    1.76812    -999.25    -999.25    7.90649
 12925.00000   -3.78206  -14.13009    -999.25    -999.25    7.98497    7.28930    0.14874    0.17251    2.42564    1.77530    -999.25    -999.25    7.98497
 12925.10000   -4.44504  -14.14790    -999.25    -999.25    8.05895    7.28534    0.15002    0.17168    2.42813    1.78294    -999.25    -999.25    8.05895
 12925.20000   -5.07237  -14.14527    -999.25    -999.25    8.13931    7.28111    0.15129    0.17085    2.42973    1.79054    -999.25    -999.25    8.13931
 12925.30000   -5.77853  -14.14127    -999.25    -999.25    8.21413    7.27658    0.15256    0.17002    2.42906    1.79791    -999.25    -999.25    8.21413
 12925.40000   -6.56044  -14.14208    -999.25    -999.25    8.29690    7.27140    0.15384    0.16919    2.42654    1.80539    -999.25    -999.25    8.29690
 12925.50000   -7.23966  -14.14272    -999.25    -999.25    8.37203    7.26525    0.15511    0.16836    2.42378    1.81297    -999.25    -999.25    8.37203
