~Version ---------------------------------------------------
VERS. 2.0 : CWLS log ASCII Standard -VERSION 2.0
WRAP.  NO : One Line Per Depth Step
~Well ------------------------------------------------------
STRT .FT              8400.0 : START DEPTH
STOP .FT              9700.0 : STOP DEPTH
STEP .FT  0.1000000000003638 : STEP
NULL .               -999.25 : NULL VALUE
COMP .  PRESIDIO OIL COMPANY : COMPANY
WELL .     J.T. FEDERAL NO.5 : WELL
FLD  .   SOUTH HAY RESOURCES : FIELD
LOC  . 1266' FNL & 1684' FEL : LOCATION
CNTY .            SWEETWATER : COUNTY
STAT .               WYOMING : STATE
CTRY .                   USA : COUNTRY
SRVC .                       : SERVICE COMPANY
DATE .            30/06/1993 : DATE
API  .            4903723152 : API NUMBER
UWI  .               3723152 : UWI NUMBER
TVD  .                    NO : TVD flag
WSTA .                   LOC : Well status
USGS .                  S179 : USGS Number
LATI .DEG           41.97079 : LATITUDE
LONG .DEG           -108.322 : LONGITUDE
UTM-N.            4650002.36 : Northing
UTM-E.             721895.66 : Easting
CORE .                   N/A : Core/Log Offset
~Curve Information -----------------------------------------
DEPT    .FT                : Depth in Feet
GR      .GAPI 35 310 01 01 : Gamma Ray
SP      .MV   01 010 01 01 : Spontaneous Potential
CALI    .IN   70 280 01 01 : Caliper
ILD     .OHMM 05 120 46 01 : Deep Induction Standard Processed Resistivity
DPHI    .V/V  45 890 01 01 : Density Porosity
NPHI    .V/V  42 890 03 01 : Neutron Porosity
PE      .B/E               : PE
DT      .US/F 60 520 08 01 : Delta-T
ACOUSTIC.DEC               : ACOUSTIC
~Params ----------------------------------------------------
DATE. 30-06-1993 : Date As Month-Day-Year
RUN .        ONE : Run Number
PDAT.        UNK : Permanent Datum
EPD .FT   6607.0 : Elevation Of Perm. Datum
LMF .         KB : Log Measured From
FAPD.FT     16.0 : Feet Above Perm. Datum
DMF .         KB : Drilling Measured From
EKB .FT   6623.0 : Elevation Of Kelly Bushing
EDF .FT   6622.0 : Elevation Of Derrick Floor
EGL .FT   6607.0 : Elevation Of Ground Level
TD  .FT   9700.0 : Total Depth
DD  .FT   9780.0 : Depth Driller
DL  .FT   9724.0 : Depth Logger
BLI .FT   9720.0 : Bottom Log Interval
CSIZ.IN  9.625IN : Casing Size
CBD1.       1698 : Casing Bottom (Driller) 1
CBL1.       1697 : Casing Bottom (Logger) 1
BS  .IN  7.875IN : Bit Size
DFT .        GEL : Drilling Fluid Type
DFV .S      55.0 : Drilling Fluid Viscosity
DFD .LB/G   10.2 : Drilling Fluid Density
DFL .ML      7.6 : Drilling Fluid Loss
DFPH.        9.5 : Drilling Fluid Ph
MSS .   FLOWLINE : Mud Sample Source
RMS .OHMM    1.5 : Resistivity Of Mud Sample
MST .DEGF   74.0 : Mud Sample Temperature
RMF .OHMM    1.8 : Mud Filtrate Resistivity
MFST.DEGF   66.0 : Mud Filtrate Sample Temperature
RMC .OHMM   2.44 : Mud Cake Resistivity
MCST.DEGF   69.0 : Mud Cake Sample Temperature
RMB .OHMM    0.6 : Mud Resistivity At Bht
BHT .DEGF  197.0 : Bottom Hole Temperature
MRT .DEGF  197.0 : Maximum Recorded Temperature
LUN .      52546 : Logging Unit Number
LUL .      VERNL : Logging Unit Location
ENGI.    K EVATT : Engineer'S Name
WITN.    HEFFNER : Witness' Name
DGBY.        R2V : 
WSTA.        LOC : 
~Other -----------------------------------------------------
<DescLogPlotStart>   NEURALOG PLOT DEFINITION
PLOTDEFVERSION: 3
LASFILE: C:\nds\projects\mf-nov-13\las\3723152A.las
DEPTHSCALE: 240.000000
RESOLUTION: 200
DEPTHLABELFREQ: 100.000000
HEAVYGRIDFREQ: 100.000000
MEDIUMGRIDFREQ: 50.000000
LIGHTGRIDFREQ: 10.000000
#
#   TRACK 1
#
STARTTRACK:
LEFTX: 0.500000 inch
RIGHTX: 3.000000 inch
SCALETYPE: Linear
NUMCHARTDIVISIONS: 10
CURVE: GR    0.000000   150.000000 (0,0,255)      Solid             2     N
CURVE: SP    -100.000000 0.000000   (0,131,131)    Dot               2     N
ENDTRACK:
#
#   TRACK 2
#
STARTTRACK:
LEFTX: 0.500000 inch
RIGHTX: 3.000000 inch
SCALETYPE: Linear
NUMCHARTDIVISIONS: 10
CURVE: CALI  6.000000   16.000000  (255,0,255)    Solid             2     Y
BACKUP: -4.000000  6.000000   (255,0,255)    Solid             2
ENDTRACK:
#
#   TRACK 3
#
STARTTRACK:
LEFTX: 3.500000 inch
RIGHTX: 8.500000 inch
SCALETYPE: Log
NUMCYCLES: 4
STARTCYCLE: 2
CURVE: ILD   0.200000   2000.000000 (255,0,0)      Solid             2     N
ENDTRACK:
#
#   TRACK 4
#
STARTTRACK:
LEFTX: 3.500000 inch
RIGHTX: 8.500000 inch
SCALETYPE: Linear
NUMCHARTDIVISIONS: 10
CURVE: DPHI  0.300000   -0.100000  (255,131,0)    Solid             2     Y
BACKUP: 0.700000   0.300000   (255,131,0)    Solid             2
CURVE: NPHI  0.300000   -0.100000  (255,255,0)    Dot               2     Y
BACKUP: 0.700000   0.300000   (255,255,0)    Dot               2
ENDTRACK:
#
#   TRACK 5
#
STARTTRACK:
LEFTX: 3.500000 inch
RIGHTX: 6.000000 inch
SCALETYPE: Linear
NUMCHARTDIVISIONS: 10
CURVE: PE    0.000000   10.000000  (0,0,255)      Solid             2     N
ENDTRACK:
#
#   TRACK 6
#
STARTTRACK:
LEFTX: 8.500000 inch
RIGHTX: 13.500000 inch
SCALETYPE: Linear
NUMCHARTDIVISIONS: 10
CURVE: DT    140.000000 40.000000  (0,131,131)    Solid             2     Y
BACKUP: 40.000000  -60.000000 (0,131,131)    Solid             2
CURVE: ACOUSTIC 0.300000   -0.100000  (255,0,255)    Dot               2     Y
BACKUP: 0.700000   0.300000   (255,0,255)    Dot               2
BACKUP: -0.100000  -0.500000  (255,0,255)    Dot               2
ENDTRACK:
<DescLogPlotEnd>
~ASCII -----------------------------------------------------
# ...
 9670.20000    -999.25   -7.81992    -999.25    5.89923    0.03272    0.24287    3.40788    -999.25    -999.25
 9670.30000    -999.25   -7.80374    -999.25    5.94428    0.03272    0.24283    3.41289    -999.25    -999.25
 9670.40000    -999.25   -7.79218    -999.25    5.98147    0.03313    0.24279    3.41632    -999.25    -999.25
 9670.50000    -999.25   -7.82671    -999.25    6.02546    0.03313    0.24275    3.41846    -999.25    -999.25
 9670.60000    -999.25   -7.94647    -999.25    6.06486    0.03356    0.24271    3.42116    -999.25    -999.25
 9670.70000    -999.25   -8.14240    -999.25    6.10789    0.03422    0.24268    3.42566    -999.25    -999.25
 9670.80000    -999.25   -8.36819    -999.25    6.14916    0.03488    0.24264    3.43127    -999.25    -999.25
 9670.90000    -999.25   -8.58489    -999.25    6.19175    0.03554    0.24260    3.43666    -999.25    -999.25
 9671.00000    -999.25   -8.78294    -999.25    6.23429    0.03620    0.24256    3.44163    -999.25    -999.25
 9671.10000    -999.25   -8.98002    -999.25    6.27706    0.03685    0.24252    3.44673    -999.25    -999.25
 9671.20000    -999.25   -9.20267    -999.25    6.32043    0.03760    0.24248    3.45207    -999.25    -999.25
 9671.30000    -999.25   -9.43899    -999.25    6.36388    0.03734    0.24245    3.45727    -999.25    -999.25
 9671.40000    -999.25   -9.61030    -999.25    6.40762    0.03703    0.24241    3.46233    -999.25    -999.25
 9671.50000    -999.25   -9.63716    -999.25    6.45167    0.03672    0.24237    3.46757    -999.25    -999.25
 9671.60000    -999.25   -9.53340    -999.25    6.49601    0.03642    0.24233    3.47289    -999.25    -999.25
 9671.70000    -999.25   -9.38888    -999.25    6.54067    0.03611    0.24229    3.47792    -999.25    -999.25
 9671.80000    -999.25   -9.26162    -999.25    6.58562    0.03580    0.24226    3.48287    -999.25    -999.25
 9671.90000    -999.25   -9.14237    -999.25    6.63089    0.03549    0.24222    3.48839    -999.25    -999.25
 9672.00000    -999.25   -9.01704    -999.25    6.67647    0.03519    0.24218    3.49406    -999.25    -999.25
 9672.10000    -999.25   -8.89395    -999.25    6.72236    0.03488    0.24214    3.49812    -999.25    -999.25
 9672.20000    -999.25   -8.76844    -999.25    6.76857    0.03457    0.24210    3.49951    -999.25    -999.25
 9672.30000    -999.25   -8.62973    -999.25    6.81510    0.03427    0.24207    3.49923    -999.25    -999.25
 9672.40000    -999.25   -8.50690    -999.25    6.86194    0.03396    0.24207    3.49891    -999.25    -999.25
 9672.50000    -999.25   -8.44249    -999.25    6.90911    0.03365    0.24207    3.49883    -999.25    -999.25
 9672.60000    -999.25   -8.41822    -999.25    6.97771    0.03334    0.24207    3.49831    -999.25    -999.25
 9672.70000    -999.25   -8.36992    -999.25    7.04333    0.03313    0.24207    3.49721    -999.25    -999.25
 9672.80000    -999.25   -8.27808    -999.25    7.04333    0.03272    0.24207    3.49610    -999.25    -999.25
 9672.90000    -999.25   -8.18421    -999.25    7.05673    0.03272    0.24207    3.49524    -999.25    -999.25
 9673.00000    -999.25   -8.11667    -999.25    7.07790    0.03272    0.24207    3.49438    -999.25    -999.25
 9673.10000    -999.25   -8.05621    -999.25    7.09913    0.03232    0.24212    3.49339    -999.25    -999.25
 9673.20000    -999.25   -7.98362    -999.25    7.12043    0.03232    0.24216    3.49240    -999.25    -999.25
 9673.30000    -999.25   -7.90761    -999.25    7.14178    0.03232    0.24220    3.49144    -999.25    -999.25
 9673.40000    -999.25   -7.83875    -999.25    7.16321    0.03232    0.24223    3.49051    -999.25    -999.25
 9673.50000    -999.25   -7.77205    -999.25    7.18470    0.03232    0.24227    3.48959    -999.25    -999.25
 9673.60000    -999.25   -7.70270    -999.25    7.20625    0.03251    0.24231    3.48855    -999.25    -999.25
 9673.70000    -999.25   -7.63252    -999.25    7.22786    0.03284    0.24234    3.48748    -999.25    -999.25
 9673.80000    -999.25   -7.56102    -999.25    7.24955    0.03318    0.24238    3.48662    -999.25    -999.25
 9673.90000    -999.25   -7.48952    -999.25    7.27129    0.03351    0.24241    3.48588    -999.25    -999.25
 9674.00000    -999.25   -7.42388    -999.25    7.29310    0.03394    0.24245    3.48467    -999.25    -999.25
 9674.10000    -999.25   -7.35770    -999.25    7.31203    0.03394    0.24249    3.48327    -999.25    -999.25
 9674.20000    -999.25   -7.27734    -999.25    7.31203    0.03394    0.24252    3.48281    -999.25    -999.25
 9674.30000    -999.25   -7.20084    -999.25    7.31203    0.03394    0.24256    3.48263    -999.25    -999.25
 9674.40000    -999.25   -7.18154    -999.25    7.38080    0.03354    0.24260    3.48072    -999.25    -999.25
 9674.50000    -999.25   -7.24462    -999.25    7.38080    0.03354    0.24263    3.47814    -999.25    -999.25
 9674.60000    -999.25   -7.34600    -999.25    7.38080    0.03313    0.24267    3.47896    -999.25    -999.25
 9674.70000    -999.25   -7.42706    -999.25    7.38080    0.03301    0.24271    3.48394    -999.25    -999.25
 9674.80000    -999.25   -7.48121    -999.25    7.38080    0.03287    0.24274    3.49049    -999.25    -999.25
 9674.90000    -999.25   -7.54063    -999.25    7.38080    0.03273    0.24278    3.50114    -999.25    -999.25
 9675.00000    -999.25   -7.62283    -999.25    7.38080    0.03259    0.24282    -999.25    -999.25    -999.25
 9675.10000    -999.25   -7.71531    -999.25    7.36386    0.03245    0.24285    -999.25    -999.25    -999.25
 9675.20000    -999.25   -7.79653    -999.25    7.33135    0.03231    0.24289    -999.25    -999.25    -999.25
 9675.30000    -999.25   -7.85819    -999.25    7.29898    0.03217    0.24289    -999.25    -999.25    -999.25
 9675.40000    -999.25   -7.92541    -999.25    7.26675    0.03203    0.24273    -999.25    -999.25    -999.25
 9675.50000    -999.25   -8.04907    -999.25    7.23467    0.03191    0.24259    -999.25    -999.25    -999.25
 9675.60000    -999.25   -8.25516    -999.25    7.20273    0.03101    0.24248    -999.25    -999.25    -999.25
 9675.70000    -999.25   -8.50889    -999.25    7.17093    0.03023    0.24335    -999.25    -999.25    -999.25
 9675.80000    -999.25   -8.75402    -999.25    7.13927    0.02944    0.24410    -999.25    -999.25    -999.25
 9675.90000    -999.25   -8.97610    -999.25    7.10775    0.02866    0.24484    -999.25    -999.25    -999.25
 9676.00000    -999.25   -9.20158    -999.25    7.07637    0.02787    0.24559    -999.25    -999.25    -999.25
 9676.10000    -999.25   -9.44409    -999.25    7.04513    0.02709    0.24633    -999.25    -999.25    -999.25
 9676.20000    -999.25   -9.68421    -999.25    7.01402    0.02630    0.24708    -999.25    -999.25    -999.25
 9676.30000    -999.25   -9.89191    -999.25    6.98306    0.02581    0.24782    -999.25    -999.25    -999.25
 9676.40000    -999.25  -10.03861    -999.25    6.95223    0.02516    0.24856    -999.25    -999.25    -999.25
 9676.50000    -999.25  -10.08387    -999.25    6.92153    0.02469    0.24898    -999.25    -999.25    -999.25
 9676.60000    -999.25   -9.98982    -999.25    6.89097    0.02422    0.24939    -999.25    -999.25    -999.25
 9676.70000    -999.25   -9.77347    -999.25    6.86055    0.02375    0.25061    -999.25    -999.25    -999.25
 9676.80000    -999.25   -9.52057    -999.25    6.83026    0.02328    0.25224    -999.25    -999.25    -999.25
 9676.90000    -999.25   -9.30805    -999.25    6.80010    0.02281    0.25284    -999.25    -999.25    -999.25
 9677.00000    -999.25   -9.12279    -999.25    6.77008    0.02215    0.25394    -999.25    -999.25    -999.25
 9677.10000    -999.25   -8.90325    -999.25    6.74019    0.02215    0.25504    -999.25    -999.25    -999.25
 9677.20000    -999.25   -8.65579    -999.25    6.71043    0.02134    0.25614    -999.25    -999.25    -999.25
 9677.30000    -999.25   -8.46743    -999.25    6.68081    0.02053    0.25724    -999.25    -999.25    -999.25
 9677.40000    -999.25   -8.39053    -999.25    6.65126    0.01972    0.25834    -999.25    -999.25    -999.25
