~Version Information Block
 VERS.                2.00:     CWLS LOG ASCII STANDARD - VERSION 2.000000
 WRAP.                  NO:     One Line Per Depth Step
#
~Well Information Block
#MNEM.UNIT                     Data                         Information
#----------   ------------------------------------------   ----------------
 STRT.FT                                    12600.0000:     START DEPTH
 STOP.FT                                    13950.0000:     STOP DEPTH
 STEP.FT                                        0.1000:     STEP
 NULL.                                       -999.2500:     NULL VALUE
 COMP.                        PRESIDIO EXPLORATION INC:     COMPANY
 WELL.                          PICKETLAKE UNIT #40-13:     WELL
 FLD .                                         WILDCAT:     FIELD
 LOC .                           1320' FSL & 1320' FEL:     LOCATION
 CNTY.                                      SWEETWATER:     COUNTY
 STAT.                                         WYOMING:     STATE
 CTRY.                                             USA:     COUNTRY
 SRVC.                                                :     SERVICE COMPANY
 DATE.                                      15/05/1995:     DATE
 API .                                      4903723472:     API NUMBER
 UWI .                                         3723472:     UWI NUMBER
 TVD .                                              NO:     TVD flag
 WSTA.                                             LOC:     Well status
 USGS.                                            F042:     USGS Number
 LATI.DEG                                     42.22387:     LATITUDE
 LONG.DEG                                   -108.34765:     LONGITUDE
 UTM-N.                                     4678038.95:     Northing
 UTM-E.                                       718897.4:     Easting
 CORE.                                              +5:     Core/Log Offset
#
~Curve Information Block
#MNEM.UNIT       API CODE      Curve Description
#----------    -------------   -------------------
 DEPT.FT                   :   Depth in Feet
 DTCO.US/F     60 520 08 01:   DTCO
 SPHI.V/V      61 890 01 01:   Sonic Porosity
 GR  .GAPI     35 310 01 01:   Gamma Ray
 CALI.IN       70 280 01 01:   Caliper
 ILD .OHMM     05 120 46 01:   Deep Induction Standard Processed Resistivity
 SP  .MV       01 010 01 01:   Spontaneous Potential
 PEF .b/e                  :   Photo-Electric Factor
 RHOB.G/C3     42 350 01 01:   Bulk Density
 DPHI.V/V      45 890 01 01:   Density Porosity
 NPHI.V/V      42 890 03 01:   Neutron Porosity
#
~Parameter Information Block
#MNEM.UNIT            Value               Description
#----------    --------------------    -------------------
 DATE.                  15-05-1995:    Date As Month-Day-Year
 RUN .                         ONE:    Run Number
 PDAT.                         UNK:    Permanent Datum
 EPD .FT                 7224.0000:    Elevation Of Perm. Datum
 LMF .                          KB:    Log Measured From
 FAPD.FT                   15.0000:    Feet Above Perm. Datum
 DMF .                          KB:    Drilling Measured From
 EKB .FT                 7240.0000:    Elevation Of Kelly Bushing
 EDF .FT                 7239.0000:    Elevation Of Derrick Floor
 EGL .FT                 7224.0000:    Elevation Of Ground Level
 TD  .FT                13950.0000:    Total Depth
 DD  .FT                13957.0000:    Depth Driller
 DL  .FT                13952.0000:    Depth Logger
 BLI .FT                13925.0000:    Bottom Log Interval
 TLI .FT                10000.0000:    Top Log Interval
 CSIZ.IN                   9.625IN:    Casing Size
 CBD1.                        2520:    Casing Bottom (Driller) 1
 CBL1.                        2518:    Casing Bottom (Logger) 1
 BS  .IN                   7.875IN:    Bit Size
 DFT .                         WTD:    Drilling Fluid Type
 DFV .S                    74.0000:    Drilling Fluid Viscosity
 DFD .LB/G                 10.8000:    Drilling Fluid Density
 DFL .ML                    7.2000:    Drilling Fluid Loss
 DFPH.                      9.5000:    Drilling Fluid Ph
 MSS .                     MUDTANK:    Mud Sample Source
 RMS .OHMM                  4.3300:    Resistivity Of Mud Sample
 MST .DEGF                 65.0000:    Mud Sample Temperature
 RMF .OHMM                  3.3800:    Mud Filtrate Resistivity
 MFST.DEGF                 65.0000:    Mud Filtrate Sample Temperature
 RMC .OHMM                  4.5000:    Mud Cake Resistivity
 MCST.DEGF                 65.0000:    Mud Cake Sample Temperature
 RMB .OHMM                  1.3760:    Mud Resistivity At Bht
 BHT .DEGF                219.0000:    Bottom Hole Temperature
 MRT .DEGF                219.0000:    Maximum Recorded Temperature
 LUN .                        8415:    Logging Unit Number
 LUL .                      CASPER:    Logging Unit Location
 ENGI.               T.CHRISTENSEN:    Engineer'S Name
 WITN.                STEVE HEFNER:    Witness' Name
 DGBY.                         R2V:    
 WSTA.                         LOC:    
#
~Other Information Block
<DescLogPlotStart>   NEURALOG PLOT DEFINITION
PLOTDEFVERSION: 3
LASFILE: C:\nds\projects\mf-nov-13\las\3723472C.las
DEPTHSCALE: 240.000000
RESOLUTION: 200
DEPTHLABELFREQ: 100.000000
HEAVYGRIDFREQ: 100.000000
MEDIUMGRIDFREQ: 50.000000
LIGHTGRIDFREQ: 10.000000
#
#   TRACK 1
#
STARTTRACK: 
 LEFTX: 0.500000 inch
 RIGHTX: 3.000000 inch
 SCALETYPE: Linear
 NUMCHARTDIVISIONS: 10
CURVE: DTCO  140.000000 40.000000  (0,0,255)      Solid             2     N    
CURVE: SPHI  0.300000   -0.100000  (0,131,131)    Dot               2     N    
ENDTRACK: 
#
#   TRACK 2
#
STARTTRACK: 
 LEFTX: 3.500000 inch
 RIGHTX: 6.000000 inch
 SCALETYPE: Linear
 NUMCHARTDIVISIONS: 10
CURVE: GR    0.000000   150.000000 (255,0,255)    Solid             2     Y    
BACKUP: 150.000000 300.000000 (255,0,255)    Solid             2    
CURVE: CALI  6.000000   16.000000  (255,0,0)      Dot               2     N    
ENDTRACK: 
#
#   TRACK 3
#
STARTTRACK: 
 LEFTX: 6.000000 inch
 RIGHTX: 11.000000 inch
 SCALETYPE: Log
 NUMCYCLES: 4
 STARTCYCLE: 2
CURVE: ILD   0.200000   2000.000000 (255,131,0)    Solid             2     N   
ENDTRACK: 
#
#   TRACK 4
#
STARTTRACK: 
 LEFTX: 11.000000 inch
 RIGHTX: 13.500000 inch
 SCALETYPE: Linear
 NUMCHARTDIVISIONS: 10
CURVE: SP    -80.000000 20.000000  (255,255,0)    Solid             2     N    
ENDTRACK: 
#
#   TRACK 5
#
STARTTRACK: 
 LEFTX: 13.500000 inch
 RIGHTX: 18.500000 inch
 SCALETYPE: Linear
 NUMCHARTDIVISIONS: 10
CURVE: PEF   0.000000   10.000000  (0,0,255)      Solid             2     N    
CURVE: RHOB  2.000000   3.000000   (0,131,131)    Dot               2     Y    
BACKUP: 1.000000   2.000000   (0,131,131)    Dot               2    
ENDTRACK: 
#
#   TRACK 6
#
STARTTRACK: 
 LEFTX: 18.500000 inch
 RIGHTX: 23.500000 inch
 SCALETYPE: Linear
 NUMCHARTDIVISIONS: 10
CURVE: DPHI  0.300000   -0.100000  (255,0,255)    Solid             2     N    
CURVE: NPHI  0.300000   -0.100000  (255,0,0)      Dot               2     Y    
BACKUP: 0.700000   0.300000   (255,0,0)      Dot               2    
ENDTRACK: 
<DescLogPlotEnd>
~A DEPTH     DTCO             SPHI             GR               CALI             ILD              SP               PEF              RHOB             DPHI             NPHI            
# ...
   13858.400 62.84111446      0.08456827       102.00674504     8.44539035       6.33639038       10.49087714      5.10794058       2.33754572       0.18534615       0.28893360      
   13858.500 61.95449331      0.08080742       102.75598697     8.44547849       6.52039892       10.47259884      4.85831789       2.36224182       0.17044814       0.26657813      
   13858.600 61.89841706      0.07703066       103.64602248     8.44556664       6.70975105       10.45424665      4.61104418       2.38585485       0.15611194       0.24759938      
   13858.700 61.95261626      0.07664259       104.51953770     8.44565478       6.90460197       10.43572446      4.36377047       2.40946787       0.14177575       0.23148626      
   13858.800 61.90478774      0.07809963       105.31847293     8.44574293       7.10511134       10.41724398      4.11649676       2.43308090       0.12743955       0.21283195      
   13858.900 61.94664498      0.07934082       106.17124889     8.44583107       7.31144350       10.39884468      3.86922305       2.45669392       0.11310335       0.19632689      
   13859.000 62.07728865      0.08103121       106.98819058     8.44591922       7.52376754       10.38042432      3.71987952       2.48030694       0.09876715       0.17808769      
   13859.100 62.33087038      0.08240065       107.36380460     8.44600736       7.74225747       10.36196853      3.58303213       2.50391997       0.08443095       0.16118583      
   13859.200 62.54257618      0.08399132       107.06723185     8.44609551       7.96709233       10.34352020      3.48500669       2.52753299       0.07605634       0.14329258      
   13859.300 62.78285134      0.08542908       106.31012862     8.44618365       8.19845638       10.32509239      3.42871486       2.55114601       0.06119048       0.12611719      
   13859.400 63.00404371      0.08698581       105.43759249     8.44627180       8.33198166       10.30665619      3.42389558       2.57475904       0.05069081       0.11603560      
   13859.500 63.23968940      0.08842581       104.59581695     8.44635994       8.55589126       10.28822000      3.42051539       2.58785141       0.04019115       0.11619251      
   13859.600 63.46108689      0.09000846       103.78835567     8.44644809       8.71540168       10.26978380      3.41867470       2.60426908       0.02969148       0.12095601      
   13859.700 63.70037531      0.09140528       103.01412976     8.44653623       8.87788591       10.25134760      3.47561684       2.61562651       0.01919182       0.12445775      
   13859.800 63.91538865      0.09303922       102.25288386     8.44662438       9.04339939       10.23291141      3.51474036       2.62698394       0.01368209       0.12775054      
   13859.900 64.16232366      0.09438281       101.46349158     8.44671252       9.21199860       10.21447521      3.55386387       2.63834137       0.00968074       0.13121761      
   13860.000 64.37001942      0.09604904       100.65905947     8.44680067       9.38374106       10.19603902      3.59298738       2.64407631       0.00696842       0.13454460      
   13860.100 64.60789102      0.09819277       99.89634357      8.44688882       9.55868537       10.17760282      3.62899445       2.64088177       0.00425609       0.13807994      
   13860.200 64.94979920      0.09819277       99.15203706      8.44697696       9.73689123       10.15916663      3.67876795       2.63459303       0.00281690       0.14145935      
   13860.300 64.94979920      0.09979920       98.33699479      8.44706511       9.91841945       10.14073043      3.72114004       2.62896570       0.00906237       0.14483877      
   13860.400 65.00000000      0.10140562       97.45626229      8.44715325       10.10333195      10.12229424      3.73931082       2.62280940       0.01331277       0.14821818      
   13860.500 65.03346720      0.10140562       96.66533294      8.44724140       10.29169185      10.10385804      3.74001657       2.61665041       0.01756316       0.15159759      
   13860.600 65.06693440      0.10140562       96.10648639      8.44732954       10.48356340      10.08542185      3.73935232       2.61112377       0.02181355       0.15497700      
   13860.700 65.10040161      0.10140562       95.71841484      8.44741769       10.67901208      10.06698565      3.73518426       2.60468660       0.02606394       0.15835642      
   13860.800 65.15060241      0.10140562       95.31295829      8.44750583       10.87810457      10.04854945      3.71106306       2.59866602       0.03031433       0.16056338      
   13860.900 65.15060241      0.10120482       94.79693706      8.44759398       11.08090882      10.03011326      3.66357650       2.59358003       0.03456472       0.16056338      
   13861.000 65.02151463      0.10100402       94.26067084      8.44768212       11.28749402      10.01167706      3.60987705       2.58585499       0.03881511       0.16136821      
   13861.100 64.93545611      0.09939759       93.85475179      8.44777027       11.49793065      9.99324087       3.56514349       2.57883259       0.04185111       0.15590825      
   13861.200 64.84939759      0.09939759       93.62699772      8.44785841       11.71229053      9.97480467       3.52601366       2.57752022       0.04185111       0.15172797      
   13861.300 64.76333907      0.09799197       93.50027604      8.44794656       11.84856651      9.95636848       3.48233411       2.57754714       0.04185111       0.14754769      
   13861.400 64.67728055      0.09705489       93.37383389      8.44803470       12.07204114      9.93793228       3.43504624       2.57886340       0.04185111       0.14336740      
   13861.500 64.54819277      0.09611780       93.21689652      8.44812285       12.23736388      9.91949609       3.39253338       2.58583576       0.04185111       0.13918712      
   13861.600 64.52939083      0.09502038       93.05808205      8.44821099       12.40495066      9.90105989       3.35344504       2.59245340       0.04104628       0.13500684      
   13861.700 64.14171743      0.09393581       92.91490038      8.44829914       12.57483248      9.88262370       3.30694611       2.59889356       0.04064386       0.13082656      
   13861.800 63.80180168      0.09368500       92.77273748      8.44838728       12.74704079      9.86418750       3.25298938       2.60460177       0.03536821       0.12664628      
   13861.900 63.56700331      0.08938601       92.62164065      8.44847543       12.92160743      9.84575131       3.20981324       2.61037756       0.03083300       0.12246600      
   13862.000 63.22172993      0.08633012       92.47033612      8.44856357       13.09856470      9.82731511       3.19251145       2.61643511       0.02629779       0.11871227      
   13862.100 62.98954903      0.08335168       92.32327466      8.44865172       13.27794535      9.80887891       3.19431254       2.62244170       0.02176258       0.11871227      
   13862.200 62.64464245      0.07895751       92.17610447      8.44873986       13.45978256      9.79044272       3.19864591       2.62844308       0.01722736       0.11871227      
   13862.300 62.26438248      0.07884255       92.02703405      8.44882801       13.64410997      9.77200652       3.20125418       2.63452387       0.01269215       0.11911469      
   13862.400 62.21472936      0.07794449       91.87906097      8.44891615       13.83096169      9.75357033       3.20868808       2.64033179       0.00815694       0.12116700      
   13862.500 62.02257098      0.07712710       91.73054763      8.44900430       14.02037228      9.73513413       3.22194064       2.64598530       0.00362173       0.12313883      
   13862.600 61.82576143      0.07653811       91.57935600      8.44909244       14.21237678      9.71669794       3.23447990       2.65236373       0.00078229       0.12511066      
   13862.700 61.70054292      0.07579768       91.43048732      8.44918059       14.40701073      9.69827262       3.24304097       2.65938888       -0.00205714      0.12708249      
