~Version ---------------------------------------------------
VERS. 2.0 : CWLS log ASCII Standard -VERSION 2.0
WRAP.  NO : One Line Per Depth Step
~Well ------------------------------------------------------
STRT .FT              8400.0 : START DEPTH
STOP .FT              9700.0 : STOP DEPTH
STEP .FT  0.1000000000003638 : STEP
NULL .               -999.25 : NULL VALUE
COMP .  PRESIDIO OIL COMPANY : COMPANY
WELL .     J.T. FEDERAL NO.5 : WELL
FLD  .   SOUTH HAY RESOURCES : FIELD
LOC  . 1266' FNL & 1684' FEL : LOCATION
CNTY .            SWEETWATER : COUNTY
STAT .               WYOMING : STATE
CTRY .                   USA : COUNTRY
SRVC .                       : SERVICE COMPANY
DATE .            30/06/1993 : DATE
API  .            4903723152 : API NUMBER
UWI  .               3723152 : UWI NUMBER
TVD  .                    NO : TVD flag
WSTA .                   LOC : Well status
USGS .                  S179 : USGS Number
LATI .DEG           41.97079 : LATITUDE
LONG .DEG           -108.322 : LONGITUDE
UTM-N.            4650002.36 : Northing
UTM-E.             721895.66 : Easting
CORE .                   N/A : Core/Log Offset
~Curve Information -----------------------------------------
DEPT    .FT                : Depth in Feet
GR      .GAPI 35 310 01 01 : Gamma Ray
SP      .MV   01 010 01 01 : Spontaneous Potential
CALI    .IN   70 280 01 01 : Caliper
ILD     .OHMM 05 120 46 01 : Deep Induction Standard Processed Resistivity
DPHI    .V/V  45 890 01 01 : Density Porosity
NPHI    .V/V  42 890 03 01 : Neutron Porosity
PE      .B/E               : PE
DT      .US/F 60 520 08 01 : Delta-T
ACOUSTIC.DEC               : ACOUSTIC
~Params ----------------------------------------------------
DATE. 30-06-1993 : Date As Month-Day-Year
RUN .        ONE : Run Number
PDAT.        UNK : Permanent Datum
EPD .FT   6607.0 : Elevation Of Perm. Datum
LMF .         KB : Log Measured From
FAPD.FT     16.0 : Feet Above Perm. Datum
DMF .         KB : Drilling Measured From
EKB .FT   6623.0 : Elevation Of Kelly Bushing
EDF .FT   6622.0 : Elevation Of Derrick Floor
EGL .FT   6607.0 : Elevation Of Ground Level
TD  .FT   9700.0 : Total Depth
DD  .FT   9780.0 : Depth Driller
DL  .FT   9724.0 : Depth Logger
BLI .FT   9720.0 : Bottom Log Interval
CSIZ.IN  9.625IN : Casing Size
CBD1.       1698 : Casing Bottom (Driller) 1
CBL1.       1697 : Casing Bottom (Logger) 1
BS  .IN  7.875IN : Bit Size
DFT .        GEL : Drilling Fluid Type
DFV .S      55.0 : Drilling Fluid Viscosity
DFD .LB/G   10.2 : Drilling Fluid Density
DFL .ML      7.6 : Drilling Fluid Loss
DFPH.        9.5 : Drilling Fluid Ph
MSS .   FLOWLINE : Mud Sample Source
RMS .OHMM    1.5 : Resistivity Of Mud Sample
MST .DEGF   74.0 : Mud Sample Temperature
RMF .OHMM    1.8 : Mud Filtrate Resistivity
MFST.DEGF   66.0 : Mud Filtrate Sample Temperature
RMC .OHMM   2.44 : Mud Cake Resistivity
MCST.DEGF   69.0 : Mud Cake Sample Temperature
RMB .OHMM    0.6 : Mud Resistivity At Bht
BHT .DEGF  197.0 : Bottom Hole Temperature
MRT .DEGF  197.0 : Maximum Recorded Temperature
LUN .      52546 : Logging Unit Number
LUL .      VERNL : Logging Unit Location
ENGI.    K EVATT : Engineer'S Name
WITN.    HEFFNER : Witness' Name
DGBY.        R2V : 
WSTA.        LOC : 
~Other -----------------------------------------------------
<DescLogPlotStart>   NEURALOG PLOT DEFINITION
PLOTDEFVERSION: 3
LASFILE: C:\nds\projects\mf-nov-13\las\3723152A.las
DEPTHSCALE: 240.000000
RESOLUTION: 200
DEPTHLABELFREQ: 100.000000
HEAVYGRIDFREQ: 100.000000
MEDIUMGRIDFREQ: 50.000000
LIGHTGRIDFREQ: 10.000000
#
#   TRACK 1
#
STARTTRACK:
LEFTX: 0.500000 inch
RIGHTX: 3.000000 inch
SCALETYPE: Linear
NUMCHARTDIVISIONS: 10
CURVE: GR    0.000000   150.000000 (0,0,255)      Solid             2     N
CURVE: SP    -100.000000 0.000000   (0,131,131)    Dot               2     N
ENDTRACK:
#
#   TRACK 2
#
STARTTRACK:
LEFTX: 0.500000 inch
RIGHTX: 3.000000 inch
SCALETYPE: Linear
NUMCHARTDIVISIONS: 10
CURVE: CALI  6.000000   16.000000  (255,0,255)    Solid             2     Y
BACKUP: -4.000000  6.000000   (255,0,255)    Solid             2
ENDTRACK:
#
#   TRACK 3
#
STARTTRACK:
LEFTX: 3.500000 inch
RIGHTX: 8.500000 inch
SCALETYPE: Log
NUMCYCLES: 4
STARTCYCLE: 2
CURVE: ILD   0.200000   2000.000000 (255,0,0)      Solid             2     N
ENDTRACK:
#
#   TRACK 4
#
STARTTRACK:
LEFTX: 3.500000 inch
RIGHTX: 8.500000 inch
SCALETYPE: Linear
NUMCHARTDIVISIONS: 10
CURVE: DPHI  0.300000   -0.100000  (255,131,0)    Solid             2     Y
BACKUP: 0.700000   0.300000   (255,131,0)    Solid             2
CURVE: NPHI  0.300000   -0.100000  (255,255,0)    Dot               2     Y
BACKUP: 0.700000   0.300000   (255,255,0)    Dot               2
ENDTRACK:
#
#   TRACK 5
#
STARTTRACK:
LEFTX: 3.500000 inch
RIGHTX: 6.000000 inch
SCALETYPE: Linear
NUMCHARTDIVISIONS: 10
CURVE: PE    0.000000   10.000000  (0,0,255)      Solid             2     N
ENDTRACK:
#
#   TRACK 6
#
STARTTRACK:
LEFTX: 8.500000 inch
RIGHTX: 13.500000 inch
SCALETYPE: Linear
NUMCHARTDIVISIONS: 10
CURVE: DT    140.000000 40.000000  (0,131,131)    Solid             2     Y
BACKUP: 40.000000  -60.000000 (0,131,131)    Solid             2
CURVE: ACOUSTIC 0.300000   -0.100000  (255,0,255)    Dot               2     Y
BACKUP: 0.700000   0.300000   (255,0,255)    Dot               2
BACKUP: -0.100000  -0.500000  (255,0,255)    Dot               2
ENDTRACK:
<DescLogPlotEnd>
~ASCII -----------------------------------------------------
# ...
 9582.60000  110.28677  -11.46469    -999.25   18.92711   -0.01494    0.21370    3.55239   73.76102    0.16227
 9582.70000  110.15775  -11.48103    -999.25   19.27637   -0.01529    0.21358    3.55512   73.63397    0.16162
 9582.80000  110.04268  -11.49765    -999.25   19.69929   -0.01563    0.21347    3.55778   73.50691    0.16101
 9582.90000  109.92106  -11.51428    -999.25   19.74660   -0.01598    0.21335    3.56078   73.37986    0.16039
 9583.00000  109.81843  -11.53038    -999.25   19.95123   -0.01633    0.21321    3.56401   73.25281    0.15978
 9583.10000  109.70075  -11.54640    -999.25   20.16263   -0.01667    0.21321    3.56648   73.12576    0.15917
 9583.20000  109.51203  -11.56340    -999.25   20.29591   -0.01702    0.21321    3.56737   72.99871    0.15855
 9583.30000  109.36164  -11.58055    -999.25   20.49769   -0.01736    0.21307    3.56715   72.80933    0.15822
 9583.40000  109.48505  -11.59592    -999.25   20.64831   -0.01771    0.21289    3.56693   72.78742    0.15809
 9583.50000  109.94831  -11.61098    -999.25   20.83762   -0.01809    0.21271    3.56704   72.74442    0.15800
 9583.60000  110.54077  -11.62957    -999.25   21.00483   -0.01877    0.21252    3.56702   72.70142    0.15792
 9583.70000  111.02608  -11.64901    -999.25   21.18591   -0.01952    0.21235    3.56689   72.65842    0.15781
 9583.80000  111.40411  -11.65794    -999.25   21.36418   -0.02027    0.21216    3.56710   72.60649    0.15827
 9583.90000  111.84618  -11.64849    -999.25   21.54414   -0.02102    0.21199    3.56725   72.76741    0.15889
 9584.00000  112.42226  -11.62634    -999.25   21.72501   -0.02178    0.21199    3.56674   72.97048    0.15951
 9584.10000  112.98720  -11.60323    -999.25   21.91331   -0.02253    0.21199    3.56650   73.17354    0.16013
 9584.20000  113.36120  -11.58364    -999.25   22.08720   -0.02328    0.21199    3.56751   73.37661    0.16075
 9584.30000  113.56386  -11.56439    -999.25   22.29300   -0.02403    0.21199    3.56791   73.57967    0.16137
 9584.40000  113.80057  -11.54335    -999.25   22.45191   -0.02459    0.21199    3.56586   73.78274    0.16199
 9584.50000  114.23809  -11.52214    -999.25   22.68177   -0.02479    0.21199    3.56506   73.98580    0.16261
 9584.60000  114.85410  -11.50191    -999.25   22.82286   -0.02495    0.21199    3.57200   74.18887    0.16308
 9584.70000  115.48453  -11.48177    -999.25   23.07520   -0.02511    0.21199    3.58748   74.33063    0.16354
 9584.80000  115.94592  -11.46111    -999.25   23.30209   -0.02527    0.21199    3.60673   74.33063    0.16391
 9584.90000  116.13330  -11.44041    -999.25   23.37094   -0.02543    0.21199    3.62685   74.33063    0.16428
 9585.00000  116.08373  -11.41995    -999.25   24.07289   -0.02558    0.21199    3.64714   74.33063    0.16465
 9585.10000  115.94799  -11.39952    -999.25   24.66900   -0.02581    0.21199    3.66379   74.33063    0.16502
 9585.20000  115.84834  -11.37897    -999.25   25.14718   -0.02540    0.21199    3.67315   74.33063    0.16552
 9585.30000  115.78356  -11.35842    -999.25   25.75335   -0.02466    0.21199    3.67830   74.33063    0.16451
 9585.40000  115.69518  -11.33793    -999.25   26.27334   -0.02392    0.21199    3.68378   74.33063    0.16293
 9585.50000  115.57943  -11.31744    -999.25   26.88374   -0.02297    0.21207    3.68723   74.33063    0.16135
 9585.60000  115.48841  -11.29696    -999.25   27.44938   -0.02220    0.21218    3.68519   74.33063    0.15978
 9585.70000  115.45691  -11.27647    -999.25   28.06560   -0.02114    0.21229    3.68129   74.33063    0.15820
 9585.80000  115.46648  -11.25598    -999.25   28.67622   -0.02003    0.21240    3.67774   74.01438    0.15662
 9585.90000  115.47550  -11.23550    -999.25   29.30029   -0.01896    0.21251    3.66608   73.67232    0.15505
 9586.00000  115.46441  -11.21501    -999.25   29.95854   -0.01788    0.21262    3.64029   73.33026    0.15347
 9586.10000  115.45648  -11.19452    -999.25   30.58714   -0.01679    0.21273    3.61242   72.98820    0.15213
 9586.20000  115.48368  -11.17404    -999.25   31.30134   -0.01573    0.21285    3.59900   72.64614    0.15175
 9586.30000  115.54615  -11.15355    -999.25   31.92745   -0.01462    0.21296    3.59634   72.30408    0.15127
 9586.40000  115.61719  -11.13306    -999.25   32.70574   -0.01363    0.21307    3.58397   71.96201    0.15109
 9586.50000  115.68061  -11.11258    -999.25   33.32801   -0.01337    0.21318    3.55208   71.61995    0.15055
 9586.60000  115.74209  -11.09209    -999.25   34.16739   -0.01320    0.21329    3.51053   71.27789    0.15056
 9586.70000  115.80219  -11.07160    -999.25   35.17689   -0.01295    0.21340    3.47163   70.78093    0.15398
 9586.80000  115.85635  -11.05112    -999.25   35.29846   -0.01277    0.21351    3.43615   70.82799    0.15676
 9586.90000  115.91786  -11.03063    -999.25   35.90103   -0.01254    0.21362    3.39937   70.91400    0.15908
 9587.00000  115.99918  -11.01014    -999.25   36.50104   -0.01234    0.21374    3.36076   71.00000    0.16185
 9587.10000  116.06757  -10.98966    -999.25   36.90077   -0.01213    0.21385    3.32290   71.08600    0.16419
 9587.20000  116.07739  -10.96917    -999.25   37.44447   -0.01191    0.21396    3.28621   71.18661    0.16694
 9587.30000  116.05840  -10.94867    -999.25   37.95417   -0.01170    0.21402    3.24913   71.96011    0.16930
 9587.40000  116.10122  -10.92761    -999.25   38.47080   -0.01149    0.21425    3.21089   72.89182    0.17205
 9587.50000  116.22841  -10.90672    -999.25   38.99446   -0.01118    0.21441    3.17104   73.82353    0.17440
 9587.60000  116.34889  -10.88679    -999.25   39.52525   -0.01070    0.21456    3.12738   75.11359    0.17702
 9587.70000  116.37800  -10.86657    -999.25   40.06327   -0.00979    0.21472    3.07860   76.40365    0.18218
 9587.80000  116.33935  -10.84412    -999.25   40.60861   -0.00887    0.21488    3.02939   77.69371    0.18719
 9587.90000  116.30599  -10.82236    -999.25   41.16137   -0.00796    0.21504    2.98903   78.98377    0.19221
 9588.00000  116.29811  -10.80525    -999.25   41.72165   -0.00704    0.21524    2.96235   80.27383    0.19723
 9588.10000  116.28809  -10.78690    -999.25   42.28957   -0.00612    0.21522    2.94503   81.56389    0.20224
 9588.20000  116.26455  -10.76042    -999.25   42.86521   -0.00521    0.21520    2.93079   82.85396    0.20527
 9588.30000  116.24208  -10.73618    -999.25   43.44869   -0.00429    0.21517    2.91955   83.55984    0.20568
 9588.40000  116.22747  -10.72690    -999.25   44.04011   -0.00338    0.21514    2.91461   83.55984    0.20256
 9588.50000  116.21230  -10.71359    -999.25   44.94237   -0.00246    0.21511    2.91508   83.55984    0.19959
 9588.60000  116.18984  -10.67115    -999.25   44.94237   -0.00154    0.21508    2.91623   83.14483    0.19674
 9588.70000  116.16850  -10.63744    -999.25   45.57782   -0.00061    0.21505    2.91568   82.47830    0.19215
 9588.80000  116.15536  -10.70592    -999.25   46.22226   -0.00134    0.21503    2.91474   81.81176    0.18661
 9588.90000  116.14032  -10.91834    -999.25   46.22226   -0.00208    0.21500    2.91467   81.14523    0.17953
 9589.00000  116.11257  -11.20254    -999.25   47.78954   -0.00282    0.21497    2.91481   80.41582    0.17060
 9589.10000  116.08747  -11.45186    -999.25   48.86381   -0.00355    0.21494    2.91451   78.41988    0.16167
 9589.20000  116.08644  -11.64902    -999.25   49.96223   -0.00429    0.21491    2.91407   76.21602    0.15274
 9589.30000  116.08487  -11.86771    -999.25   51.08534   -0.00503    0.21489    2.91390   74.01217    0.14387
 9589.40000  116.04312  -12.14233    -999.25   52.23369   -0.00577    0.21486    2.91375   71.80832    0.13492
 9589.50000  115.98206  -12.37454    -999.25   53.40786   -0.00630    0.21484    2.91351   69.60446    0.12600
 9589.60000  115.93883  -12.41417    -999.25   55.21879   -0.00685    0.21484    2.91322   67.40061    0.11699
 9589.70000  115.87118  -12.23233    -999.25   55.21879   -0.00728    0.21484    2.91298   65.19675    0.10812
 9589.80000  115.74179  -11.96346    -999.25   59.81125   -0.00771    0.21484    2.91274   62.99290    0.09906
