~Version ---------------------------------------------------
VERS.   2.0 : CWLS log ASCII Standard -VERSION 2.0
WRAP.    NO : One line per depth step
DLM . SPACE : Column Data Section Delimiter
~Well ------------------------------------------------------
STRT.FT       8390.0 : START DEPTH
STOP.FT       9710.0 : STOP DEPTH
STEP.FT          0.5 : STEP
NULL.        -999.25 : NULL VALUE
COMP.  HRM Resources : COMPANY
WELL.  23-12 Hay Dam : WELL
FLD .        Hay Dam : FIELD
LOC . 23N R97W Sec12 : LOCATION
CNTY.     Sweetwater : COUNTY
STAT.             WY : STATE
CTRY.            USA : COUNTRY
SRVC.            SLB : SERVICE COMPANY
DATE.     11/14/2019 : DATE
API .     4903723253 : API NUMBER
UWI .       3723253A : UWI NUMBER
TVD .             NO : TVD flag
WSTA.            LOC : Well status
USGS.           E974 : USGS Number
LATI.DEG     41.97803: LATITUDE
LONG.DEG    -108.3282: LONGITUDE
UTM-N.     4650790.25: Northing
UTM-E.       721356.8: Easting
CORE.             -13: Core/Log Offset
~Curve Information -----------------------------------------
DEPT.FT               : Depth in Feet
GR  .API 35 310 01 01 : Gamma Ray
CALI.IN  70 280 01 01 : Caliper
PEF .BARN             : Photoelectric Effect
NPHI.V/V 42 890 03 01 : Neutron Porosity
DPHI.V/V 45 890 01 01 : Density Porosity
SP  .                 : 
ILD .                 : 
~Params ----------------------------------------------------
~Other -----------------------------------------------------
~ASCII -----------------------------------------------------
# ...
 9065.00000   95.99900    9.28200    3.26300    0.14000    0.02600    6.79400   16.70000
 9065.50000   96.41500    9.27900    3.17400    0.14700    0.02400    6.79500   16.49900
 9066.00000   96.77900    9.27700    3.08600    0.14900    0.02500    6.75100   16.24700
 9066.50000   96.77400    9.27500    3.01000    0.14900    0.02400    6.69300   15.99800
 9067.00000   97.14900    9.27300    2.99100    0.15000    0.02300    6.63400   15.75400
 9067.50000   99.40200    9.27000    2.98800    0.15000    0.02200    6.57600   15.51300
 9068.00000  101.61700    9.26800    3.08400    0.15100    0.02300    6.51800   15.36600
 9068.50000  103.18200    9.26600    3.19900    0.15100    0.02600    6.45900   15.50900
 9069.00000  101.18500    9.26400    3.23200    0.15000    0.02700    6.40100   15.65300
 9069.50000   98.88600    9.26100    3.19700    0.14800    0.02900    6.34300   15.93700
 9070.00000   98.64300    9.25900    3.13700    0.14500    0.03000    6.28400   16.20700
 9070.50000   98.50900    9.25700    3.05000    0.14300    0.03100    6.22700   16.48200
 9071.00000   98.44500    9.25500    2.96300    0.14100    0.02800    6.22100   16.76200
 9071.50000   99.82800    9.25200    2.95100    0.14100    0.02400    6.31300   17.04700
 9072.00000  101.29300    9.25000    2.99500    0.14100    0.01700    6.40300   17.33600
 9072.50000  101.48800    9.24200    3.15300    0.14100    0.01000    6.49400   17.65300
 9073.00000   98.14200    9.23200    3.31000    0.14100    0.00300    6.58400   17.23200
 9073.50000   91.81200    9.22200    3.37800    0.13900    0.00200    6.67400   16.47700
 9074.00000   87.42100    9.21200    3.38900    0.13400    0.00300    6.76500   15.75600
 9074.50000   85.97900    9.20100    3.39400    0.12800    0.00400    6.85500   14.99100
 9075.00000   90.70100    9.19100    3.39300    0.12600    0.00000    6.94600   14.12500
 9075.50000  101.22900    9.18100    3.36100    0.13300   -0.00300    7.03700   14.15000
 9076.00000  111.95900    9.17100    3.25600    0.15100   -0.00500    7.12700   14.00200
 9076.50000  122.32300    9.16000    3.16700    0.16700   -0.00400    7.16300   14.11700
 9077.00000  122.15300    9.15000    3.28400    0.16700   -0.00400    6.96300   14.27100
 9077.50000  114.87600    9.14000    3.41400    0.15600   -0.00700    6.76800   14.87700
 9078.00000  102.30600    9.13100    3.39300    0.14300   -0.00800    6.57400   15.63800
 9078.50000   89.59500    9.08800    3.21900    0.12400   -0.00100    6.37800   16.43900
 9079.00000   83.20300    9.04700    3.05000    0.12200    0.00200    6.19700   17.28000
 9079.50000   80.34000    9.04200    2.98200    0.12100    0.00000    6.27300   18.32200
 9080.00000   78.85800    9.03700    3.07000    0.12100    0.00100    6.35900   18.31800
 9080.50000   82.16600    9.03200    3.15500    0.12200    0.00300    6.44300   17.94200
 9081.00000   85.87000    9.02700    3.23900    0.12500    0.00500    6.52700   17.51800
 9081.50000   87.46000    9.02200    3.31600    0.12600    0.00300    6.60100   17.10300
 9082.00000   85.95300    9.01600    3.31500    0.12500    0.00100    6.63400   16.69800
 9082.50000   84.19800    9.01100    3.27300    0.12500    0.00100    6.66800   16.36000
 9083.00000   84.17100    9.00600    3.21300    0.12500    0.00100    6.70100   15.93200
 9083.50000   90.00700    9.00100    3.15400    0.12800    0.00000    6.73500   15.51200
 9084.00000  101.28100    8.99600    3.09600    0.13200   -0.00000    6.76900   15.10400
 9084.50000  113.15300    8.99000    3.09100    0.13700   -0.00100    6.80300   14.70800
 9085.00000  119.97900    8.98500    3.13700    0.14500   -0.00200    6.83700   14.40300
 9085.50000  121.52800    8.98000    3.22400    0.14800   -0.00400    6.87000   14.60100
 9086.00000  113.23000    8.97500    3.30300    0.15000   -0.00400    6.90400   14.76700
 9086.50000  103.33600    8.97000    3.34900    0.13800    0.00100    6.93800   14.94600
 9087.00000  100.31500    8.96400    3.42400    0.12900    0.00600    6.97200   15.24200
 9087.50000   99.75000    8.95900    3.53500    0.12400    0.00900    7.00800   15.56700
 9088.00000   99.28100    8.95400    3.64400    0.12400    0.00700    7.05900   15.89800
 9088.50000   98.40100    8.94900    3.69700    0.12700    0.00100    7.10800   16.23700
 9089.00000  100.17600    8.95000    3.46700    0.13400    0.00100    7.15600   16.54600
 9089.50000  104.92500    8.95200    3.22900    0.14500    0.00300    7.20500   16.17600
 9090.00000  104.89500    8.95500    3.06000    0.15400    0.00500    7.25400   15.77000
 9090.50000  101.41100    8.95800    3.12100    0.15500    0.00800    7.30300   15.37400
 9091.00000   97.47900    8.96000    3.17800    0.14800    0.01100    7.35100   14.98700
 9091.50000   95.27600    8.96300    3.23600    0.14100    0.01300    7.40000   14.61100
 9092.00000   96.55800    8.96600    3.29500    0.14000    0.01400    7.44900   14.24400
 9092.50000   98.46200    8.97300    3.35500    0.14100    0.01500    7.49800   13.94600
 9093.00000  102.23000    9.00100    3.41400    0.14900    0.01400    7.54600   13.75900
 9093.50000  105.94700    9.02900    3.47400    0.15600    0.01200    7.59500   13.57800
 9094.00000  108.69100    9.05600    3.53600    0.15900    0.01200    7.64400   13.39900
 9094.50000  109.61300    9.08400    3.45900    0.16000    0.01500    7.69300   13.22200
 9095.00000  108.06900    9.11100    3.37500    0.15900    0.01700    7.74200   13.04700
 9095.50000  106.39800    9.13900    3.29400    0.15700    0.01700    7.79300   12.87500
 9096.00000  103.20900    9.15100    3.25200    0.15600    0.01500    7.74400   12.77200
 9096.50000   99.71900    9.15400    3.25200    0.15600    0.01200    7.66700   12.77200
 9097.00000   96.15500    9.15800    3.22900    0.15600    0.01300    7.58900   12.77200
 9097.50000   95.62200    9.16100    3.20700    0.16000    0.01700    7.51100   12.78900
 9098.00000   97.77000    9.16400    3.19900    0.16500    0.02000    7.43300   12.99700
 9098.50000   98.77100    9.16800    3.21700    0.15600    0.02000    7.44600   13.31200
 9099.00000   98.82400    9.17100    3.23600    0.14400    0.01900    7.52800   13.63500
 9099.50000   96.77500    9.17400    3.25200    0.13300    0.01500    7.61100   13.88000
 9100.00000   93.72100    9.17700    3.25300    0.12200    0.00900    7.69400   14.01000
 9100.50000   90.68200    9.18100    3.31600    0.11900    0.00300    7.77700   14.13900
 9101.00000   89.66800    9.18400    3.38600    0.12400    0.00300    7.86000   14.45100
 9101.50000   94.08500    9.18800    3.45700    0.12900    0.01100    7.94200   14.79000
 9102.00000  101.17000    9.19600    3.52600    0.13700    0.01800    8.00500   15.13600
 9102.50000  108.22600    9.20800    3.57600    0.14600    0.01700    8.00400   15.49000
 9103.00000  114.96800    9.19800    3.57700    0.15100    0.01600    8.00400   15.79900
 9103.50000  118.38900    9.18700    3.44700    0.15200    0.01600    8.00300   15.79900
 9104.00000  120.02400    9.17700    3.30700    0.14900    0.01600    7.94200   15.79900
 9104.50000  120.37700    9.16700    3.41900    0.14700    0.01400    7.79100   15.80400
 9105.00000  120.18300    9.15700    3.54000    0.14700    0.01200    7.64100   15.79200
 9105.50000  119.44300    9.14600    3.61600    0.15000    0.01200    7.49100   16.20200
 9106.00000  118.55700    9.13600    3.59300    0.15200    0.01300    7.34100   16.44000
 9106.50000  118.21100    9.12400    3.48500    0.15500    0.01400    7.19100   16.68000
 9107.00000  119.17700    9.10300    3.37800    0.15300    0.01400    7.03900   16.85500
 9107.50000  121.32000    9.08400    3.27700    0.14900    0.01400    6.97900   16.85500
 9108.00000  122.89100    9.06900    3.30000    0.14500    0.01400    6.95500   16.85500
 9108.50000  121.87800    9.07700    3.33900    0.14300    0.01400    6.93100   16.85500
 9109.00000  118.79300    9.08300    3.37700    0.14200    0.01400    6.90800   16.85500
 9109.50000  115.93500    9.09000    3.37700    0.14000    0.01400    6.88400   16.85500
