~Version ---------------------------------------------------
VERS. 2.0 : CWLS log ASCII Standard -VERSION 2.0
WRAP.  NO : One Line Per Depth Step
~Well ------------------------------------------------------
STRT .FT              8400.0 : START DEPTH
STOP .FT              9700.0 : STOP DEPTH
STEP .FT  0.1000000000003638 : STEP
NULL .               -999.25 : NULL VALUE
COMP .  PRESIDIO OIL COMPANY : COMPANY
WELL .     J.T. FEDERAL NO.5 : WELL
FLD  .   SOUTH HAY RESOURCES : FIELD
LOC  . 1266' FNL & 1684' FEL : LOCATION
CNTY .            SWEETWATER : COUNTY
STAT .               WYOMING : STATE
CTRY .                   USA : COUNTRY
SRVC .                       : SERVICE COMPANY
DATE .            30/06/1993 : DATE
API  .            4903723152 : API NUMBER
UWI  .               3723152 : UWI NUMBER
TVD  .                    NO : TVD flag
WSTA .                   LOC : Well status
USGS .                  S179 : USGS Number
LATI .DEG           41.97079 : LATITUDE
LONG .DEG           -108.322 : LONGITUDE
UTM-N.            4650002.36 : Northing
UTM-E.             721895.66 : Easting
CORE .                   N/A : Core/Log Offset
~Curve Information -----------------------------------------
DEPT    .FT                : Depth in Feet
GR      .GAPI 35 310 01 01 : Gamma Ray
SP      .MV   01 010 01 01 : Spontaneous Potential
CALI    .IN   70 280 01 01 : Caliper
ILD     .OHMM 05 120 46 01 : Deep Induction Standard Processed Resistivity
DPHI    .V/V  45 890 01 01 : Density Porosity
NPHI    .V/V  42 890 03 01 : Neutron Porosity
PE      .B/E               : PE
DT      .US/F 60 520 08 01 : Delta-T
ACOUSTIC.DEC               : ACOUSTIC
~Params ----------------------------------------------------
DATE. 30-06-1993 : Date As Month-Day-Year
RUN .        ONE : Run Number
PDAT.        UNK : Permanent Datum
EPD .FT   6607.0 : Elevation Of Perm. Datum
LMF .         KB : Log Measured From
FAPD.FT     16.0 : Feet Above Perm. Datum
DMF .         KB : Drilling Measured From
EKB .FT   6623.0 : Elevation Of Kelly Bushing
EDF .FT   6622.0 : Elevation Of Derrick Floor
EGL .FT   6607.0 : Elevation Of Ground Level
TD  .FT   9700.0 : Total Depth
DD  .FT   9780.0 : Depth Driller
DL  .FT   9724.0 : Depth Logger
BLI .FT   9720.0 : Bottom Log Interval
CSIZ.IN  9.625IN : Casing Size
CBD1.       1698 : Casing Bottom (Driller) 1
CBL1.       1697 : Casing Bottom (Logger) 1
BS  .IN  7.875IN : Bit Size
DFT .        GEL : Drilling Fluid Type
DFV .S      55.0 : Drilling Fluid Viscosity
DFD .LB/G   10.2 : Drilling Fluid Density
DFL .ML      7.6 : Drilling Fluid Loss
DFPH.        9.5 : Drilling Fluid Ph
MSS .   FLOWLINE : Mud Sample Source
RMS .OHMM    1.5 : Resistivity Of Mud Sample
MST .DEGF   74.0 : Mud Sample Temperature
RMF .OHMM    1.8 : Mud Filtrate Resistivity
MFST.DEGF   66.0 : Mud Filtrate Sample Temperature
RMC .OHMM   2.44 : Mud Cake Resistivity
MCST.DEGF   69.0 : Mud Cake Sample Temperature
RMB .OHMM    0.6 : Mud Resistivity At Bht
BHT .DEGF  197.0 : Bottom Hole Temperature
MRT .DEGF  197.0 : Maximum Recorded Temperature
LUN .      52546 : Logging Unit Number
LUL .      VERNL : Logging Unit Location
ENGI.    K EVATT : Engineer'S Name
WITN.    HEFFNER : Witness' Name
DGBY.        R2V : 
WSTA.        LOC : 
~Other -----------------------------------------------------
<DescLogPlotStart>   NEURALOG PLOT DEFINITION
PLOTDEFVERSION: 3
LASFILE: C:\nds\projects\mf-nov-13\las\3723152A.las
DEPTHSCALE: 240.000000
RESOLUTION: 200
DEPTHLABELFREQ: 100.000000
HEAVYGRIDFREQ: 100.000000
MEDIUMGRIDFREQ: 50.000000
LIGHTGRIDFREQ: 10.000000
#
#   TRACK 1
#
STARTTRACK:
LEFTX: 0.500000 inch
RIGHTX: 3.000000 inch
SCALETYPE: Linear
NUMCHARTDIVISIONS: 10
CURVE: GR    0.000000   150.000000 (0,0,255)      Solid             2     N
CURVE: SP    -100.000000 0.000000   (0,131,131)    Dot               2     N
ENDTRACK:
#
#   TRACK 2
#
STARTTRACK:
LEFTX: 0.500000 inch
RIGHTX: 3.000000 inch
SCALETYPE: Linear
NUMCHARTDIVISIONS: 10
CURVE: CALI  6.000000   16.000000  (255,0,255)    Solid             2     Y
BACKUP: -4.000000  6.000000   (255,0,255)    Solid             2
ENDTRACK:
#
#   TRACK 3
#
STARTTRACK:
LEFTX: 3.500000 inch
RIGHTX: 8.500000 inch
SCALETYPE: Log
NUMCYCLES: 4
STARTCYCLE: 2
CURVE: ILD   0.200000   2000.000000 (255,0,0)      Solid             2     N
ENDTRACK:
#
#   TRACK 4
#
STARTTRACK:
LEFTX: 3.500000 inch
RIGHTX: 8.500000 inch
SCALETYPE: Linear
NUMCHARTDIVISIONS: 10
CURVE: DPHI  0.300000   -0.100000  (255,131,0)    Solid             2     Y
BACKUP: 0.700000   0.300000   (255,131,0)    Solid             2
CURVE: NPHI  0.300000   -0.100000  (255,255,0)    Dot               2     Y
BACKUP: 0.700000   0.300000   (255,255,0)    Dot               2
ENDTRACK:
#
#   TRACK 5
#
STARTTRACK:
LEFTX: 3.500000 inch
RIGHTX: 6.000000 inch
SCALETYPE: Linear
NUMCHARTDIVISIONS: 10
CURVE: PE    0.000000   10.000000  (0,0,255)      Solid             2     N
ENDTRACK:
#
#   TRACK 6
#
STARTTRACK:
LEFTX: 8.500000 inch
RIGHTX: 13.500000 inch
SCALETYPE: Linear
NUMCHARTDIVISIONS: 10
CURVE: DT    140.000000 40.000000  (0,131,131)    Solid             2     Y
BACKUP: 40.000000  -60.000000 (0,131,131)    Solid             2
CURVE: ACOUSTIC 0.300000   -0.100000  (255,0,255)    Dot               2     Y
BACKUP: 0.700000   0.300000   (255,0,255)    Dot               2
BACKUP: -0.100000  -0.500000  (255,0,255)    Dot               2
ENDTRACK:
<DescLogPlotEnd>
~ASCII -----------------------------------------------------
# ...
 9246.80000  104.45136  -19.58491    9.74590   11.84262   -0.02274    0.18110    3.67804   73.28621    0.15857
 9246.90000  104.98585  -19.73228    9.74545   11.86133   -0.02264    0.18124    3.68416   73.49047    0.15891
 9247.00000  105.88605  -19.87498    9.74500   11.88008   -0.02256    0.18136    3.68706   73.69473    0.15925
 9247.10000  107.00126  -19.95236    9.74455   11.89885   -0.02338    0.18149    3.68259   73.89899    0.15960
 9247.20000  108.09994  -19.93557    9.74410   11.91766   -0.02401    0.18161    3.67571   74.10325    0.15994
 9247.30000  109.13362  -19.86350    9.74365   11.93649   -0.02465    0.18173    3.67581   74.33063    0.16029
 9247.40000  110.16493  -19.79369    9.74320   11.95535   -0.02528    0.18185    3.68445   74.37830    0.16065
 9247.50000  111.19470  -19.74138    9.74275   11.97424   -0.02591    0.18191    3.69478   74.43205    0.16105
 9247.60000  112.22896  -19.68836    9.74231   11.99317   -0.02655    0.18115    3.70219   74.48580    0.16148
 9247.70000  113.33208  -19.62636    9.74186   12.00840   -0.02744    0.18063    3.70869   74.53347    0.16187
 9247.80000  114.43907  -19.56439    9.74141   11.97211   -0.02793    0.18011    3.71664   74.07186    0.16069
 9247.90000  115.29732  -19.50716    9.74096   11.93747   -0.02874    0.17960    3.72500   73.65720    0.15963
 9248.00000  115.75576  -19.45068    9.74051   11.90809   -0.02956    0.17908    3.73261   73.24254    0.15857
 9248.10000  115.93243  -19.39202    9.74006   11.87432   -0.03037    0.17856    3.74020   72.82788    0.15751
 9248.20000  115.99396  -19.33151    9.73961   11.84433   -0.03119    0.17805    3.74808   72.41321    0.15645
 9248.30000  115.96641  -19.27149    9.73916   11.81157   -0.03200    0.17744    3.75563   71.79513    0.15540
 9248.40000  115.84644  -19.21504    9.73872   11.78092   -0.03282    0.17718    3.76318   71.76384    0.15434
 9248.50000  115.68154  -19.15955    9.73827   11.74908   -0.03363    0.17686    3.77160   71.70241    0.15328
 9248.60000  115.43757  -19.09691    9.73782   11.71797   -0.03445    0.17654    3.78021   71.64097    0.15222
 9248.70000  114.99186  -19.02970    9.73737   11.68675   -0.03526    0.17623    3.78753   71.57954    0.15116
 9248.80000  114.35335  -18.97806    9.73692   11.65554   -0.03608    0.17591    3.79386   71.51811    0.15010
 9248.90000  113.69004  -18.95857    9.73647   11.62460   -0.03689    0.17559    3.80114   71.45668    0.14888
 9249.00000  113.07755  -18.96243    9.73602   11.59357   -0.03771    0.17527    3.80988   71.38945    0.14864
 9249.10000  112.42011  -18.96779    9.73557   11.56268   -0.03841    0.17500    3.81857   71.43813    0.14835
 9249.20000  111.69174  -18.96599    9.73513   11.53197   -0.03788    0.17527    3.82613   71.49189    0.14807
 9249.30000  111.04185  -18.96342    9.73468   11.50012   -0.03740    0.17546    3.83337   71.54564    0.14778
 9249.40000  110.58126  -18.96448    9.73423   11.45935   -0.03693    0.17578    3.84144   71.59939    0.14749
 9249.50000  110.24318  -18.96596    9.73378   11.37631   -0.03646    0.17591    3.84987   71.65314    0.14726
 9249.60000  109.91214  -18.96546    9.73333   11.25350   -0.03598    0.17629    3.85738   71.69371    0.14942
 9249.70000  109.53937  -18.96474    9.73288   11.13201   -0.03551    0.17637    3.86436   72.08746    0.15124
 9249.80000  109.10477  -18.96506    9.73243   11.01184   -0.03503    0.17669    3.87280   72.40365    0.15305
 9249.90000  108.63438  -18.96548    9.73198   10.89297   -0.03456    0.17942    3.88265   72.71984    0.15487
 9250.00000  108.27007  -18.96541    9.73154   10.77537   -0.03409    0.18168    3.89008   73.03603    0.15668
 9250.10000  108.16811  -18.96529    9.73109   10.65905   -0.03361    0.18360    3.89137   73.35223    0.15850
 9250.20000  108.31974  -18.96539    9.73064   10.54398   -0.03314    0.18581    3.88752   73.66842    0.16031
 9250.30000  108.58759  -18.96552    9.73019   10.43016   -0.03266    0.18778    3.88273   73.98461    0.16213
 9250.40000  108.88536  -18.96552    9.72974   10.31756   -0.03219    0.18994    3.87923   74.30080    0.16395
 9250.50000  109.20609  -18.96552    9.72929   10.20618   -0.03172    0.19196    3.87612   74.61699    0.16576
 9250.60000  109.53375  -18.96552    9.72884   10.09601   -0.03124    0.19408    3.87236   74.93318    0.16758
 9250.70000  109.84286  -18.96552    9.72839    9.98702   -0.03077    0.19612    3.86834   75.24937    0.16939
 9250.80000  110.14319  -18.96552    9.72795    9.87921   -0.03029    0.19824    3.86467   75.56556    0.17121
 9250.90000  110.44600  -18.96555    9.72750    9.77262   -0.02988    0.20026    3.86125   75.88176    0.17298
 9251.00000  110.74391  -18.96557    9.72704    9.66706   -0.02961    0.20242    3.85767   76.19795    0.17488
 9251.10000  111.05069  -18.96554    9.72659    9.56274   -0.02937    0.20439    3.85375   76.51414    0.17661
 9251.20000  111.37959  -18.96552    9.72615    9.45928   -0.02912    0.20660    3.84986   76.76471    0.17813
 9251.30000  111.68366  -18.96563    9.72571    9.35725   -0.02888    0.20853    3.84655   76.87830    0.18046
 9251.40000  111.94021  -18.96569    9.72523    9.25594   -0.02864    0.21078    3.84331   76.97236    0.18255
 9251.50000  112.25061  -18.96551    9.72479    9.15612   -0.02840    0.21355    3.83896   77.06643    0.18447
 9251.60000  112.67601  -18.96540    9.72452    9.05712   -0.02816    0.21429    3.83434   77.16050    0.18653
 9251.70000  113.01216  -18.96578    9.72445    8.95908   -0.02785    0.21509    3.83284   77.25456    0.18849
 9251.80000  112.94577  -18.96600    9.72448    8.86290   -0.02732    0.21620    3.83655   77.34863    0.19052
 9251.90000  112.45704  -18.96533    9.72450    8.76586   -0.02659    0.21706    3.84357   77.47465    0.19250
 9252.00000  111.85182  -18.96497    9.72449    8.67327   -0.02585    0.21809    3.85096   77.74975    0.19452
 9252.10000  111.36604  -18.96633    9.72448    8.57646   -0.02511    0.21902    3.85817   78.16633    0.19651
 9252.20000  110.95086  -18.96712    9.72449    8.48792   -0.02438    0.21999    3.86534   78.58291    0.19852
 9252.30000  110.48640  -18.96226    9.72449    8.39111   -0.02364    0.22098    3.87054   78.99949    0.20052
 9252.40000  109.99369  -18.95033    9.72449    8.30427   -0.02291    0.22174    3.87176   79.41608    0.20250
 9252.50000  109.53226  -18.93570    9.72449    8.21462   -0.02217    0.22138    3.87009   79.83266    0.20450
 9252.60000  109.07338  -18.92256    9.72449    8.10501   -0.02143    0.22097    3.86835   80.24924    0.20650
 9252.70000  108.58723  -18.91133    9.72449    8.10988   -0.02070    0.22065    3.86754   80.61866    0.20850
 9252.80000  108.12411  -18.90023    9.72449    8.11627   -0.01996    0.22026    3.86679   80.87796    0.21050
 9252.90000  107.69648  -18.88792    9.72449    8.12267   -0.01890    0.21992    3.86556   81.11089    0.21250
 9253.00000  107.20741  -18.87427    9.72449    8.12907   -0.01839    0.21956    3.86429   81.34381    0.21450
 9253.10000  106.62976  -18.86187    9.72449    8.13548   -0.01748    0.21919    3.86327   81.57674    0.21582
 9253.20000  106.15071  -18.85255    9.72449    8.14189   -0.01657    0.21885    3.86232   81.80967    0.21525
 9253.30000  105.97172  -18.84182    9.72449    8.14830   -0.01566    0.21847    3.86122   81.93712    0.21482
 9253.40000  106.02111  -18.82525    9.72449    8.15473   -0.01475    0.21810    3.86000   82.05426    0.21439
 9253.50000  106.04898  -18.81096    9.72449    8.16115   -0.01385    0.21830    3.85886   82.13489    0.21396
 9253.60000  105.99875  -18.80754    9.72449    8.16759   -0.01294    0.21859    3.85795   82.24138    0.21353
 9253.70000  106.09446  -18.80002    9.72449    8.17402   -0.01203    0.21882    3.85697   82.02231    0.21310
 9253.80000  106.50742  -18.77091    9.72449    8.18046   -0.01112    0.21911    3.85557   81.63286    0.21258
 9253.90000  107.07956  -18.74861    9.72449    8.18691   -0.01021    0.21934    3.85426   81.26369    0.21096
 9254.00000  107.48453  -18.80079    9.72449    8.19336   -0.00955    0.21963    3.85378   80.79784    0.20891
