~Version Information Block
 VERS.                2.00:     CWLS LOG ASCII STANDARD - VERSION 2.000000
 WRAP.                  NO:     One Line Per Depth Step
#
~Well Information Block
#MNEM.UNIT                     Data                         Information
#----------   ------------------------------------------   ----------------
 STRT.FT                                    12600.0000:     START DEPTH
 STOP.FT                                    13950.0000:     STOP DEPTH
 STEP.FT                                        0.1000:     STEP
 NULL.                                       -999.2500:     NULL VALUE
 COMP.                        PRESIDIO EXPLORATION INC:     COMPANY
 WELL.                          PICKETLAKE UNIT #40-13:     WELL
 FLD .                                         WILDCAT:     FIELD
 LOC .                           1320' FSL & 1320' FEL:     LOCATION
 CNTY.                                      SWEETWATER:     COUNTY
 STAT.                                         WYOMING:     STATE
 CTRY.                                             USA:     COUNTRY
 SRVC.                                                :     SERVICE COMPANY
 DATE.                                      15/05/1995:     DATE
 API .                                      4903723472:     API NUMBER
 UWI .                                         3723472:     UWI NUMBER
 TVD .                                              NO:     TVD flag
 WSTA.                                             LOC:     Well status
 USGS.                                            F042:     USGS Number
 LATI.DEG                                     42.22387:     LATITUDE
 LONG.DEG                                   -108.34765:     LONGITUDE
 UTM-N.                                     4678038.95:     Northing
 UTM-E.                                       718897.4:     Easting
 CORE.                                              +5:     Core/Log Offset
#
~Curve Information Block
#MNEM.UNIT       API CODE      Curve Description
#----------    -------------   -------------------
 DEPT.FT                   :   Depth in Feet
 DTCO.US/F     60 520 08 01:   DTCO
 SPHI.V/V      61 890 01 01:   Sonic Porosity
 GR  .GAPI     35 310 01 01:   Gamma Ray
 CALI.IN       70 280 01 01:   Caliper
 ILD .OHMM     05 120 46 01:   Deep Induction Standard Processed Resistivity
 SP  .MV       01 010 01 01:   Spontaneous Potential
 PEF .b/e                  :   Photo-Electric Factor
 RHOB.G/C3     42 350 01 01:   Bulk Density
 DPHI.V/V      45 890 01 01:   Density Porosity
 NPHI.V/V      42 890 03 01:   Neutron Porosity
#
~Parameter Information Block
#MNEM.UNIT            Value               Description
#----------    --------------------    -------------------
 DATE.                  15-05-1995:    Date As Month-Day-Year
 RUN .                         ONE:    Run Number
 PDAT.                         UNK:    Permanent Datum
 EPD .FT                 7224.0000:    Elevation Of Perm. Datum
 LMF .                          KB:    Log Measured From
 FAPD.FT                   15.0000:    Feet Above Perm. Datum
 DMF .                          KB:    Drilling Measured From
 EKB .FT                 7240.0000:    Elevation Of Kelly Bushing
 EDF .FT                 7239.0000:    Elevation Of Derrick Floor
 EGL .FT                 7224.0000:    Elevation Of Ground Level
 TD  .FT                13950.0000:    Total Depth
 DD  .FT                13957.0000:    Depth Driller
 DL  .FT                13952.0000:    Depth Logger
 BLI .FT                13925.0000:    Bottom Log Interval
 TLI .FT                10000.0000:    Top Log Interval
 CSIZ.IN                   9.625IN:    Casing Size
 CBD1.                        2520:    Casing Bottom (Driller) 1
 CBL1.                        2518:    Casing Bottom (Logger) 1
 BS  .IN                   7.875IN:    Bit Size
 DFT .                         WTD:    Drilling Fluid Type
 DFV .S                    74.0000:    Drilling Fluid Viscosity
 DFD .LB/G                 10.8000:    Drilling Fluid Density
 DFL .ML                    7.2000:    Drilling Fluid Loss
 DFPH.                      9.5000:    Drilling Fluid Ph
 MSS .                     MUDTANK:    Mud Sample Source
 RMS .OHMM                  4.3300:    Resistivity Of Mud Sample
 MST .DEGF                 65.0000:    Mud Sample Temperature
 RMF .OHMM                  3.3800:    Mud Filtrate Resistivity
 MFST.DEGF                 65.0000:    Mud Filtrate Sample Temperature
 RMC .OHMM                  4.5000:    Mud Cake Resistivity
 MCST.DEGF                 65.0000:    Mud Cake Sample Temperature
 RMB .OHMM                  1.3760:    Mud Resistivity At Bht
 BHT .DEGF                219.0000:    Bottom Hole Temperature
 MRT .DEGF                219.0000:    Maximum Recorded Temperature
 LUN .                        8415:    Logging Unit Number
 LUL .                      CASPER:    Logging Unit Location
 ENGI.               T.CHRISTENSEN:    Engineer'S Name
 WITN.                STEVE HEFNER:    Witness' Name
 DGBY.                         R2V:    
 WSTA.                         LOC:    
#
~Other Information Block
<DescLogPlotStart>   NEURALOG PLOT DEFINITION
PLOTDEFVERSION: 3
LASFILE: C:\nds\projects\mf-nov-13\las\3723472C.las
DEPTHSCALE: 240.000000
RESOLUTION: 200
DEPTHLABELFREQ: 100.000000
HEAVYGRIDFREQ: 100.000000
MEDIUMGRIDFREQ: 50.000000
LIGHTGRIDFREQ: 10.000000
#
#   TRACK 1
#
STARTTRACK: 
 LEFTX: 0.500000 inch
 RIGHTX: 3.000000 inch
 SCALETYPE: Linear
 NUMCHARTDIVISIONS: 10
CURVE: DTCO  140.000000 40.000000  (0,0,255)      Solid             2     N    
CURVE: SPHI  0.300000   -0.100000  (0,131,131)    Dot               2     N    
ENDTRACK: 
#
#   TRACK 2
#
STARTTRACK: 
 LEFTX: 3.500000 inch
 RIGHTX: 6.000000 inch
 SCALETYPE: Linear
 NUMCHARTDIVISIONS: 10
CURVE: GR    0.000000   150.000000 (255,0,255)    Solid             2     Y    
BACKUP: 150.000000 300.000000 (255,0,255)    Solid             2    
CURVE: CALI  6.000000   16.000000  (255,0,0)      Dot               2     N    
ENDTRACK: 
#
#   TRACK 3
#
STARTTRACK: 
 LEFTX: 6.000000 inch
 RIGHTX: 11.000000 inch
 SCALETYPE: Log
 NUMCYCLES: 4
 STARTCYCLE: 2
CURVE: ILD   0.200000   2000.000000 (255,131,0)    Solid             2     N   
ENDTRACK: 
#
#   TRACK 4
#
STARTTRACK: 
 LEFTX: 11.000000 inch
 RIGHTX: 13.500000 inch
 SCALETYPE: Linear
 NUMCHARTDIVISIONS: 10
CURVE: SP    -80.000000 20.000000  (255,255,0)    Solid             2     N    
ENDTRACK: 
#
#   TRACK 5
#
STARTTRACK: 
 LEFTX: 13.500000 inch
 RIGHTX: 18.500000 inch
 SCALETYPE: Linear
 NUMCHARTDIVISIONS: 10
CURVE: PEF   0.000000   10.000000  (0,0,255)      Solid             2     N    
CURVE: RHOB  2.000000   3.000000   (0,131,131)    Dot               2     Y    
BACKUP: 1.000000   2.000000   (0,131,131)    Dot               2    
ENDTRACK: 
#
#   TRACK 6
#
STARTTRACK: 
 LEFTX: 18.500000 inch
 RIGHTX: 23.500000 inch
 SCALETYPE: Linear
 NUMCHARTDIVISIONS: 10
CURVE: DPHI  0.300000   -0.100000  (255,0,255)    Solid             2     N    
CURVE: NPHI  0.300000   -0.100000  (255,0,0)      Dot               2     Y    
BACKUP: 0.700000   0.300000   (255,0,0)      Dot               2    
ENDTRACK: 
<DescLogPlotEnd>
~A DEPTH     DTCO             SPHI             GR               CALI             ILD              SP               PEF              RHOB             DPHI             NPHI            
# ...
   12688.000 69.76305221      0.13443373       133.07993600     9.19929459       13.48454094      -50.78915750     2.90513685       2.60965610       0.02350101       0.18832998      
   12688.100 69.56506024      0.13295904       134.54000922     9.19358302       13.62058172      -50.82546319     2.94150589       2.61381173       0.02253521       0.18832998      
   12688.200 69.36706827      0.13148434       136.18110312     9.18737278       13.75799498      -50.85465359     2.98116911       2.61554713       0.02156942       0.18181087      
   12688.300 69.16907631      0.13000964       137.85681554     9.18220351       13.89664271      -50.87252269     3.01353214       2.61530158       0.02006692       0.17746479      
   12688.400 68.97108434      0.12853494       139.26416935     9.17600162       14.03591409      -50.87534774     3.04564042       2.61473958       0.02007006       0.17311871      
   12688.500 68.77309237      0.12706024       140.39393499     9.16889818       14.17730398      -50.86209337     3.07755730       2.61482008       0.02033251       0.16877264      
   12688.600 68.57510040      0.12558554       141.54992839     9.16313254       14.32134093      -50.85340616     3.11014921       2.61523441       0.02043066       0.16442656      
   12688.700 68.37710843      0.12411084       142.87882992     9.16093627       14.46455447      -50.88670148     3.14586295       2.61524869       0.02057132       0.16008048      
   12688.800 68.17911647      0.12263614       144.23725455     9.16163900       14.61175357      -50.96826616     3.18393829       2.61444519       0.02193079       0.15573441      
   12688.900 67.98112450      0.12116145       145.50363496     9.16271007       14.75872557      -51.05014089     3.21665841       2.61283954       0.02310063       0.15138833      
   12689.000 67.78313253      0.11968675       146.70702785     9.16288467       14.90626593      -51.08258005     3.23814525       2.61083287       0.02395637       0.14704225      
   12689.100 67.58514056      0.11867470       147.88207347     9.16286942       15.06099281      -51.07225842     3.25452593       2.60895955       0.02511271       0.14269618      
   12689.200 67.38714859      0.11662163       149.11109096     9.16329533       15.20386004      -51.06175112     3.27641094       2.60741855       0.02598973       0.13835010      
   12689.300 67.25903614      0.11505885       150.57697096     9.16382292       15.37175471      -51.06858263     3.30344692       2.60592303       0.02712066       0.13400402      
   12689.400 66.80873494      0.11349607       152.28521954     9.16411048       15.50533915      -51.07479777     3.32406526       2.60410588       0.02802716       0.12965795      
   12689.500 66.47590361      0.11193328       153.91993108     9.16434406       15.69026893      -51.06458483     3.33082177       2.60204028       0.02912259       0.12313883      
   12689.600 66.14307229      0.11037050       155.20732864     9.16470410       15.81269110      -51.04348073     3.32893001       2.60033601       0.03056621       0.12293763      
   12689.700 65.95381526      0.10880772       156.19309251     9.16509056       16.01402898      -51.02268540     3.32844785       2.59962640       0.03062049       0.12273642      
   12689.800 65.73185861      0.10724493       156.97477253     9.16541642       16.23628762      -51.00457636     3.33301118       2.59988136       0.03058350       0.12273642      
   12689.900 65.57679300      0.10568215       157.43236953     9.16573046       16.23628762      -50.98647441     3.33873089       2.60045513       0.03058350       0.12273642      
   12690.000 65.42172740      0.10411937       157.45952731     9.16607105       16.73751432      -50.96804669     3.34040566       2.60086615       0.03058350       0.12273642      
   12690.100 65.26666179      0.10255658       157.20165061     9.16641800       17.08023251      -50.95025600     3.33637482       2.60128060       0.03098592       0.12303546      
   12690.200 65.11159618      0.10099380       156.90288360     9.16674974       17.42996822      -50.93194756     3.32851765       2.60207471       0.02999329       0.12323482      
   12690.300 64.95653058      0.09943102       156.58794584     9.16708064       17.78686514      -50.91186159     3.31976623       2.60324110       0.02932931       0.12343418      
   12690.400 64.80146497      0.09859438       156.10806538     9.16741182       18.15106989      -50.89230226     3.31179247       2.60444264       0.02897384       0.12363354      
   12690.500 64.64639936      0.09726334       155.42875100     9.16774300       18.52273212      -50.87539306     3.30456428       2.60547068       0.02769014       0.12383291      
   12690.600 64.49133376      0.09635456       154.72553931     9.16807418       18.90200453      -50.85757942     3.29719243       2.60639938       0.02681368       0.12394366      
   12690.700 64.33626815      0.09544578       154.09745798     9.16840537       19.28904293      -50.83360904     3.28941350       2.60743540       0.02593722       0.12394366      
   12690.800 64.24698795      0.09453701       153.35949532     9.16873655       19.68400636      -50.80516771     3.28161897       2.60853890       0.02506076       0.12354125      
   12690.900 64.17620482      0.09362823       152.36619253     9.16906773       20.08705708      -50.77794864     3.27351790       2.60951792       0.02418431       0.12297384      
   12691.000 64.12650602      0.09271945       151.35421262     9.16939891       20.49836068      -50.75343403     3.26587121       2.61041825       0.02330785       0.12257545      
   12691.100 64.07680723      0.09216867       150.56338263     9.16973009       20.91808615      -50.72904738     3.25889973       2.61156025       0.02243139       0.12217706      
   12691.200 64.02710843      0.09216867       149.76030134     9.17006127       21.34640595      -50.70428168     3.25109024       2.61277512       0.02155493       0.12177867      
   12691.300 63.97740964      0.09216867       148.59127873     9.17039245       21.78349605      -50.67945615     3.24139883       2.61370064       0.02067847       0.12138028      
   12691.400 63.94578313      0.09216867       147.22937652     9.17072363       22.45596933      -50.65286793     3.23316542       2.61456965       0.02012072       0.12071061      
   12691.500 64.18674699      0.09216867       146.06898605     9.17105481       22.45596933      -50.62631167     3.22933731       2.61445057       0.02039235       0.12097128      
   12691.600 64.36345382      0.09411948       144.98844814     9.17138599       22.81778357      -50.60445581     3.22006766       2.61536287       0.02059155       0.12021054      
   12691.700 64.54016064      0.09556074       143.51600770     9.17171717       23.06222596      -50.58219855     3.20263998       2.61481306       0.02079074       0.12140356      
   12691.800 64.71686747      0.09700201       141.60850807     9.17204835       23.30928702      -50.55142018     3.20202985       2.61039028       0.02092555       0.13362783      
   12691.900 64.89357430      0.09844327       139.73898893     9.17237953       23.55899480      -50.52084935     3.23838419       2.60785552       0.02698793       0.14416271      
   12692.000 65.07028112      0.09988454       138.21048298     9.17271071       23.81137764      -50.50611194     3.27495186       2.60796249       0.03156942       0.15324079      
   12692.100 65.24698795      0.10132580       136.76990764     9.17304189       24.06646421      -50.48908366     3.26896627       2.59977483       0.03615091       0.16361349      
   12692.200 65.42369478      0.10276707       135.05016498     9.17337308       24.32428347      -50.42176309     3.27162883       2.58127855       0.04073239       0.17286286      
   12692.300 65.55220884      0.10381526       133.15502454     9.17370426       24.58486470      -50.28475690     3.39644852       2.56136864       0.04531388       0.18301240      
