~Version Information Block
 VERS.                2.00:     CWLS LOG ASCII STANDARD - VERSION 2.000000
 WRAP.                  NO:     One Line Per Depth Step
#
~Well Information Block
#MNEM.UNIT                     Data                         Information
#----------   ------------------------------------------   ----------------
 STRT.FT                                     8200.0000:     START DEPTH
 STOP.FT                                     9700.0000:     STOP DEPTH
 STEP.FT                                        0.1000:     STEP
 NULL.                                       -999.2500:     NULL VALUE
 COMP.                        PRESIDIO EXPLORATION INC:     COMPANY
 WELL.                                   HAY DAM 34-12:     WELL
 FLD .                                          HAYDAM:     FIELD
 LOC .                                   SEC12-23N-97W:     LOCATION
 CNTY.                                      SWEETWATER:     COUNTY
 STAT.                                         WYOMING:     STATE
 CTRY.                                             USA:     COUNTRY
 SRVC.                                    SCHLUMBERGER:     SERVICE COMPANY
 DATE.                                      26/07/1994:     DATE
 API .                                      4903723385:     API NUMBER
 UWI .                                         3723385:     UWI NUMBER
 TVD .                                              NO:     TVD flag
 WSTA.                                             LOC:     Well status
 USGS.                                            F041:     USGS Number
 LATI.DEG                                     41.97739:     LATITUDE
 LONG.DEG                                   -108.32133:     LONGITUDE
 UTM-N.                                        4650736:     Northing
 UTM-E.                                      721928.25:     Easting
 CORE.                                              -5:     Core/Log Offset
#
~Curve Information Block
#MNEM.UNIT       API CODE      Curve Description
#----------    -------------   -------------------
 DEPT.FT                   :   Depth in Feet
 ILD .OHMM     05 120 46 01:   Deep Induction Standard Processed Resistivity
 SP  .MV       01 010 01 01:   Spontaneous Potential
 RHOB.G/C3     42 350 01 01:   Bulk Density
 PEF .b/e                  :   Photo-Electric Factor
 GR  .GAPI     35 310 01 01:   Gamma Ray
 CALI.IN       70 280 01 01:   Caliper
 DPHI.V/V      45 890 01 01:   Density Porosity
 NPHI.V/V      42 890 03 01:   Neutron Porosity
 DTCO.US/F                 :   Delta-T Compressional
#
~Parameter Information Block
#MNEM.UNIT            Value               Description
#----------    --------------------    -------------------
 DATE.                  26-07-1994:    Date As Month-Day-Year
 RUN .                         ONE:    Run Number
 PDAT.                         UNK:    Permanent Datum
 EPD .FT                 6611.0000:    Elevation Of Perm. Datum
 LMF .                          KB:    Log Measured From
 FAPD.FT                   15.0000:    Feet Above Perm. Datum
 DMF .                          KB:    Drilling Measured From
 EKB .FT                 6627.0000:    Elevation Of Kelly Bushing
 EDF .FT                 6626.0000:    Elevation Of Derrick Floor
 EGL .FT                 6611.0000:    Elevation Of Ground Level
 TD  .FT                 9700.0000:    Total Depth
 DD  .FT                 9735.0000:    Depth Driller
 DL  .FT                 9729.0000:    Depth Logger
 BLI .FT                 9719.0000:    Bottom Log Interval
 TLI .FT                 1716.0000:    Top Log Interval
 CSIZ.IN                  9.625 IN:    Casing Size
 CBD1.                        1715:    Casing Bottom (Driller) 1
 CBL1.                        1716:    Casing Bottom (Logger) 1
 BS  .IN                   7.675IN:    Bit Size
 DFT .                    GEL-CHEM:    Drilling Fluid Type
 DFV .S                    45.0000:    Drilling Fluid Viscosity
 DFD .LB/G                 10.1000:    Drilling Fluid Density
 DFL .ML                    8.0000:    Drilling Fluid Loss
 DFPH.                     10.0000:    Drilling Fluid Ph
 MSS .                     MUDTANK:    Mud Sample Source
 RMS .OHMM                  1.4400:    Resistivity Of Mud Sample
 MST .DEGF                 85.0000:    Mud Sample Temperature
 RMF .OHMM                  1.1700:    Mud Filtrate Resistivity
 MFST.DEGF                 80.0000:    Mud Filtrate Sample Temperature
 RMC .OHMM                  1.3300:    Mud Cake Resistivity
 MCST.DEGF                 80.0000:    Mud Cake Sample Temperature
 RMB .OHMM                  0.7480:    Mud Resistivity At Bht
 BHT .DEGF                170.0000:    Bottom Hole Temperature
 MRT .DEGF                170.0000:    Maximum Recorded Temperature
 LUN .                        8415:    Logging Unit Number
 LUL .                      CASPER:    Logging Unit Location
 ENGI.                 CHRISTENSEN:    Engineer'S Name
 WITN.                       LYNON:    Witness' Name
 DGBY.                         R2V:    
 WSTA.                         LOC:    
#
~Other Information Block
<DescLogPlotStart>   NEURALOG PLOT DEFINITION
PLOTDEFVERSION: 3
LASFILE: C:\nds\projects\mf-nov-13\las\3723385A.las
DEPTHSCALE: 240.000000
RESOLUTION: 200
DEPTHLABELFREQ: 100.000000
HEAVYGRIDFREQ: 100.000000
MEDIUMGRIDFREQ: 50.000000
LIGHTGRIDFREQ: 10.000000
#
#   TRACK 1
#
STARTTRACK: 
 LEFTX: 0.500000 inch
 RIGHTX: 3.000000 inch
 SCALETYPE: Log
 NUMCYCLES: 4
 STARTCYCLE: 2
CURVE: ILD   0.200000   2000.000000 (0,0,255)      Solid             2     N   
ENDTRACK: 
#
#   TRACK 2
#
STARTTRACK: 
 LEFTX: 3.500000 inch
 RIGHTX: 6.000000 inch
 SCALETYPE: Linear
 NUMCHARTDIVISIONS: 10
CURVE: SP    -80.000000 20.000000  (0,131,131)    Solid             2     Y    
BACKUP: 20.000000  120.000000 (0,131,131)    Solid             2    
BACKUP: -180.000000 -80.000000 (0,131,131)    Solid             2    
ENDTRACK: 
#
#   TRACK 3
#
STARTTRACK: 
 LEFTX: 6.000000 inch
 RIGHTX: 11.000000 inch
 SCALETYPE: Linear
 NUMCHARTDIVISIONS: 10
CURVE: RHOB  2.000000   3.000000   (255,0,255)    Solid             2     Y    
BACKUP: 1.000000   2.000000   (255,0,255)    Solid             2    
CURVE: PEF   0.000000   10.000000  (255,0,0)      Dot               2     N    
ENDTRACK: 
#
#   TRACK 4
#
STARTTRACK: 
 LEFTX: 11.000000 inch
 RIGHTX: 13.500000 inch
 SCALETYPE: Linear
 NUMCHARTDIVISIONS: 10
CURVE: GR    0.000000   150.000000 (255,131,0)    Solid             2     Y    
BACKUP: 150.000000 300.000000 (255,131,0)    Solid             2    
CURVE: CALI  6.000000   16.000000  (255,255,0)    Dot               2     Y    
BACKUP: 16.000000  26.000000  (255,255,0)    Dot               2    
ENDTRACK: 
#
#   TRACK 5
#
STARTTRACK: 
 LEFTX: 13.500000 inch
 RIGHTX: 18.500000 inch
 SCALETYPE: Linear
 NUMCHARTDIVISIONS: 10
CURVE: DPHI  0.300000   -0.100000  (0,0,255)      Solid             2     N    
CURVE: NPHI  0.300000   -0.100000  (0,131,131)    Dot               2     Y    
BACKUP: 0.700000   0.300000   (0,131,131)    Dot               2    
ENDTRACK: 
#
#   TRACK 6
#
STARTTRACK: 
 LEFTX: 13.500000 inch
 RIGHTX: 18.500000 inch
 SCALETYPE: Linear
 NUMCHARTDIVISIONS: 10
CURVE: DTCO  240.000000 40.000000  (255,0,255)    Solid             2     N    
ENDTRACK: 
<DescLogPlotEnd>
~A DEPTH     ILD              SP               RHOB             PEF              GR               CALI             DPHI             NPHI             DTCO            
# ...
    8596.900 25.01305731      -31.72168085     2.60476050       3.05254672       89.72285142      8.76244717       0.02710533       0.12243523       -999.25000000   
    8597.000 24.86681257      -31.71148813     2.60534530       3.05190559       90.76564065      8.76254679       0.02677318       0.12270439       -999.25000000   
    8597.100 24.72142288      -31.70085073     2.60620532       3.05675839       91.83961122      8.76264640       0.02657062       0.12296073       -999.25000000   
    8597.200 24.57688325      -31.68992135     2.60750622       3.06741593       93.03497979      8.76274602       0.02626228       0.12368077       -999.25000000   
    8597.300 24.43318871      -31.68005697     2.60905276       3.07866164       94.23313784      8.76284563       0.02482118       0.12436808       -999.25000000   
    8597.400 24.29033431      -31.67071000     2.61060614       3.08672395       95.23621845      8.76294525       0.02337997       0.12505539       -999.25000000   
    8597.500 24.14831514      -31.65925814     2.61216522       3.09318953       95.96756152      8.76304487       0.02206905       0.12574270       -999.25000000   
    8597.600 24.00712632      -31.64708728     2.61374167       3.10074457       96.54759099      8.76314448       0.02062916       0.12643001       -999.25000000   
    8597.700 23.86676299      -31.63923419     2.61520554       3.10916509       97.14753592      8.76324410       0.01932047       0.12711732       -999.25000000   
    8597.800 23.72722033      -31.63225422     2.61663725       3.11701109       97.79333288      8.76334371       0.01787255       0.12780463       -999.25000000   
    8597.900 23.58849354      -31.61054058     2.61847184       3.12420811       98.40426832      8.76344333       0.01657540       0.12849194       -999.25000000   
    8598.000 23.45057785      -31.56349063     2.62097376       3.13171896       98.99361459      8.76354295       0.01511034       0.12917925       -999.25000000   
    8598.100 23.29673480      -31.49920610     2.62386641       3.14000485       99.64897484      8.76364256       0.01383447       0.12986657       -999.25000000   
    8598.200 23.22237252      -31.43357758     2.62671694       3.14796029       100.29581225     8.76374218       0.01234525       0.13055388       -999.25000000   
    8598.300 23.13792341      -31.37276170     2.62940111       3.15320107       100.70432234     8.76384179       0.01057402       0.13124119       -999.25000000   
    8598.400 23.05378141      -31.31276946     2.63205337       3.15450029       100.80498699     8.76394141       0.00972810       0.13192850       -999.25000000   
    8598.500 22.96994539      -31.24952715     2.63482226       3.15379690       100.78606465     8.76404102       0.00845921       0.13261581       -999.25000000   
    8598.600 22.88641425      -31.18454662     2.63769669       3.15425429       100.78637252     8.76414064       0.00719033       0.13343404       -999.25000000   
    8598.700 22.80318687      -31.12314971     2.64034702       3.15676322       100.70118925     8.76424026       0.00574018       0.13343404       -999.25000000   
    8598.800 22.72026215      -31.06519515     2.64225650       3.15986632       100.41173695     8.76433987       0.00517623       0.13343404       -999.25000000   
    8598.900 22.63763899      -31.00164825     2.64325885       3.16243476       100.00929951     8.76443949       0.00451829       0.13343404       -999.25000000   
    8599.000 22.55531629      -30.93206537     2.64377927       3.16476743       99.64922749      8.76453910       0.00386036       0.13298087       -999.25000000   
    8599.100 22.47329297      -30.87265901     2.64433256       3.16739262       99.33867388      8.76463872       0.00320242       0.13250504       -999.25000000   
    8599.200 22.39156792      -30.82346261     2.64500968       3.17017861       99.00506011      8.76473834       0.00254448       0.13202920       -999.25000000   
    8599.300 22.31014007      -30.75320252     2.64564540       3.17272687       98.64994273      8.76483795       0.00188654       0.13155337       -999.25000000   
    8599.400 22.22900834      -30.66181178     2.64621703       3.17508960       98.31433886      8.76493757       0.00122860       0.13107754       -999.25000000   
    8599.500 22.14817164      -30.63022981     2.64683175       3.17773498       97.98295822      8.76503718       0.00057066       0.13060171       -999.25000000   
    8599.600 22.06762891      -30.74442905     2.64748582       3.18064700       97.62917540      8.76513680       0.00010070       0.13012588       -999.25000000   
    8599.700 21.98737908      -30.98601622     2.64804707       3.18310615       97.30752810      8.76523642       0.00002244       0.12980866       -999.25000000   
    8599.800 21.90742108      -31.25888999     2.64842748       3.18514744       97.12024874      8.76533603       -0.00004151      0.12980866       -999.25000000   
    8599.900 21.82775385      -31.50736747     2.64866248       3.18808894       97.09327041      8.76543565       -0.00011209      0.12997656       -999.25000000   
    8600.000 21.74837633      -31.74787940     2.64884227       3.19187819       97.13069688      8.76553526       -0.00016286      0.13009814       -999.25000000   
    8600.100 21.63548035      -32.00150822     2.64902148       3.19312937       97.12128327      8.76563488       -0.00023041      0.13021973       -999.25000000   
    8600.200 21.65950213      -32.25837665     2.64920234       3.18834969       97.08080157      8.76573449       -0.00028430      0.13034131       -999.25000000   
    8600.300 21.70160443      -32.50745842     2.64937692       3.17838951       97.15112585      8.76583411       -0.00034847      0.13046289       -999.25000000   
    8600.400 21.74378857      -32.75521528     2.64955376       3.16720295       97.44091432      8.76593373       -0.00040661      0.13061430       -999.25000000   
    8600.500 21.78605472      -33.00836397     2.64973869       3.15701771       97.89875328      8.76603334       -0.00046869      0.13061430       -999.25000000   
    8600.600 21.82840302      -33.26213511     2.64991898       3.14716341       98.37777395      8.76613296       -0.00052885      0.13061430       -999.25000000   
    8600.700 21.87083363      -33.51101400     2.65009009       3.13680701       98.80775108      8.76623257       -0.00058972      0.13033635       -999.25000000   
    8600.800 21.91334673      -33.75955515     2.65027205       3.12627344       99.24484984      8.76633219       -0.00065062      0.13001611       -999.25000000   
    8600.900 21.95594246      -34.01447538     2.65046671       3.11598135       99.73220469      8.76643181       -0.00071100      0.12969587       -999.25000000   
    8601.000 21.99862100      -34.26922158     2.65063957       3.10587379       100.17439201     8.76653142       -0.00077240      0.12937563       -999.25000000   
    8601.100 22.03934434      -34.51352448     2.65079271       3.09570345       100.42107047     8.76663104       -0.00083206      0.12905539       -999.25000000   
    8601.200 21.97047200      -34.75945328     2.65099177       3.08523746       100.44979078     8.76673065       -0.00089485      0.12873515       -999.25000000   
    8601.300 21.90493099      -35.02476064     2.65123210       3.07470394       100.38624986     8.76683027       -0.00095373      0.12841490       -999.25000000   
    8601.400 21.83958551      -35.27713396     2.65134750       3.06471638       100.34561711     8.76692989       -0.00101807      0.12807821       -999.25000000   
    8601.500 21.77443496      -35.43804538     2.65117558       3.05489710       100.33221146     8.76702950       -0.00107427      0.12778644       -999.25000000   
    8601.600 21.70947876      -35.47570671     2.65076810       3.04397108       100.30621659     8.76712912       -0.00111407      0.12743381       -999.25000000   
    8601.700 21.64471634      -35.45624086     2.65031640       3.03271544       100.26683317     8.76722873       -0.00110703      0.12700024       -999.25000000   
