~Version Information Block
 VERS.                2.00:     CWLS LOG ASCII STANDARD - VERSION 2.000000
 WRAP.                  NO:     One Line Per Depth Step
#
~Well Information Block
#MNEM.UNIT                     Data                         Information
#----------   ------------------------------------------   ----------------
 STRT.FT                                     8200.0000:     START DEPTH
 STOP.FT                                     9700.0000:     STOP DEPTH
 STEP.FT                                        0.1000:     STEP
 NULL.                                       -999.2500:     NULL VALUE
 COMP.                        PRESIDIO EXPLORATION INC:     COMPANY
 WELL.                                   HAY DAM 34-12:     WELL
 FLD .                                          HAYDAM:     FIELD
 LOC .                                   SEC12-23N-97W:     LOCATION
 CNTY.                                      SWEETWATER:     COUNTY
 STAT.                                         WYOMING:     STATE
 CTRY.                                             USA:     COUNTRY
 SRVC.                                    SCHLUMBERGER:     SERVICE COMPANY
 DATE.                                      26/07/1994:     DATE
 API .                                      4903723385:     API NUMBER
 UWI .                                         3723385:     UWI NUMBER
 TVD .                                              NO:     TVD flag
 WSTA.                                             LOC:     Well status
 USGS.                                            F041:     USGS Number
 LATI.DEG                                     41.97739:     LATITUDE
 LONG.DEG                                   -108.32133:     LONGITUDE
 UTM-N.                                        4650736:     Northing
 UTM-E.                                      721928.25:     Easting
 CORE.                                              -5:     Core/Log Offset
#
~Curve Information Block
#MNEM.UNIT       API CODE      Curve Description
#----------    -------------   -------------------
 DEPT.FT                   :   Depth in Feet
 ILD .OHMM     05 120 46 01:   Deep Induction Standard Processed Resistivity
 SP  .MV       01 010 01 01:   Spontaneous Potential
 RHOB.G/C3     42 350 01 01:   Bulk Density
 PEF .b/e                  :   Photo-Electric Factor
 GR  .GAPI     35 310 01 01:   Gamma Ray
 CALI.IN       70 280 01 01:   Caliper
 DPHI.V/V      45 890 01 01:   Density Porosity
 NPHI.V/V      42 890 03 01:   Neutron Porosity
 DTCO.US/F                 :   Delta-T Compressional
#
~Parameter Information Block
#MNEM.UNIT            Value               Description
#----------    --------------------    -------------------
 DATE.                  26-07-1994:    Date As Month-Day-Year
 RUN .                         ONE:    Run Number
 PDAT.                         UNK:    Permanent Datum
 EPD .FT                 6611.0000:    Elevation Of Perm. Datum
 LMF .                          KB:    Log Measured From
 FAPD.FT                   15.0000:    Feet Above Perm. Datum
 DMF .                          KB:    Drilling Measured From
 EKB .FT                 6627.0000:    Elevation Of Kelly Bushing
 EDF .FT                 6626.0000:    Elevation Of Derrick Floor
 EGL .FT                 6611.0000:    Elevation Of Ground Level
 TD  .FT                 9700.0000:    Total Depth
 DD  .FT                 9735.0000:    Depth Driller
 DL  .FT                 9729.0000:    Depth Logger
 BLI .FT                 9719.0000:    Bottom Log Interval
 TLI .FT                 1716.0000:    Top Log Interval
 CSIZ.IN                  9.625 IN:    Casing Size
 CBD1.                        1715:    Casing Bottom (Driller) 1
 CBL1.                        1716:    Casing Bottom (Logger) 1
 BS  .IN                   7.675IN:    Bit Size
 DFT .                    GEL-CHEM:    Drilling Fluid Type
 DFV .S                    45.0000:    Drilling Fluid Viscosity
 DFD .LB/G                 10.1000:    Drilling Fluid Density
 DFL .ML                    8.0000:    Drilling Fluid Loss
 DFPH.                     10.0000:    Drilling Fluid Ph
 MSS .                     MUDTANK:    Mud Sample Source
 RMS .OHMM                  1.4400:    Resistivity Of Mud Sample
 MST .DEGF                 85.0000:    Mud Sample Temperature
 RMF .OHMM                  1.1700:    Mud Filtrate Resistivity
 MFST.DEGF                 80.0000:    Mud Filtrate Sample Temperature
 RMC .OHMM                  1.3300:    Mud Cake Resistivity
 MCST.DEGF                 80.0000:    Mud Cake Sample Temperature
 RMB .OHMM                  0.7480:    Mud Resistivity At Bht
 BHT .DEGF                170.0000:    Bottom Hole Temperature
 MRT .DEGF                170.0000:    Maximum Recorded Temperature
 LUN .                        8415:    Logging Unit Number
 LUL .                      CASPER:    Logging Unit Location
 ENGI.                 CHRISTENSEN:    Engineer'S Name
 WITN.                       LYNON:    Witness' Name
 DGBY.                         R2V:    
 WSTA.                         LOC:    
#
~Other Information Block
<DescLogPlotStart>   NEURALOG PLOT DEFINITION
PLOTDEFVERSION: 3
LASFILE: C:\nds\projects\mf-nov-13\las\3723385A.las
DEPTHSCALE: 240.000000
RESOLUTION: 200
DEPTHLABELFREQ: 100.000000
HEAVYGRIDFREQ: 100.000000
MEDIUMGRIDFREQ: 50.000000
LIGHTGRIDFREQ: 10.000000
#
#   TRACK 1
#
STARTTRACK: 
 LEFTX: 0.500000 inch
 RIGHTX: 3.000000 inch
 SCALETYPE: Log
 NUMCYCLES: 4
 STARTCYCLE: 2
CURVE: ILD   0.200000   2000.000000 (0,0,255)      Solid             2     N   
ENDTRACK: 
#
#   TRACK 2
#
STARTTRACK: 
 LEFTX: 3.500000 inch
 RIGHTX: 6.000000 inch
 SCALETYPE: Linear
 NUMCHARTDIVISIONS: 10
CURVE: SP    -80.000000 20.000000  (0,131,131)    Solid             2     Y    
BACKUP: 20.000000  120.000000 (0,131,131)    Solid             2    
BACKUP: -180.000000 -80.000000 (0,131,131)    Solid             2    
ENDTRACK: 
#
#   TRACK 3
#
STARTTRACK: 
 LEFTX: 6.000000 inch
 RIGHTX: 11.000000 inch
 SCALETYPE: Linear
 NUMCHARTDIVISIONS: 10
CURVE: RHOB  2.000000   3.000000   (255,0,255)    Solid             2     Y    
BACKUP: 1.000000   2.000000   (255,0,255)    Solid             2    
CURVE: PEF   0.000000   10.000000  (255,0,0)      Dot               2     N    
ENDTRACK: 
#
#   TRACK 4
#
STARTTRACK: 
 LEFTX: 11.000000 inch
 RIGHTX: 13.500000 inch
 SCALETYPE: Linear
 NUMCHARTDIVISIONS: 10
CURVE: GR    0.000000   150.000000 (255,131,0)    Solid             2     Y    
BACKUP: 150.000000 300.000000 (255,131,0)    Solid             2    
CURVE: CALI  6.000000   16.000000  (255,255,0)    Dot               2     Y    
BACKUP: 16.000000  26.000000  (255,255,0)    Dot               2    
ENDTRACK: 
#
#   TRACK 5
#
STARTTRACK: 
 LEFTX: 13.500000 inch
 RIGHTX: 18.500000 inch
 SCALETYPE: Linear
 NUMCHARTDIVISIONS: 10
CURVE: DPHI  0.300000   -0.100000  (0,0,255)      Solid             2     N    
CURVE: NPHI  0.300000   -0.100000  (0,131,131)    Dot               2     Y    
BACKUP: 0.700000   0.300000   (0,131,131)    Dot               2    
ENDTRACK: 
#
#   TRACK 6
#
STARTTRACK: 
 LEFTX: 13.500000 inch
 RIGHTX: 18.500000 inch
 SCALETYPE: Linear
 NUMCHARTDIVISIONS: 10
CURVE: DTCO  240.000000 40.000000  (255,0,255)    Solid             2     N    
ENDTRACK: 
<DescLogPlotEnd>
~A DEPTH     ILD              SP               RHOB             PEF              GR               CALI             DPHI             NPHI             DTCO            
# ...
    9096.700 25.78196638      -13.92329806     2.66465601       3.14382673       114.31256304     8.64701541       -0.00989527      0.12309097       62.79116466     
    9096.800 25.75424738      -13.86001573     2.66575328       3.12901001       113.54798869     8.64752432       -0.01062840      0.12215509       62.79116466     
    9096.900 25.72655818      -13.79828928     2.66695939       3.11465993       112.75278153     8.64803323       -0.01136153      0.12215509       62.79116466     
    9097.000 25.69889875      -13.73835820     2.66827516       3.09822030       111.93152232     8.64854213       -0.01209466      0.12215509       62.79116466     
    9097.100 25.67126906      -13.67745831     2.66945820       3.08054129       111.17192276     8.64905104       -0.01282779      0.12215509       62.79116466     
    9097.200 25.64366907      -13.61568224     2.67054075       3.06705888       110.42776677     8.64955995       -0.01356093      0.12215509       62.79116466     
    9097.300 25.61609875      -13.55446135     2.67184773       3.06107478       109.56381864     8.65006886       -0.01399799      0.12266353       62.79116466     
    9097.400 25.58634040      -13.49361972     2.67331620       3.06089791       108.69737814     8.65057776       -0.01435086      0.12303592       62.79116466     
    9097.500 25.55444856      -13.43249855     2.67423805       3.06560807       108.21487974     8.65108667       -0.01460222      0.12340830       62.79116466     
    9097.600 25.57898994      -13.37123032     2.67404991       3.07758981       108.31323135     8.65159558       -0.01485358      0.12378069       62.72021419     
    9097.700 25.61894372      -13.31009822     2.67306297       3.09682735       108.78173352     8.65210449       -0.01520645      0.12415307       62.64926372     
    9097.800 25.65386898      -13.24904573     2.67201351       3.11847825       109.35133934     8.65261340       -0.01484143      0.12452546       62.57831325     
    9097.900 25.69323534      -13.18797227     2.67117660       3.13856208       109.99049160     8.65312230       -0.01422914      0.12489784       62.50736278     
    9098.000 25.72909446      -13.12689881     2.67034429       3.15764879       110.74593041     8.65363121       -0.01361686      0.12537764       62.43641232     
    9098.100 25.76770472      -13.06582535     2.66940384       3.17757262       111.54999107     8.65414012       -0.01300457      0.12537764       62.36546185     
    9098.200 25.80449362      -13.00475189     2.66846969       3.19819159       112.31295587     8.65464903       -0.01239228      0.12537764       62.29451138     
    9098.300 25.84250427      -12.94367843     2.66759280       3.21832286       113.03764559     8.65515794       -0.01178000      0.12494824       62.22356091     
    9098.400 25.87995741      -12.88260497     2.66670591       3.23770790       113.75470367     8.65566684       -0.01116771      0.12440363       62.15261044     
    9098.500 25.91769071      -12.82153151     2.66579283       3.25744201       114.41139028     8.65617575       -0.01055543      0.12385901       62.08165997     
    9098.600 25.95548505      -12.76049191     2.66489095       3.27839571       114.84509863     8.65668466       -0.00994314      0.12331440       62.01070950     
    9098.700 25.99322027      -12.69937236     2.66399287       3.29858719       114.88508522     8.65719357       -0.00933085      0.12276979       61.93975904     
    9098.800 26.03115117      -12.63808015     2.66308100       3.31342979       114.54257962     8.65770248       -0.00871857      0.12222518       61.86880857     
    9098.900 26.06913140      -12.57693514     2.66220613       3.32044296       114.04351833     8.65821138       -0.00810628      0.12168056       61.78714859     
    9099.000 26.10704834      -12.51615183     2.66145173       3.32258587       113.58530719     8.65872029       -0.00755287      0.12113595       61.81436199     
    9099.100 26.14502043      -12.45497571     2.66083989       3.32509944       113.16719087     8.65922920       -0.00717667      0.12059134       61.84641333     
    9099.200 26.18304775      -12.39307149     2.66031044       3.32975664       112.73547532     8.65973811       -0.00683347      0.12014099       61.87846467     
    9099.300 26.22113038      -12.33209960     2.65979005       3.33374716       112.31114514     8.66024702       -0.00649027      0.12014099       61.91051601     
    9099.400 26.25926840      -12.27242133     2.65925870       3.33370544       111.88324578     8.66075592       -0.00614707      0.12014099       61.94256734     
    9099.500 26.29746189      -12.21085259     2.65873765       3.32936680       111.39992220     8.66126483       -0.00580387      0.12139416       61.97461868     
    9099.600 26.33571093      -12.14720884     2.65822281       3.32318886       110.97133753     8.66177374       -0.00546067      0.12239671       62.00667002     
    9099.700 26.37401561      -12.08729830     2.65768633       3.31747890       110.85216881     8.66228265       -0.00511747      0.12339925       62.03872136     
    9099.800 26.41237600      -12.03089616     2.65714889       3.31265320       111.11321917     8.66279156       -0.00477427      0.12440179       62.07077269     
    9099.900 26.45079218      -11.96674512     2.65665291       3.30817412       111.52913348     8.66330046       -0.00443107      0.12540433       62.10282403     
    9100.000 26.48926424      -11.89329019     2.65615191       3.30454357       111.87333310     8.66380937       -0.00392749      0.12640687       62.13487537     
    9100.100 26.52779225      -11.83329317     2.65557187       3.30365241       112.15710750     8.66431828       -0.00392749      0.12740942       62.16692671     
    9100.200 26.56637630      -11.80972384     2.65499111       3.30685911       112.52186545     8.66482719       -0.00392749      0.12841196       62.19897804     
    9100.300 26.60501648      -11.81515073     2.65457301       3.31312825       113.02774600     8.66533610       -0.00392749      0.12941450       62.23102938     
    9100.400 26.64371285      -11.82233347     2.65434306       3.31987948       113.61028037     8.66584500       -0.00392749      0.13041704       62.26308072     
    9100.500 26.68180397      -11.81873121     2.65428484       3.32574101       114.19449292     8.66635391       -0.00424136      0.13141958       62.29513206     
    9100.600 26.72322870      -11.81432271     2.65459420       3.33147152       114.79749506     8.66686282       -0.00463646      0.13242213       62.32718339     
    9100.700 26.76237546      -11.81853596     2.65548120       3.33785668       115.46002038     8.66737173       -0.00503155      0.13343404       62.35923473     
    9100.800 26.75320033      -11.82337390     2.65676186       3.34423314       116.07697925     8.66788064       -0.00542665      0.13343404       62.39128607     
    9100.900 26.73782045      -11.81198911     2.65804072       3.35007640       116.43524935     8.66838954       -0.00582175      0.13303122       62.42333741     
    9101.000 26.72727899      -11.77753905     2.65924154       3.35623046       116.48004181     8.66889815       -0.00621685      0.13303122       62.45538874     
    9101.100 26.71252701      -11.72934126     2.66052028       3.36297564       116.37536724     8.66940742       -0.00661195      0.13303122       62.48744008     
    9101.200 26.70124913      -11.68084519     2.66171778       3.36897742       116.22634521     8.66991819       -0.00700705      0.13262840       62.51949142     
    9101.300 26.68730972      -11.63602495     2.66240024       3.37419268       115.94130199     8.67042774       -0.00740215      0.13262840       62.55154275     
    9101.400 26.67527156      -11.59100483     2.66246526       3.38103311       115.45491649     8.67093412       -0.00779725      0.13222558       62.58359409     
    9101.500 26.66202390      -11.54410174     2.66227990       3.38938663       114.87778163     8.67144381       -0.00835851      0.13182157       62.61564543     
