~Version ---------------------------------------------------
VERS.   2.0 : CWLS log ASCII Standard -VERSION 2.0
WRAP.    NO : One line per depth step
DLM . SPACE : Column Data Section Delimiter
~Well ------------------------------------------------------
STRT.FT   8950.0     : START DEPTH
STOP.FT  10550.0     : STOP DEPTH
STEP.FT      0.5     : STEP
NULL.    -999.25     : NULL VALUE
COMP.        HRM     : COMPANY
WELL.57 Hay Reservoir: WELL
FLD .  Hay Reservoir : FIELD
LOC .     24N 97W    : LOCATION
CNTY.     Sweetwater : COUNTY
STAT.         WY     : STATE
CTRY.          USA   : COUNTRY
SRVC.           SLB? : SERVICE COMPANY
DATE. 11/14/2019     : DATE
API . 4903723193     : API NUMBER
UWI .   3723193A     : UWI NUMBER
TVD .         NO     : TVD flag
WSTA.        LOC     : Well status
USGS.            E952: USGS Number
LATI.DEG     42.04063: LATITUDE
LONG.DEG   -108.36672: LONGITUDE
UTM-N.     4657642.54: Northing
UTM-E.      717951.25: Easting
CORE.              -4: Core/Log Offset
~Curve Information -----------------------------------------
DEPT.FT                : Depth in Feet
DPHI.V/V  45 890 01 01 : Density Porosity
NPHI.V/V  42 890 03 01 : Neutron Porosity
GR  .API  35 310 01 01 : Gamma Ray
CALI.IN   70 280 01 01 : Caliper
RHOB.G/CC 42 350 01 01 : Bulk Density
PEF .BARN              : Photoelectric Effect
ILD .                  : Deep Induction
SP  .                  : Spontaneous Potential
~Params ----------------------------------------------------
~Other -----------------------------------------------------
~ASCII -----------------------------------------------------
# ...
 10390.00000   -0.10100    0.24900  140.31900    8.68600    3.02200    3.63600    5.24900  -10.58600
 10390.50000   -0.10100    0.25100  146.08300    8.71300    2.89800    3.62600    5.22000  -10.48900
 10391.00000   -0.10100    0.26700  152.51500    7.18800    2.75200    3.42300    5.19100  -10.39300
 10391.50000   -0.01100    0.28500  160.80200    6.07100    2.60100    3.20200    5.16200  -10.29800
 10392.00000    0.08000    0.29900  168.98700    3.62400    2.52100    2.98100    5.13300  -10.20300
 10392.50000    0.06600    0.30000  176.51200    2.00700    2.53200    2.76000    5.10400  -10.10800
 10393.00000    0.04400    0.30000  178.08200    2.00700    2.56900    2.53800    5.07200  -10.01300
 10393.50000    0.02100    0.30300  179.53900    2.00500    2.63400    2.32000    5.02800   -9.91700
 10394.00000    0.01400    0.30600  179.76800    2.00500    2.66400    2.27200    4.98600   -9.93800
 10394.50000    0.01500    0.30800  179.66900    2.00400    2.65000    2.48300    4.94300  -10.03400
 10395.00000    0.01700    0.31100  179.49000    2.00200    2.62800    2.71400    4.90100  -10.13100
 10395.50000    0.02000    0.31400  178.62100    2.00100    2.61300    2.83300    4.85900  -10.22800
 10396.00000    0.02300    0.31700  176.81800    1.99900    2.61000    2.87900    4.82300  -10.32500
 10396.50000    0.02600    0.31600  174.51000    1.99800    2.60600    2.95600    4.88200  -10.42100
 10397.00000    0.02900    0.31100  174.15300    1.99600    2.60000    3.04500    4.94700  -10.51800
 10397.50000    0.03100    0.30500  173.19900    1.99500    2.59600    3.13800    5.01200  -10.61500
 10398.00000    0.03200    0.30000  171.95200    1.99300    2.59600    3.18800    5.07800  -10.71300
 10398.50000    0.02900    0.29300  169.70800    1.99200    2.60100    3.12400    5.14500  -10.80900
 10399.00000    0.02700    0.28600  167.41300    1.99000    2.60500    3.05700    5.21300  -10.86400
 10399.50000    0.02400    0.28400  165.11300    1.98800    2.60800    2.99100    5.28200  -10.73800
 10400.00000    0.02100    0.28500  162.64400    2.04200    2.60900    2.97400    5.31500  -10.61600
 10400.50000    0.01600    0.27700  159.28100    2.05900    2.61400    3.04500    5.34400  -10.49400
 10401.00000    0.00300    0.25900  156.03200    3.67100    2.63100    3.32400    5.37200  -10.37200
 10401.50000   -0.01000    0.24200  152.79900    5.72500    2.66000    3.54800    5.44000  -10.25000
 10402.00000   -0.02000    0.22900  150.95100    7.41200    2.67700    3.69000    5.54200  -10.12800
 10402.50000   -0.01900    0.22100  150.55600    8.89800    2.67800    3.82900    5.62000  -10.10700
 10403.00000   -0.01800    0.21400  144.34800    8.82400    2.67900    3.72900    5.72000  -10.14900
 10403.50000   -0.01700    0.20600  127.51500    8.81800    2.68000    3.60500    5.82300  -10.19200
 10404.00000   -0.01700    0.19600  115.74300    8.81600    2.67600    3.49000    5.92700  -10.23500
 10404.50000   -0.01400    0.18600  118.16400    8.80800    2.66800    3.51000    6.02400  -10.27800
 10405.00000   -0.01100    0.17600  122.23800    8.80000    2.66000    3.56200    6.40100  -10.32100
 10405.50000   -0.00800    0.16200  120.41400    8.79800    2.65800    3.73500    6.78400  -10.36400
 10406.00000   -0.00700    0.14800  108.21400    8.79800    2.66200    3.91100    7.05200  -10.40800
 10406.50000   -0.00900    0.13800   94.24300    8.79800    2.66500    3.97000    7.00500  -10.45000
 10407.00000   -0.01000    0.14800   87.80400    8.80700    2.66900    3.97100    6.98700  -10.43500
 10407.50000   -0.01200    0.16300   98.13600    8.81700    2.66900    3.98500    7.24700  -10.18500
 10408.00000   -0.01400    0.17800  109.32500    8.81800    2.66900    4.01100    7.52300   -9.94100
 10408.50000   -0.01400    0.18900  118.48400    8.81800    2.67300    4.03200    7.80900   -9.68900
 10409.00000   -0.01300    0.19200  122.58500    8.81800    2.67500    3.95600    8.02900   -9.53900
 10409.50000   -0.01200    0.19200  126.83800    8.81800    2.67200    3.82800    7.89600   -9.38900
 10410.00000   -0.01100    0.19200  126.93600    8.81800    2.66600    3.80000    7.77300   -9.23700
 10410.50000   -0.01000    0.19300  124.30600    8.81800    2.66300    3.79900    7.73700   -9.08600
 10411.00000   -0.01000    0.19400  120.94700    8.81800    2.66500    3.76700    7.79800   -8.93300
 10411.50000   -0.01000    0.19500  119.43700    8.81800    2.66700    3.70700    7.98400   -8.78300
 10412.00000   -0.01100    0.19600  118.80600    8.81800    2.66700    3.66100    8.17500   -8.70400
 10412.50000   -0.01200    0.19400  117.35000    8.81800    2.66800    3.67800    8.37100   -8.85800
 10413.00000   -0.01200    0.19000  117.10100    8.81800    2.66800    3.70200    8.57000   -8.92500
 10413.50000   -0.01400    0.19000  120.84200    8.81800    2.67200    3.70600    8.72700   -8.98200
 10414.00000   -0.01800    0.19100  125.35400    8.81800    2.67900    3.55100    8.53000   -9.03900
 10414.50000   -0.02100    0.19300  128.97200    8.81800    2.68300    3.40100    8.37400   -9.09700
 10415.00000   -0.02300    0.19500  129.98000    8.81800    2.68300    3.26100    8.22000   -9.15400
 10415.50000   -0.02100    0.19600  130.75100    8.81800    2.67800    3.27700    8.07000   -9.21100
 10416.00000   -0.01700    0.19800  130.32600    8.81900    2.66900    3.40600    7.92200   -9.27100
 10416.50000   -0.01300    0.20100  127.51600    8.83400    2.65900    3.52900    7.77700   -9.20000
 10417.00000   -0.00800    0.20700  122.69000    8.84900    2.65000    3.64500    7.63400   -9.11200
 10417.50000   -0.00400    0.21100  118.00100    8.85600    2.64000    3.59100    7.49400   -9.02400
 10418.00000    0.00100    0.21000  113.28900    8.84800    2.64000    3.53100    7.37600   -8.93600
 10418.50000    0.00500    0.19800  112.92700    8.84100    2.64200    3.48800    7.33000   -8.84900
 10419.00000    0.00600    0.18600  115.71300    8.84600    2.63800    3.57700    7.28400   -8.76100
 10419.50000    0.00700    0.18400  118.19300    8.85700    2.63300    3.67200    7.23800   -8.67300
 10420.00000    0.00800    0.19100  115.13900    8.85200    2.63100    3.52900    7.19300   -8.58600
 10420.50000    0.00800    0.19800  109.33100    8.84400    2.63200    3.34500    7.14800   -8.49600
 10421.00000    0.00600    0.20300  104.33900    8.83800    2.63400    3.18000    7.09300   -8.49500
 10421.50000    0.00400    0.20700  102.22700    8.83800    2.63800    3.16700    6.91100   -8.52800
 10422.00000    0.00200    0.20900  102.34000    8.84000    2.64500    3.16700    6.73400   -8.56200
 10422.50000   -0.00100    0.20800  104.42900    8.84700    2.65100    3.18000    6.56200   -8.59600
 10423.00000    0.00200    0.20700  106.59400    8.85500    2.64800    3.26700    6.39400   -8.62900
 10423.50000    0.00800    0.20600  108.80300    8.85400    2.63600    3.48300    6.23000   -8.66300
 10424.00000    0.01400    0.20600  109.44400    8.84700    2.62800    3.64700    6.08000   -8.69700
 10424.50000    0.01600    0.20800  106.38600    8.84000    2.62200    3.66300    6.08000   -8.73100
 10425.00000    0.01500    0.20600  103.18000    8.83100    2.62300    3.63200    6.08000   -8.76400
 10425.50000    0.00800    0.20300  101.71400    8.82200    2.63100    3.55000    6.09800   -8.79800
 10426.00000    0.00200    0.20000  103.15900    8.82400    2.64000    3.39300    6.15300   -8.83200
 10426.50000   -0.00300    0.19700  105.01100    8.83300    2.64900    3.22800    6.20800   -8.87200
 10427.00000   -0.00400    0.19800  104.43000    8.83700    2.65400    3.14000    6.26400   -8.64400
 10427.50000   -0.00300    0.19900  102.82800    8.83500    2.65200    3.20500    6.32100   -8.34900
 10428.00000   -0.00100    0.19700  105.93500    8.83300    2.64800    3.24600    6.37800   -8.07500
 10428.50000    0.00000    0.19500  110.84500    8.83100    2.64700    3.21700    6.43600   -8.09600
 10429.00000    0.00000    0.19200  114.81300    8.82900    2.64600    3.14200    6.49400   -8.12600
 10429.50000    0.00000    0.19600  117.33000    8.82700    2.64600    3.06600    6.54800   -8.15400
