~Version Information Block
 VERS.                2.00:     CWLS LOG ASCII STANDARD - VERSION 2.000000
 WRAP.                  NO:     One Line Per Depth Step
#
~Well Information Block
#MNEM.UNIT                     Data                         Information
#----------   ------------------------------------------   ----------------
 STRT.FT                                     8200.0000:     START DEPTH
 STOP.FT                                     9700.0000:     STOP DEPTH
 STEP.FT                                        0.1000:     STEP
 NULL.                                       -999.2500:     NULL VALUE
 COMP.                        PRESIDIO EXPLORATION INC:     COMPANY
 WELL.                                   HAY DAM 34-12:     WELL
 FLD .                                          HAYDAM:     FIELD
 LOC .                                   SEC12-23N-97W:     LOCATION
 CNTY.                                      SWEETWATER:     COUNTY
 STAT.                                         WYOMING:     STATE
 CTRY.                                             USA:     COUNTRY
 SRVC.                                    SCHLUMBERGER:     SERVICE COMPANY
 DATE.                                      26/07/1994:     DATE
 API .                                      4903723385:     API NUMBER
 UWI .                                         3723385:     UWI NUMBER
 TVD .                                              NO:     TVD flag
 WSTA.                                             LOC:     Well status
 USGS.                                            F041:     USGS Number
 LATI.DEG                                     41.97739:     LATITUDE
 LONG.DEG                                   -108.32133:     LONGITUDE
 UTM-N.                                        4650736:     Northing
 UTM-E.                                      721928.25:     Easting
 CORE.                                              -5:     Core/Log Offset
#
~Curve Information Block
#MNEM.UNIT       API CODE      Curve Description
#----------    -------------   -------------------
 DEPT.FT                   :   Depth in Feet
 ILD .OHMM     05 120 46 01:   Deep Induction Standard Processed Resistivity
 SP  .MV       01 010 01 01:   Spontaneous Potential
 RHOB.G/C3     42 350 01 01:   Bulk Density
 PEF .b/e                  :   Photo-Electric Factor
 GR  .GAPI     35 310 01 01:   Gamma Ray
 CALI.IN       70 280 01 01:   Caliper
 DPHI.V/V      45 890 01 01:   Density Porosity
 NPHI.V/V      42 890 03 01:   Neutron Porosity
 DTCO.US/F                 :   Delta-T Compressional
#
~Parameter Information Block
#MNEM.UNIT            Value               Description
#----------    --------------------    -------------------
 DATE.                  26-07-1994:    Date As Month-Day-Year
 RUN .                         ONE:    Run Number
 PDAT.                         UNK:    Permanent Datum
 EPD .FT                 6611.0000:    Elevation Of Perm. Datum
 LMF .                          KB:    Log Measured From
 FAPD.FT                   15.0000:    Feet Above Perm. Datum
 DMF .                          KB:    Drilling Measured From
 EKB .FT                 6627.0000:    Elevation Of Kelly Bushing
 EDF .FT                 6626.0000:    Elevation Of Derrick Floor
 EGL .FT                 6611.0000:    Elevation Of Ground Level
 TD  .FT                 9700.0000:    Total Depth
 DD  .FT                 9735.0000:    Depth Driller
 DL  .FT                 9729.0000:    Depth Logger
 BLI .FT                 9719.0000:    Bottom Log Interval
 TLI .FT                 1716.0000:    Top Log Interval
 CSIZ.IN                  9.625 IN:    Casing Size
 CBD1.                        1715:    Casing Bottom (Driller) 1
 CBL1.                        1716:    Casing Bottom (Logger) 1
 BS  .IN                   7.675IN:    Bit Size
 DFT .                    GEL-CHEM:    Drilling Fluid Type
 DFV .S                    45.0000:    Drilling Fluid Viscosity
 DFD .LB/G                 10.1000:    Drilling Fluid Density
 DFL .ML                    8.0000:    Drilling Fluid Loss
 DFPH.                     10.0000:    Drilling Fluid Ph
 MSS .                     MUDTANK:    Mud Sample Source
 RMS .OHMM                  1.4400:    Resistivity Of Mud Sample
 MST .DEGF                 85.0000:    Mud Sample Temperature
 RMF .OHMM                  1.1700:    Mud Filtrate Resistivity
 MFST.DEGF                 80.0000:    Mud Filtrate Sample Temperature
 RMC .OHMM                  1.3300:    Mud Cake Resistivity
 MCST.DEGF                 80.0000:    Mud Cake Sample Temperature
 RMB .OHMM                  0.7480:    Mud Resistivity At Bht
 BHT .DEGF                170.0000:    Bottom Hole Temperature
 MRT .DEGF                170.0000:    Maximum Recorded Temperature
 LUN .                        8415:    Logging Unit Number
 LUL .                      CASPER:    Logging Unit Location
 ENGI.                 CHRISTENSEN:    Engineer'S Name
 WITN.                       LYNON:    Witness' Name
 DGBY.                         R2V:    
 WSTA.                         LOC:    
#
~Other Information Block
<DescLogPlotStart>   NEURALOG PLOT DEFINITION
PLOTDEFVERSION: 3
LASFILE: C:\nds\projects\mf-nov-13\las\3723385A.las
DEPTHSCALE: 240.000000
RESOLUTION: 200
DEPTHLABELFREQ: 100.000000
HEAVYGRIDFREQ: 100.000000
MEDIUMGRIDFREQ: 50.000000
LIGHTGRIDFREQ: 10.000000
#
#   TRACK 1
#
STARTTRACK: 
 LEFTX: 0.500000 inch
 RIGHTX: 3.000000 inch
 SCALETYPE: Log
 NUMCYCLES: 4
 STARTCYCLE: 2
CURVE: ILD   0.200000   2000.000000 (0,0,255)      Solid             2     N   
ENDTRACK: 
#
#   TRACK 2
#
STARTTRACK: 
 LEFTX: 3.500000 inch
 RIGHTX: 6.000000 inch
 SCALETYPE: Linear
 NUMCHARTDIVISIONS: 10
CURVE: SP    -80.000000 20.000000  (0,131,131)    Solid             2     Y    
BACKUP: 20.000000  120.000000 (0,131,131)    Solid             2    
BACKUP: -180.000000 -80.000000 (0,131,131)    Solid             2    
ENDTRACK: 
#
#   TRACK 3
#
STARTTRACK: 
 LEFTX: 6.000000 inch
 RIGHTX: 11.000000 inch
 SCALETYPE: Linear
 NUMCHARTDIVISIONS: 10
CURVE: RHOB  2.000000   3.000000   (255,0,255)    Solid             2     Y    
BACKUP: 1.000000   2.000000   (255,0,255)    Solid             2    
CURVE: PEF   0.000000   10.000000  (255,0,0)      Dot               2     N    
ENDTRACK: 
#
#   TRACK 4
#
STARTTRACK: 
 LEFTX: 11.000000 inch
 RIGHTX: 13.500000 inch
 SCALETYPE: Linear
 NUMCHARTDIVISIONS: 10
CURVE: GR    0.000000   150.000000 (255,131,0)    Solid             2     Y    
BACKUP: 150.000000 300.000000 (255,131,0)    Solid             2    
CURVE: CALI  6.000000   16.000000  (255,255,0)    Dot               2     Y    
BACKUP: 16.000000  26.000000  (255,255,0)    Dot               2    
ENDTRACK: 
#
#   TRACK 5
#
STARTTRACK: 
 LEFTX: 13.500000 inch
 RIGHTX: 18.500000 inch
 SCALETYPE: Linear
 NUMCHARTDIVISIONS: 10
CURVE: DPHI  0.300000   -0.100000  (0,0,255)      Solid             2     N    
CURVE: NPHI  0.300000   -0.100000  (0,131,131)    Dot               2     Y    
BACKUP: 0.700000   0.300000   (0,131,131)    Dot               2    
ENDTRACK: 
#
#   TRACK 6
#
STARTTRACK: 
 LEFTX: 13.500000 inch
 RIGHTX: 18.500000 inch
 SCALETYPE: Linear
 NUMCHARTDIVISIONS: 10
CURVE: DTCO  240.000000 40.000000  (255,0,255)    Solid             2     N    
ENDTRACK: 
<DescLogPlotEnd>
~A DEPTH     ILD              SP               RHOB             PEF              GR               CALI             DPHI             NPHI             DTCO            
# ...
    8498.900 22.90323568      -33.62980507     2.63825511       2.93687545       109.32302027     8.75757576       0.00614300       0.12125932       -999.25000000   
    8499.000 22.82171376      -33.72098478     2.63861257       2.92007947       109.36671626     8.75757576       0.00574018       0.12193353       -999.25000000   
    8499.100 22.74146691      -33.81160773     2.63989563       2.90567639       109.55703852     8.75757576       0.00574018       0.12262695       -999.25000000   
    8499.200 22.66169939      -33.89830733     2.64132293       2.91064891       109.78354724     8.75757576       0.00574018       0.12325036       -999.25000000   
    8499.300 22.58221166      -33.98449204     2.64242401       2.93982554       110.05068942     8.75757576       0.00504733       0.12379074       -999.25000000   
    8499.400 22.50300274      -34.07425191     2.64378703       2.97877717       110.47584262     8.75757576       0.00449413       0.12489988       -999.25000000   
    8499.500 22.42407165      -34.16581573     2.64594410       3.01271448       111.09241861     8.75757576       0.00394092       0.12587733       -999.25000000   
    8499.600 22.34541742      -34.25235466     2.64844232       3.04149333       111.78403204     8.75757576       0.00338771       0.12672202       -999.25000000   
    8499.700 22.26703908      -34.33518801     2.65063555       3.07181938       112.43776826     8.75757576       0.00283451       0.12770576       -999.25000000   
    8499.800 22.18893565      -34.42756212     2.65258194       3.10536508       113.06366007     8.75757576       0.00251762       0.12854467       -999.25000000   
    8499.900 22.11110618      -34.53182671     2.65462307       3.13876348       113.72148645     8.75757576       0.00052586       0.12953359       -999.25000000   
    8500.000 22.03354970      -34.62569696     2.65677050       3.16784456       114.39898929     8.75757576       -0.00086972      0.13036839       -999.25000000   
    8500.100 21.95626526      -34.68974098     2.65890001       3.18986006       115.03738890     8.75757576       -0.00226531      0.13135957       -999.25000000   
    8500.200 21.87925189      -34.73562875     2.66099580       3.20561112       115.65559111     8.75757576       -0.00366090      0.13258545       -999.25000000   
    8500.300 21.80250866      -34.78741126     2.66303390       3.21854841       116.33922541     8.75757576       -0.00505649      0.13337238       -999.25000000   
    8500.400 21.72603461      -34.84887873     2.66505902       3.23085187       117.06028660     8.75757576       -0.00645207      0.13454847       -999.25000000   
    8500.500 21.63548035      -34.90849534     2.66726112       3.24366818       117.62418108     8.75757576       -0.00784766      0.13585539       -999.25000000   
    8500.600 21.58637600      -34.96328319     2.66953044       3.25885415       117.89690485     8.75757576       -0.00924325      0.13707553       -999.25000000   
    8500.700 21.52600534      -35.01930529     2.67124046       3.27420767       117.98416548     8.75757576       -0.01063884      0.13832024       -999.25000000   
    8500.800 21.46580353      -35.07787622     2.67197646       3.28049973       118.07587373     8.75757576       -0.01238671      0.13956495       -999.25000000   
    8500.900 21.40577008      -35.13558304     2.67212606       3.27100913       118.22003410     8.75757576       -0.01278953      0.14080967       -999.25000000   
    8501.000 21.34590452      -35.19201949     2.67229599       3.25115696       118.36247854     8.75757576       -0.01319235      0.14205438       -999.25000000   
    8501.100 21.28620639      -35.24900394     2.67258841       3.23183267       118.48978534     8.75757576       -0.01319235      0.14329909       -999.25000000   
    8501.200 21.22667522      -35.30654875     2.67286618       3.21615274       118.61226042     8.75757576       -0.01314286      0.14454381       -999.25000000   
    8501.300 21.16731054      -35.36379895     2.67318840       3.19950261       118.72173702     8.75757576       -0.01308359      0.14578852       -999.25000000   
    8501.400 21.10811188      -35.42082200     2.67349017       3.18022614       118.87119580     8.75757576       -0.01302431      0.14703323       -999.25000000   
    8501.500 21.04907879      -35.47798086     2.67333577       3.16357345       119.17067990     8.75757576       -0.01296504      0.14827795       -999.25000000   
    8501.600 20.99021080      -35.53523470     2.67248423       3.15480180       119.61518919     8.75757576       -0.01290577      0.14952266       -999.25000000   
    8501.700 20.93150744      -35.59243596     2.67132005       3.15302648       120.06454305     8.75757576       -0.01284650      0.15076737       -999.25000000   
    8501.800 20.87296825      -35.64969251     2.67033216       3.15365455       120.49126885     8.75757576       -0.01278953      0.15201208       -999.25000000   
    8501.900 20.81459278      -35.70704704     2.66950805       3.15437232       121.09431735     8.75757576       -0.01201370      0.15325680       -999.25000000   
    8502.000 20.75638058      -35.76429357     2.66856803       3.15628985       122.04917577     8.75757576       -0.01126687      0.15450151       -999.25000000   
    8502.100 20.69833117      -35.82133578     2.66750765       3.16022039       123.26751619     8.75757576       -0.01052004      0.15558912       -999.25000000   
    8502.200 20.64044411      -35.87865597     2.66658743       3.16480169       124.52474875     8.75757576       -0.00977321      0.15605639       -999.25000000   
    8502.300 20.58271894      -35.93637945     2.66593613       3.16880193       125.72664489     8.75757576       -0.00916415      0.15647130       -999.25000000   
    8502.400 20.52515522      -35.99345900     2.66541374       3.17269760       126.92907290     8.75757576       -0.00857442      0.15688620       -999.25000000   
    8502.500 20.46775248      -36.04984124     2.66483718       3.17698029       128.16459443     8.75757576       -0.00807654      0.15730111       -999.25000000   
    8502.600 20.41051028      -36.10754340     2.66419682       3.18109964       129.38806818     8.75757576       -0.00757865      0.15771601       -999.25000000   
    8502.700 20.35342817      -36.16635776     2.66360015       3.18495572       130.58673263     8.75757576       -0.00708077      0.15800604       -999.25000000   
    8502.800 20.29650570      -36.22261315     2.66305324       3.18930988       131.81187189     8.75757576       -0.00674723      0.15800604       -999.25000000   
    8502.900 20.23974243      -36.27704896     2.66244024       3.19387564       133.06022419     8.75757576       -0.00674723      0.15800604       -999.25000000   
    8503.000 20.18313790      -36.33674586     2.66179262       3.19737243       134.25800667     8.75757576       -0.00674723      0.15800604       -999.25000000   
    8503.100 20.12669169      -36.40118072     2.66141891       3.20051284       135.42878364     8.75757576       -0.00674723      0.15760322       -999.25000000   
    8503.200 20.09268741      -36.45498015     2.66159630       3.20639107       136.70020517     8.75757576       -0.00674723      0.15760322       -999.25000000   
    8503.300 19.90774016      -36.48564200     2.66224381       3.21635233       138.02465046     8.75757576       -0.00764753      0.15720040       -999.25000000   
    8503.400 19.89107044      -36.50082542     2.66307193       3.22783461       139.09435552     8.75757576       -0.00826989      0.15655891       -999.25000000   
    8503.500 19.87960459      -36.51699069     2.66394341       3.23800386       139.71272770     8.75757576       -0.00889225      0.15528827       -999.25000000   
    8503.600 19.86814535      -36.53866428     2.66489424       3.24722297       140.06303396     8.75757576       -0.00951460      0.15401762       -999.25000000   
    8503.700 19.85669272      -36.55983091     2.66591274       3.25700612       140.41068219     8.75757576       -0.01013696      0.15277353       -999.25000000   
