~Version ---------------------------------------------------
VERS. 2.0 : CWLS log ASCII Standard -VERSION 2.0
WRAP.  NO : One Line Per Depth Step
~Well ------------------------------------------------------
STRT .FT              12000.0 : START DEPTH
STOP .FT              13400.0 : STOP DEPTH
STEP .FT   0.1000000000003638 : STEP
NULL .                -999.25 : NULL VALUE
COMP . ENRON OIL &GAS COMPANY : COMPANY
WELL .       CEPO-LEWIS 21-38 : WELL
FLD  .             CEPO-LEWIS : FIELD
LOC  .   1205' FWL &1300' FSL : LOCATION
CNTY .             SWEETWATER : COUNTY
STAT .                WYOMING : STATE
CTRY .                    USA : COUNTRY
SRVC .                        : SERVICE COMPANY
DATE .             25/05/1998 : DATE
API  .             4903724185 : API NUMBER
UWI  .                3724185 : UWI NUMBER
TVD  .                     NO : TVD flag
WSTA .                    LOC : Well status
USGS .                   CEPO : USGS Number
LATI .DEG            41.18194 : LATITUDE
LONG .DEG          -108.14139 : LONGITUDE
UTM-N.             4562894.53 : Northing
UTM-E.              739764.57 : Easting
CORE .FT                 -3.9 : Core/Log Offset
~Curve Information -----------------------------------------
DEPT .FT                : Depth in Feet
GR   .GAPI 35 310 01 01 : Gamma Ray
SP   .MV   01 010 01 01 : Spontaneous Potential
CALI .IN   70 280 01 01 : Caliper
AHT90.OHMM              : 
ILD  .OHMM 05 120 46 01 : Deep Induction Standard Processed Resistivity
HCAL .IN                : 
DPHI .V/V  45 890 01 01 : Density Porosity
NPOR .V/V               : Neutron Porosity Output From An Application Program
RHOB .G/C3 42 350 01 01 : Bulk Density
PEF  .b/e               : Photo-Electric Factor
DT   .US/F 60 520 08 01 : Delta-T
SPHI .V/V  61 890 01 01 : Sonic Porosity
RESD .OHMM              : Deep Resistivity - Merged AHT90 & ILD
~Params ----------------------------------------------------
DATE.  25-05-1998 : Date As Month-Day-Year
RUN .         ONE : Run Number
PDAT.         UNK : Permanent Datum
EPD .FT    6416.0 : Elevation Of Perm. Datum
LMF .          KB : Log Measured From
FAPD.FT      21.0 : Feet Above Perm. Datum
DMF .          KB : Drilling Measured From
EKB .FT    6437.0 : Elevation Of Kelly Bushing
EDF .FT    6436.0 : Elevation Of Derrick Floor
EGL .FT    6416.0 : Elevation Of Ground Level
TD  .FT   13400.0 : Total Depth
DD  .FT   12587.0 : Depth Driller
DL  .FT   12616.0 : Depth Logger
BLI .FT   12602.0 : Bottom Log Interval
TLI .FT    2346.0 : Top Log Interval
DFT .    GEL-CHEM : Drilling Fluid Type
LUN .        8269 : Logging Unit Number
LUL . ROCK SPRING : Logging Unit Location
DGBY.         R2V : 
WSTA.         LOC : 
~Other -----------------------------------------------------
<DescLogPlotStart>   NEURALOG PLOT DEFINITION
PLOTDEFVERSION: 3
LASFILE: C:\nds\projects\mf-nov-13\las\3724185G.las
DEPTHSCALE: 240.000000
RESOLUTION: 200
DEPTHLABELFREQ: 100.000000
HEAVYGRIDFREQ: 100.000000
MEDIUMGRIDFREQ: 50.000000
LIGHTGRIDFREQ: 10.000000
#
#   TRACK 1
#
STARTTRACK:
LEFTX: 0.500000 inch
RIGHTX: 3.000000 inch
SCALETYPE: Linear
NUMCHARTDIVISIONS: 10
CURVE: GR    0.000000   150.000000 (0,0,255)      Solid             2     N
CURVE: SP    -100.000000 0.000000   (0,131,131)    Dot               2     Y
BACKUP: 0.000000   100.000000 (0,131,131)    Dot               2
BACKUP: 100.000000 200.000000 (0,131,131)    Dot               2
BACKUP: 200.000000 300.000000 (0,131,131)    Dot               2
BACKUP: 300.000000 400.000000 (0,131,131)    Dot               2
CURVE: CALI  4.000000   14.000000  (255,0,255)    Short_Dash        2     N
CURVE: HCAL  4.000000   14.000000  (255,0,0)      Medium_Dash       2     Y
BACKUP: -6.000000  4.000000   (255,0,0)      Medium_Dash       2
ENDTRACK:
#
#   TRACK 2
#
STARTTRACK:
LEFTX: 3.500000 inch
RIGHTX: 8.500000 inch
SCALETYPE: Log
NUMCYCLES: 4
STARTCYCLE: 2
CURVE: AHT90 0.200000   2000.000000 (255,131,0)    Solid             2     N
CURVE: ILD   0.200000   2000.000000 (255,255,0)    Dot               2     N
ENDTRACK:
#
#   TRACK 3
#
STARTTRACK:
LEFTX: 3.500000 inch
RIGHTX: 8.500000 inch
SCALETYPE: Linear
NUMCHARTDIVISIONS: 10
CURVE: DPHI  0.300000   -0.100000  (0,0,255)      Solid             2     Y
BACKUP: 0.700000   0.300000   (0,0,255)      Solid             2
CURVE: NPOR  0.300000   -0.100000  (0,131,131)    Dot               2     Y
BACKUP: 0.700000   0.300000   (0,131,131)    Dot               2
ENDTRACK:
#
#   TRACK 4
#
STARTTRACK:
LEFTX: 3.500000 inch
RIGHTX: 8.500000 inch
SCALETYPE: Linear
NUMCHARTDIVISIONS: 10
CURVE: RHOB  2.000000   3.000000   (255,0,255)    Solid             2     Y
BACKUP: 1.000000   2.000000   (255,0,255)    Solid             2
BACKUP: 3.000000   4.000000   (255,0,255)    Solid             2
CURVE: PEF   0.000000   20.000000  (255,0,0)      Dot               2     N
ENDTRACK:
#
#   TRACK 5
#
STARTTRACK:
LEFTX: 3.500000 inch
RIGHTX: 8.500000 inch
SCALETYPE: Linear
NUMCHARTDIVISIONS: 10
CURVE: DT    140.000000 40.000000  (255,131,0)    Solid             2     Y
BACKUP: 240.000000 140.000000 (255,131,0)    Solid             2
ENDTRACK:
<DescLogPlotEnd>
~ASCII -----------------------------------------------------
# ...
 12738.40000   -2.00054  -27.12723    -999.25    -999.25    6.04495    8.04665    0.22341    0.17750    2.30566    2.67430    -999.25    -999.25    6.04495
 12738.50000   -1.58110  -27.20085    -999.25    -999.25    6.04495    8.04665    0.22456    0.17694    2.30204    2.68260    -999.25    -999.25    6.04495
 12738.60000   -1.15843  -27.27235    -999.25    -999.25    6.04495    8.04665    0.22571    0.17694    2.30030    2.69129    -999.25    -999.25    6.04495
 12738.70000   -0.74037  -27.34759    -999.25    -999.25    6.04495    8.04665    0.22689    0.17694    2.29915    2.70032    -999.25    -999.25    6.04495
 12738.80000   -0.32501  -27.42463    -999.25    -999.25    6.04495    8.04665    0.22769    0.17899    2.29768    2.70917    -999.25    -999.25    6.04495
 12738.90000    0.09294  -27.49932    -999.25    -999.25    6.04495    8.04665    0.22791    0.18109    2.29626    2.71788    -999.25    -999.25    6.04495
 12739.00000    0.51444  -27.57146    -999.25    -999.25    6.04495    8.04665    0.22810    0.18318    2.29560    2.72664    -999.25    -999.25    6.04495
 12739.10000    0.93374  -27.64550    -999.25    -999.25    6.04495    8.04665    0.22779    0.18499    2.29554    2.73539    -999.25    -999.25    6.04495
 12739.20000    1.34677  -27.72381    -999.25    -999.25    6.04496    8.04665    0.22751    0.18813    2.29550    2.74422    -999.25    -999.25    6.04496
 12739.30000    1.76164  -27.79986    -999.25    -999.25    6.04496    8.04665    0.22723    0.19090    2.29563    2.75316    -999.25    -999.25    6.04496
 12739.40000    2.18821  -27.86840    -999.25    -999.25    6.04495    8.04665    0.22686    0.19366    2.29659    2.76188    -999.25    -999.25    6.04495
 12739.50000    2.61147  -27.94089    -999.25    -999.25    6.04495    8.04665    0.22602    0.19643    2.29850    2.77035    -999.25    -999.25    6.04495
 12739.60000    3.01379  -28.02794    -999.25    -999.25    6.04498    8.04665    0.22583    0.19829    2.30071    2.77929    -999.25    -999.25    6.04498
 12739.70000    3.42396  -28.10322    -999.25    -999.25    6.04497    8.04665    0.22515    0.19975    2.30299    2.78877    -999.25    -999.25    6.04497
 12739.80000    3.87533  -28.11664    -999.25    -999.25    6.04493    8.04665    0.21955    0.20085    2.30619    2.79660    -999.25    -999.25    6.04493
 12739.90000    4.28479  -28.05546    -999.25    -999.25    6.04495    8.04665    0.21495    0.20195    2.31114    2.80002    -999.25    -999.25    6.04495
 12740.00000    4.45981  -27.96274    -999.25    -999.25    6.04505    8.04665    0.21079    0.20305    2.31747    2.79902    -999.25    -999.25    6.04505
 12740.10000    4.29398  -27.88286    -999.25    -999.25    6.04491    8.04665    0.20639    0.20415    2.32423    2.79637    -999.25    -999.25    6.04491
 12740.20000    3.89340  -27.81729    -999.25    -999.25    6.04416    8.04665    0.20200    0.20525    2.33100    2.79425    -999.25    -999.25    6.04416
 12740.30000    3.45084  -27.74699    -999.25    -999.25    6.04283    8.04665    0.19783    0.20675    2.33773    2.79264    -999.25    -999.25    6.04283
 12740.40000    3.05079  -27.66896    -999.25    -999.25    6.04129    8.04665    0.19322    0.20675    2.34419    2.79073    -999.25    -999.25    6.04129
 12740.50000    2.65934  -27.59322    -999.25    -999.25    6.03982    8.04665    0.18799    0.20639    2.35055    2.78858    -999.25    -999.25    6.03982
 12740.60000    2.24374  -27.52282    -999.25    -999.25    6.03842    8.04665    0.18565    0.20587    2.35759    2.78658    -999.25    -999.25    6.03842
 12740.70000    1.82334  -27.45168    -999.25    -999.25    6.03698    8.04665    0.18276    0.20535    2.36515    2.78473    -999.25    -999.25    6.03698
 12740.80000    1.42120  -27.37553    -999.25    -999.25    6.03551    8.04665    0.18156    0.20473    2.37151    2.78280    -999.25    -999.25    6.03551
 12740.90000    1.02366  -27.29882    -999.25    -999.25    6.03406    8.04665    0.18091    0.20251    2.37536    2.78076    -999.25    -999.25    6.03406
 12741.00000    0.60688  -27.22872    -999.25    -999.25    6.03262    8.04665    0.17960    0.19981    2.37748    2.77876    -999.25    -999.25    6.03262
 12741.10000    0.18405  -27.16071    -999.25    -999.25    6.03118    8.04665    0.17881    0.19712    2.37936    2.77686    -999.25    -999.25    6.03118
 12741.20000   -0.21134  -27.08101    -999.25    -999.25    6.02973    8.04665    0.17765    0.19443    2.38129    2.77496    -999.25    -999.25    6.02973
 12741.30000   -0.59767  -26.99507    -999.25    -999.25    6.02828    8.04665    0.17672    0.19173    2.38278    2.77292    -999.25    -999.25    6.02828
 12741.40000   -1.03398  -26.93864    -999.25    -999.25    6.02684    8.04665    0.17568    0.18904    2.38400    2.77084    -999.25    -999.25    6.02684
 12741.50000   -1.49461  -26.93993    -999.25    -999.25    6.02539    8.04665    0.17465    0.18635    2.38543    2.76903    -999.25    -999.25    6.02539
 12741.60000   -1.83465  -26.98306    -999.25    -999.25    6.02395    8.04665    0.17369    0.18365    2.38700    2.76727    -999.25    -999.25    6.02395
 12741.70000   -1.95610  -27.02923    -999.25    -999.25    6.02251    8.04665    0.17262    0.18096    2.38848    2.76503    -999.25    -999.25    6.02251
 12741.80000   -1.93541  -27.06332    -999.25    -999.25    6.02106    8.04665    0.17167    0.17827    2.39007    2.76265    -999.25    -999.25    6.02106
 12741.90000   -1.90656  -27.09730    -999.25    -999.25    6.01962    8.04665    0.17086    0.17557    2.39210    2.76175    -999.25    -999.25    6.01962
 12742.00000   -1.89415  -27.13805    -999.25    -999.25    6.01818    8.04665    0.16895    0.17288    2.39446    2.76344    -999.25    -999.25    6.01818
 12742.10000   -1.84206  -27.17745    -999.25    -999.25    6.01674    8.04665    0.16739    0.17019    2.39680    2.76691    -999.25    -999.25    6.01674
 12742.20000   -1.73242  -27.21209    -999.25    -999.25    6.01530    8.04665    0.16581    0.16848    2.39909    2.77050    -999.25    -999.25    6.01530
 12742.30000   -1.59533  -27.25014    -999.25    -999.25    6.01386    8.04665    0.16430    0.16848    2.40148    2.77360    -999.25    -999.25    6.01386
 12742.40000   -1.45313  -27.29279    -999.25    -999.25    6.01242    8.04665    0.16273    0.17164    2.40391    2.77671    -999.25    -999.25    6.01242
 12742.50000   -1.31369  -27.32369    -999.25    -999.25    6.01098    8.04665    0.16042    0.17389    2.40595    2.78006    -999.25    -999.25    6.01098
 12742.60000   -1.16717  -27.32584    -999.25    -999.25    6.00954    8.04665    0.16021    0.17614    2.40731    2.78337    -999.25    -999.25    6.00954
 12742.70000   -0.95869  -27.30203    -999.25    -999.25    6.00810    8.04665    0.15979    0.17840    2.40821    2.78653    -999.25    -999.25    6.00810
 12742.80000   -0.62572  -27.27016    -999.25    -999.25    6.00666    8.04665    0.15921    0.18065    2.40912    2.78984    -999.25    -999.25    6.00666
 12742.90000   -0.19646  -27.24230    -999.25    -999.25    6.00522    8.04665    0.15921    0.18290    2.41026    2.79321    -999.25    -999.25    6.00522
 12743.00000    0.20631  -27.21676    -999.25    -999.25    6.00378    8.04665    0.15921    0.18580    2.41138    2.79629    -999.25    -999.25    6.00378
 12743.10000    0.49028  -27.18905    -999.25    -999.25    6.00234    8.04665    0.15921    0.18610    2.41202    2.79936    -999.25    -999.25    6.00234
 12743.20000    0.66394  -27.16019    -999.25    -999.25    6.00091    8.04665    0.15921    0.18652    2.41208    2.80298    -999.25    -999.25    6.00091
 12743.30000    0.76666  -27.13274    -999.25    -999.25    5.99947    8.04665    0.15921    0.18694    2.41185    2.80655    -999.25    -999.25    5.99947
 12743.40000    0.80928  -27.10576    -999.25    -999.25    5.99803    8.04665    0.15921    0.18736    2.41168    2.80911    -999.25    -999.25    5.99803
 12743.50000    0.82075  -27.07763    -999.25    -999.25    5.99660    8.04665    0.15921    0.18777    2.41159    2.81185    -999.25    -999.25    5.99660
