~Version ---------------------------------------------------
VERS. 2.0 : CWLS log ASCII Standard -VERSION 2.0
WRAP.  NO : One Line Per Depth Step
~Well ------------------------------------------------------
STRT .FT              8400.0 : START DEPTH
STOP .FT              9700.0 : STOP DEPTH
STEP .FT  0.1000000000003638 : STEP
NULL .               -999.25 : NULL VALUE
COMP .  PRESIDIO OIL COMPANY : COMPANY
WELL .     J.T. FEDERAL NO.5 : WELL
FLD  .   SOUTH HAY RESOURCES : FIELD
LOC  . 1266' FNL & 1684' FEL : LOCATION
CNTY .            SWEETWATER : COUNTY
STAT .               WYOMING : STATE
CTRY .                   USA : COUNTRY
SRVC .                       : SERVICE COMPANY
DATE .            30/06/1993 : DATE
API  .            4903723152 : API NUMBER
UWI  .               3723152 : UWI NUMBER
TVD  .                    NO : TVD flag
WSTA .                   LOC : Well status
USGS .                  S179 : USGS Number
LATI .DEG           41.97079 : LATITUDE
LONG .DEG           -108.322 : LONGITUDE
UTM-N.            4650002.36 : Northing
UTM-E.             721895.66 : Easting
CORE .                   N/A : Core/Log Offset
~Curve Information -----------------------------------------
DEPT    .FT                : Depth in Feet
GR      .GAPI 35 310 01 01 : Gamma Ray
SP      .MV   01 010 01 01 : Spontaneous Potential
CALI    .IN   70 280 01 01 : Caliper
ILD     .OHMM 05 120 46 01 : Deep Induction Standard Processed Resistivity
DPHI    .V/V  45 890 01 01 : Density Porosity
NPHI    .V/V  42 890 03 01 : Neutron Porosity
PE      .B/E               : PE
DT      .US/F 60 520 08 01 : Delta-T
ACOUSTIC.DEC               : ACOUSTIC
~Params ----------------------------------------------------
DATE. 30-06-1993 : Date As Month-Day-Year
RUN .        ONE : Run Number
PDAT.        UNK : Permanent Datum
EPD .FT   6607.0 : Elevation Of Perm. Datum
LMF .         KB : Log Measured From
FAPD.FT     16.0 : Feet Above Perm. Datum
DMF .         KB : Drilling Measured From
EKB .FT   6623.0 : Elevation Of Kelly Bushing
EDF .FT   6622.0 : Elevation Of Derrick Floor
EGL .FT   6607.0 : Elevation Of Ground Level
TD  .FT   9700.0 : Total Depth
DD  .FT   9780.0 : Depth Driller
DL  .FT   9724.0 : Depth Logger
BLI .FT   9720.0 : Bottom Log Interval
CSIZ.IN  9.625IN : Casing Size
CBD1.       1698 : Casing Bottom (Driller) 1
CBL1.       1697 : Casing Bottom (Logger) 1
BS  .IN  7.875IN : Bit Size
DFT .        GEL : Drilling Fluid Type
DFV .S      55.0 : Drilling Fluid Viscosity
DFD .LB/G   10.2 : Drilling Fluid Density
DFL .ML      7.6 : Drilling Fluid Loss
DFPH.        9.5 : Drilling Fluid Ph
MSS .   FLOWLINE : Mud Sample Source
RMS .OHMM    1.5 : Resistivity Of Mud Sample
MST .DEGF   74.0 : Mud Sample Temperature
RMF .OHMM    1.8 : Mud Filtrate Resistivity
MFST.DEGF   66.0 : Mud Filtrate Sample Temperature
RMC .OHMM   2.44 : Mud Cake Resistivity
MCST.DEGF   69.0 : Mud Cake Sample Temperature
RMB .OHMM    0.6 : Mud Resistivity At Bht
BHT .DEGF  197.0 : Bottom Hole Temperature
MRT .DEGF  197.0 : Maximum Recorded Temperature
LUN .      52546 : Logging Unit Number
LUL .      VERNL : Logging Unit Location
ENGI.    K EVATT : Engineer'S Name
WITN.    HEFFNER : Witness' Name
DGBY.        R2V : 
WSTA.        LOC : 
~Other -----------------------------------------------------
<DescLogPlotStart>   NEURALOG PLOT DEFINITION
PLOTDEFVERSION: 3
LASFILE: C:\nds\projects\mf-nov-13\las\3723152A.las
DEPTHSCALE: 240.000000
RESOLUTION: 200
DEPTHLABELFREQ: 100.000000
HEAVYGRIDFREQ: 100.000000
MEDIUMGRIDFREQ: 50.000000
LIGHTGRIDFREQ: 10.000000
#
#   TRACK 1
#
STARTTRACK:
LEFTX: 0.500000 inch
RIGHTX: 3.000000 inch
SCALETYPE: Linear
NUMCHARTDIVISIONS: 10
CURVE: GR    0.000000   150.000000 (0,0,255)      Solid             2     N
CURVE: SP    -100.000000 0.000000   (0,131,131)    Dot               2     N
ENDTRACK:
#
#   TRACK 2
#
STARTTRACK:
LEFTX: 0.500000 inch
RIGHTX: 3.000000 inch
SCALETYPE: Linear
NUMCHARTDIVISIONS: 10
CURVE: CALI  6.000000   16.000000  (255,0,255)    Solid             2     Y
BACKUP: -4.000000  6.000000   (255,0,255)    Solid             2
ENDTRACK:
#
#   TRACK 3
#
STARTTRACK:
LEFTX: 3.500000 inch
RIGHTX: 8.500000 inch
SCALETYPE: Log
NUMCYCLES: 4
STARTCYCLE: 2
CURVE: ILD   0.200000   2000.000000 (255,0,0)      Solid             2     N
ENDTRACK:
#
#   TRACK 4
#
STARTTRACK:
LEFTX: 3.500000 inch
RIGHTX: 8.500000 inch
SCALETYPE: Linear
NUMCHARTDIVISIONS: 10
CURVE: DPHI  0.300000   -0.100000  (255,131,0)    Solid             2     Y
BACKUP: 0.700000   0.300000   (255,131,0)    Solid             2
CURVE: NPHI  0.300000   -0.100000  (255,255,0)    Dot               2     Y
BACKUP: 0.700000   0.300000   (255,255,0)    Dot               2
ENDTRACK:
#
#   TRACK 5
#
STARTTRACK:
LEFTX: 3.500000 inch
RIGHTX: 6.000000 inch
SCALETYPE: Linear
NUMCHARTDIVISIONS: 10
CURVE: PE    0.000000   10.000000  (0,0,255)      Solid             2     N
ENDTRACK:
#
#   TRACK 6
#
STARTTRACK:
LEFTX: 8.500000 inch
RIGHTX: 13.500000 inch
SCALETYPE: Linear
NUMCHARTDIVISIONS: 10
CURVE: DT    140.000000 40.000000  (0,131,131)    Solid             2     Y
BACKUP: 40.000000  -60.000000 (0,131,131)    Solid             2
CURVE: ACOUSTIC 0.300000   -0.100000  (255,0,255)    Dot               2     Y
BACKUP: 0.700000   0.300000   (255,0,255)    Dot               2
BACKUP: -0.100000  -0.500000  (255,0,255)    Dot               2
ENDTRACK:
<DescLogPlotEnd>
~ASCII -----------------------------------------------------
# ...
 8735.80000   80.72207  -23.82083   10.08939   24.72110   -0.01518    0.11478    3.39405   65.91057    0.10534
 8735.90000   80.86297  -23.85853   10.08872   24.73620   -0.01613    0.11489    3.39777   65.87110    0.10519
 8736.00000   80.90493  -23.89536   10.08805   24.75130   -0.01708    0.11500    3.40149   65.83164    0.10504
 8736.10000   80.94712  -23.94998   10.08738   24.76642   -0.01809    0.11511    3.40521   65.79218    0.10489
 8736.20000   81.00971  -24.00682   10.08670   24.78154   -0.01872    0.11522    3.40893   65.75272    0.10474
 8736.30000   81.07043  -24.00790   10.08603   24.79667   -0.01938    0.11533    3.41267   65.71326    0.10459
 8736.40000   81.13822  -23.91519   10.08536   24.81181   -0.02004    0.11544    3.41641   65.67380    0.10444
 8736.50000   81.21056  -23.75503   10.08469   24.82696   -0.02071    0.11555    3.42012   65.63434    0.10429
 8736.60000   81.24418  -23.58169   10.08401   24.84212   -0.02137    0.11565    3.42383   65.59487    0.10414
 8736.70000   81.26903  -23.42421   10.08334   24.85729   -0.02204    0.11595    3.42759   65.55541    0.10399
 8736.80000   81.45064  -23.28030   10.08267   24.87247   -0.02256    0.11621    3.43138   65.51595    0.10383
 8736.90000   81.92134  -23.13124   10.08200   24.88766   -0.02324    0.11648    3.43503   65.47649    0.10368
 8737.00000   82.61319  -22.95873   10.08132   24.90286   -0.02381    0.11674    3.43865   65.43703    0.10353
 8737.10000   83.34370  -22.77913   10.08065   24.91806   -0.02419    0.11701    3.44252   65.39757    0.10345
 8737.20000   84.02467  -22.65535   10.07998   24.93327   -0.02437    0.11727    3.44645   65.35810    0.10318
 8737.30000   84.69365  -22.63670   10.07931   24.94853   -0.02451    0.11754    3.44993   65.30426    0.10299
 8737.40000   85.39000  -22.69589   10.07863   24.96396   -0.02466    0.11768    3.45329   65.32581    0.10281
 8737.50000   86.09419  -22.76322   10.07797   24.97886   -0.02480    0.11856    3.45753   65.35972    0.10262
 8737.60000   86.77866  -22.80840   10.07730   24.99475   -0.02500    0.11917    3.46209   65.39364    0.10244
 8737.70000   87.45580  -22.85026   10.07661   25.00948   -0.02528    0.11979    3.46413   65.42755    0.10223
 8737.80000   88.15315  -22.90334   10.07593   25.02477   -0.02577    0.12040    3.46151   65.46019    0.10233
 8737.90000   88.85853  -22.95820   10.07528   25.04005   -0.02626    0.12101    3.45551   65.49584    0.10246
 8738.00000   89.53952  -23.00695   10.07464   25.05534   -0.02675    0.12161    3.44913   65.52865    0.10256
 8738.10000   90.23309  -23.05490   10.07392   25.07064   -0.02725    0.12225    3.44360   65.56391    0.10269
 8738.20000   91.03155  -23.10610   10.07320   25.08595   -0.02785    0.12296    3.43820   65.59672    0.10280
 8738.30000   91.87385  -23.15769   10.07263   25.10126   -0.02751    0.12303    3.43237   65.63231    0.10292
 8738.40000   92.45621  -23.20773   10.07207   25.11659   -0.02709    0.12303    3.42650   65.66461    0.10303
 8738.50000   92.52564  -23.25755   10.07114   25.13193   -0.02667    0.12310    3.42083   65.70069    0.10314
 8738.60000   92.20444  -23.30823   10.06963   25.15495   -0.02624    0.12311    3.41513   65.73271    0.10327
 8738.70000   91.82175  -23.35914   10.06788   25.15495   -0.02582    0.12316    3.40950   65.76869    0.10337
 8738.80000   91.45875  -23.40933   10.06624   24.94724   -0.02540    0.12321    3.40446   65.81209    0.10351
 8738.90000   90.91685  -23.45924   10.06475   24.80971   -0.02498    0.12323    3.40023   65.79822    0.10360
 8739.00000   90.12800  -23.50988   10.06323   24.67295   -0.02455    0.12329    3.39646   65.77650    0.10374
 8739.10000   89.28828  -23.56110   10.06164   24.53694   -0.02413    0.12329    3.39275   65.75375    0.10385
 8739.20000   88.51050  -23.61078   10.06006   24.40168   -0.02371    0.12338    3.38900   65.73378    0.10349
 8739.30000   87.66171  -23.65932   10.05852   24.26716   -0.02337    0.12335    3.38526   65.70962    0.10304
 8739.40000   86.69556  -23.71079   10.05698   24.13339   -0.02145    0.12247    3.38145   65.60964    0.10261
 8739.50000   85.86220  -23.76438   10.05541   24.00035   -0.01987    0.12173    3.37762   65.51027    0.10218
 8739.60000   85.39437  -23.81260   10.05385   23.86805   -0.01828    0.12099    3.37400   65.41090    0.10175
 8739.70000   85.19727  -23.85675   10.05229   23.73647   -0.01669    0.12025    3.37043   65.31153    0.10132
 8739.80000   85.02027  -23.91152   10.05074   23.60563   -0.01511    0.11950    3.36641   65.21216    0.10089
 8739.90000   84.75516  -23.97741   10.04918   23.47550   -0.01352    0.11876    3.36228   65.11279    0.10046
 8740.00000   84.43583  -24.02121   10.04762   23.34609   -0.01118    0.11802    3.35906   65.01341    0.10003
 8740.10000   84.11860  -24.00739   10.04606   23.21739   -0.01100    0.11728    3.35605   64.91404    0.09960
 8740.20000   83.89879  -23.94211   10.04450   23.08940   -0.01066    0.11653    3.35125   64.81467    0.09916
 8740.30000   83.87768  -23.86362   10.04295   22.96212   -0.01032    0.11579    3.34593   64.71530    0.09873
 8740.40000   84.02020  -23.79571   10.04139   22.83554   -0.00998    0.11484    3.34537   64.61593    0.09830
 8740.50000   84.20022  -23.73258   10.03983   22.70966   -0.00955    0.11563    3.35198   64.49290    0.09777
 8740.60000   84.42755  -23.66421   10.03828   22.58447   -0.01034    0.11674    3.36186   64.51995    0.09796
 8740.70000   84.85799  -23.59302   10.03672   22.45997   -0.01138    0.11785    3.37221   64.55544    0.09822
 8740.80000   85.53298  -23.52375   10.03516   22.33616   -0.01242    0.11896    3.38687   64.59432    0.09847
 8740.90000   86.29565  -23.45661   10.03361   22.21303   -0.01345    0.12012    3.40911   64.79986    0.09873
 8741.00000   87.02046  -23.38979   10.03205   22.09058   -0.01449    0.12053    3.43479   65.02705    0.09899
 8741.10000   87.74217  -23.32079   10.03049   21.96881   -0.01553    0.12093    3.45929   65.25423    0.10035
 8741.20000   88.49349  -23.24875   10.02893   21.84770   -0.01646    0.12290    3.48496   65.48141    0.10171
 8741.30000   89.20585  -23.17996   10.02738   21.72727   -0.01864    0.12477    3.51399   65.70859    0.10308
 8741.40000   89.88349  -23.11568   10.02582   21.60749   -0.02064    0.12664    3.54005   65.93577    0.10444
 8741.50000   90.66048  -23.02835   10.02426   21.48838   -0.02215    0.12851    3.55560   66.16295    0.10580
 8741.60000   91.52342  -22.88005   10.02271   21.36993   -0.02339    0.13038    3.56317   66.39013    0.10716
 8741.70000   92.15952  -22.67897   10.02115   21.25212   -0.02438    0.13225    3.57117   66.61731    0.10853
 8741.80000   92.28933  -22.47665   10.01959   21.13497   -0.02500    0.13412    3.58244   66.84449    0.10989
 8741.90000   92.02923  -22.28620   10.01803   21.01846   -0.02657    0.13600    3.59377   67.07167    0.11125
 8742.00000   91.72388  -22.06423   10.01648   20.90260   -0.02771    0.13787    3.60357   67.29885    0.11197
 8742.10000   91.52989  -21.81772   10.01492   20.78737   -0.02885    0.13974    3.61339   67.52603    0.11480
 8742.20000   91.35375  -21.66118   10.01336   20.66606   -0.02999    0.14161    3.62377   67.83976    0.11671
 8742.30000   91.11683  -21.69508   10.01181   20.63232   -0.03112    0.14411    3.63402   67.93864    0.11927
 8742.40000   90.87049  -21.87535   10.01025   20.59654   -0.03226    0.14524    3.64440   68.09838    0.11984
 8742.50000   90.66486  -22.07537   10.00869   20.56082   -0.03340    0.14695    3.65510   68.25811    0.12069
 8742.60000   90.46313  -22.23731   10.00714   20.52516   -0.03476    0.14898    3.66489   68.41785    0.12154
 8742.70000   90.22556  -22.39218   10.00558   20.48956   -0.03493    0.14933    3.67406   68.57759    0.12252
 8742.80000   89.98907  -22.56633   10.00402   20.45402   -0.03514    0.14976    3.68536   68.75254    0.12261
 8742.90000   89.79970  -22.74418   10.00246   20.41855   -0.03536    0.15020    3.69834   68.72042    0.12271
 8743.00000   89.59964  -22.91157   10.00091   20.38313   -0.03557    0.14986    3.70608   68.68492    0.12282
