~Version Information Block
 VERS.                2.00:     CWLS LOG ASCII STANDARD - VERSION 2.000000
 WRAP.                  NO:     One Line Per Depth Step
#
~Well Information Block
#MNEM.UNIT                     Data                         Information
#----------   ------------------------------------------   ----------------
 STRT.FT                                     9000.0000:     START DEPTH
 STOP.FT                                    10600.0000:     STOP DEPTH
 STEP.FT                                        0.1000:     STEP
 NULL.                                       -999.2500:     NULL VALUE
 COMP.                            PRESIDIO OIL COMPANY:     COMPANY
 WELL.                          HAY RESERVIOR UNIT #58:     WELL
 FLD .                              HAY RESERVIOR UNIT:     FIELD
 LOC .                               1500' FSL 10' FWL:     LOCATION
 CNTY.                                      SWEETWATER:     COUNTY
 STAT.                                         WYOMING:     STATE
 CTRY.                                             USA:     COUNTRY
 SRVC.                                    SCHLUMBERGER:     SERVICE COMPANY
 DATE.                                      22/02/1994:     DATE
 API .                                      4903723301:     API NUMBER
 UWI .                                         3723301:     UWI NUMBER
 TVD .                                              NO:     TVD flag
 WSTA.                                             LOC:     Well status
 USGS.                                            E945:     USGS Number
 LATI.DEG                                     42.05082:     LATITUDE
 LONG.DEG                                   -108.37861:     LONGITUDE
 UTM-N.                                     4658743.82:     Northing
 UTM-E.                                      716932.37:     Easting
 CORE.FT                                          -9.2:     Core/Log Offset
#
~Curve Information Block
#MNEM.UNIT       API CODE      Curve Description
#----------    -------------   -------------------
 DEPT.FT                   :   Depth in Feet
 ILD .OHMM     05 120 46 01:   Deep Induction Standard Processed Resistivity
 SP  .MV       01 010 01 01:   Spontaneous Potential
 DPHI.DEC      42 890 03 01:   DPHI
 NPHI.DEC      42 890 03 01:   Neutron Porosity
 CALI.IN       70 280 01 01:   Caliper
 GR  .GAPI     35 310 01 01:   Gamma Ray
 RHOB.G/C3     42 350 01 01:   Bulk Density
 PEF .B/E                  :   Photo-Electric Factor
 DT4P.US/F                 :   
#
~Parameter Information Block
#MNEM.UNIT            Value               Description
#----------    --------------------    -------------------
 DATE.                  22-02-1994:    Date As Month-Day-Year
 RUN .                         ONE:    Run Number
 PDAT.                         UNK:    Permanent Datum
 EPD .FT                 6799.0000:    Elevation Of Perm. Datum
 LMF .                          KB:    Log Measured From
 FAPD.FT                   14.0000:    Feet Above Perm. Datum
 DMF .                          KB:    Drilling Measured From
 EKB .FT                 6813.0000:    Elevation Of Kelly Bushing
 EDF .FT                 6812.0000:    Elevation Of Derrick Floor
 EGL .FT                 6799.0000:    Elevation Of Ground Level
 TD  .FT                10600.0000:    Total Depth
 DD  .FT                10625.0000:    Depth Driller
 DL  .FT                10623.0000:    Depth Logger
 BLI .FT                 1061.0000:    Bottom Log Interval
 CSIZ.IN                     9.625:    Casing Size
 CBD1.                        1702:    Casing Bottom (Driller) 1
 CBL1.                        1700:    Casing Bottom (Logger) 1
 BS  .IN                     7.875:    Bit Size
 DFV .S                    45.0000:    Drilling Fluid Viscosity
 DFD .LB/G                 10.5000:    Drilling Fluid Density
 DFL .ML                    7.2000:    Drilling Fluid Loss
 DFPH.                      9.5000:    Drilling Fluid Ph
 MSS .                    MUD TANK:    Mud Sample Source
 RMS .OHMM                  4.6200:    Resistivity Of Mud Sample
 MST .DEGF                 50.0000:    Mud Sample Temperature
 RMF .OHMM                  3.0700:    Mud Filtrate Resistivity
 MFST.DEGF                 50.0000:    Mud Filtrate Sample Temperature
 RMC .OHMM                  7.1400:    Mud Cake Resistivity
 MCST.DEGF                 50.0000:    Mud Cake Sample Temperature
 RMB .OHMM                  1.0990:    Mud Resistivity At Bht
 BHT .DEGF                212.0000:    Bottom Hole Temperature
 MRT .DEGF                212.0000:    Maximum Recorded Temperature
 LUN .                        8415:    Logging Unit Number
 LUL .                      CASPER:    Logging Unit Location
 ENGI.               CHRIS PRESMYK:    Engineer'S Name
 WITN.                STEVE HEFNER:    Witness' Name
 DGBY.                         R2V:    
 WSTA.                         LOC:    
#
~Other Information Block
<DescLogPlotStart>   NEURALOG PLOT DEFINITION
PLOTDEFVERSION: 3
LASFILE: C:\nds\projects\mf-nov-13\las\3723301A.las
DEPTHSCALE: 240.000000
RESOLUTION: 200
DEPTHLABELFREQ: 100.000000
HEAVYGRIDFREQ: 100.000000
MEDIUMGRIDFREQ: 50.000000
LIGHTGRIDFREQ: 10.000000
#
#   TRACK 1
#
STARTTRACK: 
 LEFTX: 0.500000 inch
 RIGHTX: 3.000000 inch
 SCALETYPE: Log
 NUMCYCLES: 4
 STARTCYCLE: 2
CURVE: ILD   0.200000   2000.000000 (0,0,255)      Solid             2     N   
ENDTRACK: 
#
#   TRACK 2
#
STARTTRACK: 
 LEFTX: 3.500000 inch
 RIGHTX: 6.000000 inch
 SCALETYPE: Linear
 NUMCHARTDIVISIONS: 10
CURVE: SP    -80.000000 20.000000  (0,131,131)    Solid             2     Y    
BACKUP: -180.000000 -80.000000 (0,131,131)    Solid             2    
ENDTRACK: 
#
#   TRACK 3
#
STARTTRACK: 
 LEFTX: 6.000000 inch
 RIGHTX: 11.000000 inch
 SCALETYPE: Linear
 NUMCHARTDIVISIONS: 10
CURVE: DPHI  0.300000   -0.100000  (255,0,255)    Solid             2     N    
CURVE: NPHI  0.300000   -0.100000  (255,0,0)      Dot               2     Y    
BACKUP: 0.700000   0.300000   (255,0,0)      Dot               2    
ENDTRACK: 
#
#   TRACK 4
#
STARTTRACK: 
 LEFTX: 11.000000 inch
 RIGHTX: 13.500000 inch
 SCALETYPE: Linear
 NUMCHARTDIVISIONS: 10
CURVE: CALI  6.000000   16.000000  (255,131,0)    Solid             2     N    
CURVE: GR    0.000000   150.000000 (255,255,0)    Dot               2     Y    
BACKUP: 150.000000 300.000000 (255,255,0)    Dot               2    
ENDTRACK: 
#
#   TRACK 5
#
STARTTRACK: 
 LEFTX: 13.500000 inch
 RIGHTX: 18.500000 inch
 SCALETYPE: Linear
 NUMCHARTDIVISIONS: 10
CURVE: RHOB  2.000000   3.000000   (0,0,255)      Solid             2     Y    
BACKUP: 1.000000   2.000000   (0,0,255)      Solid             2    
CURVE: PEF   0.000000   10.000000  (0,131,131)    Dot               2     N    
ENDTRACK: 
#
#   TRACK 6
#
STARTTRACK: 
 LEFTX: 13.500000 inch
 RIGHTX: 18.500000 inch
 SCALETYPE: Linear
 NUMCHARTDIVISIONS: 10
CURVE: DT4P  240.000000 40.000000  (255,0,255)    Solid             2     N    
ENDTRACK: 
<DescLogPlotEnd>
~A DEPTH     ILD              SP               DPHI             NPHI             CALI             GR               RHOB             PEF              DT4P            
# ...
   10489.600 9.42937583       11.51144873      0.00388064       0.19675400       7.74395161       127.30593580     2.64502128       3.49977518       65.65392354     
   10489.700 9.63997836       11.47615619      0.00403260       0.19216804       7.74395161       127.36162020     2.64460469       3.51515291       65.18068410     
   10489.800 9.85528465       11.44096356      0.00411234       0.18758208       7.74395161       125.53005523     2.64504917       3.52313593       64.85553320     
   10489.900 10.07539973      11.40600934      0.00738113       0.18299611       7.74395161       121.57590246     2.64488088       3.52598494       64.53038229     
   10490.000 10.30043103      11.37100673      0.00959689       0.17841015       7.74395161       116.88874520     2.64197692       3.52923202       64.04426559     
   10490.100 10.53048834      11.33590007      0.01181265       0.17382419       7.74395161       112.77123094     2.63646053       3.53449366       64.09557344     
   10490.200 10.76568392      11.30081352      0.01402841       0.16923823       7.74395161       109.10138011     2.63016691       3.53879163       64.24547284     
   10490.300 11.00613253      11.26578720      0.01735206       0.16465226       7.74395161       105.22232922     2.62363763       3.53847909       64.31656606     
   10490.400 11.25195149      11.23074686      0.01735206       0.15777332       7.74395161       101.19684322     2.61596561       3.53130570       64.45204561     
   10490.500 11.63101246      11.19570652      0.02586330       0.15777332       7.74395161       97.35763014      2.60729253       3.51876263       64.58752515     
   10490.600 11.63101246      11.16068329      0.03153747       0.14573721       7.74395161       93.43717476      2.59903369       3.50828527       64.72300469     
   10490.700 11.78287644      11.12489772      0.03721163       0.13771314       7.74395161       89.06547378      2.59167713       3.50546069       64.85848424     
   10490.800 11.88521910      11.08972654      0.04288580       0.12968907       7.74395161       84.62074630      2.58436419       3.50125361       65.05030181     
   10490.900 11.98845067      11.05585624      0.04855997       0.12166499       7.74395161       80.69883149      2.57661572       3.47683276       65.21649899     
   10491.000 12.09257889      11.02094130      0.05707121       0.11035235       7.74395161       76.92810906      2.56903379       3.42631626       65.50100604     
   10491.100 12.19761153      10.98303671      0.05707121       0.10891243       7.74394715       73.15715732      2.56139796       3.36514243       65.78551308     
   10491.200 12.30355645      10.94753898      0.06328987       0.10247884       7.74394121       69.09118610      2.55362333       3.31044487       66.07002012     
   10491.300 12.41042159      10.91828404      0.06743564       0.09654575       7.74394299       65.65889618      2.54617344       3.26259037       66.45875252     
   10491.400 12.51821492      10.88388485      0.07158141       0.09208589       7.74394731       63.85807341      2.53857695       3.21251178       66.69648661     
   10491.500 12.62694451      10.83759068      0.07572718       0.08411228       7.74393395       62.36768565      2.53070363       3.15838782       67.07166073     
   10491.600 12.73661850      10.80107791      0.08194584       0.08431596       7.74391477       60.11709963      2.52354100       3.10589212       67.44683486     
   10491.700 12.84724508      10.78634636      0.08194584       0.08482435       7.74393262       57.32158482      2.51817499       3.05656356       67.82200898     
   10491.800 12.95883254      10.75369405      0.08756269       0.08546420       7.74396264       56.28228123      2.51505437       3.00534910       68.19718310     
   10491.900 13.07138921      10.67798610      0.08756269       0.08102265       7.74392231       56.19278902      2.51338856       2.95045708       68.57235722     
   10492.000 13.24205993      10.63644627      0.08530592       0.07662444       7.74385883       55.20650959      2.51107813       2.90043473       68.94753134     
   10492.100 13.24205993      10.73059716      0.08380140       0.08088616       7.74392432       54.64781158      2.50800305       2.86781620       69.32270546     
   10492.200 13.05928295      10.92537080      0.08154463       0.08374929       7.74403224       54.92271974      2.50809568       2.85635834       69.69787959     
   10492.300 12.93883536      11.07468008      0.08154463       0.08667143       7.74388552       55.48135645      2.51349186       2.85677209       70.07305371     
   10492.400 12.81949868      11.11235927      0.07473960       0.08936410       7.74365505       56.03607327      2.52008816       2.85582041       70.44822783     
   10492.500 12.64255421      11.11001093      0.07020292       0.09252783       7.74425362       56.67666052      2.52462460       2.84906721       70.82340195     
   10492.600 12.62936749      11.13952209      0.06566623       0.09527471       7.74644039       58.17583269      2.53034253       2.84359693       71.28772636     
   10492.700 12.29066448      11.19013781      0.06112954       0.09812772       7.74988894       59.90914919      2.53831096       2.84770085       71.48692153     
   10492.800 12.01867516      11.24031649      0.05659286       0.10240722       7.75361020       61.71050097      2.54760574       2.85949693       71.74820351     
   10492.900 11.80858420      11.31137256      0.05205617       0.10240722       7.75707682       64.16215723      2.55626320       2.87077364       72.00948548     
   10493.000 11.55416520      11.41864726      0.04751948       0.11067202       7.76045969       67.13355313      2.56412662       2.88147283       72.27076746     
   10493.100 11.34386720      11.53885494      0.04298279       0.11618188       7.76397153       69.82549662      2.57222838       2.90231370       72.53204944     
   10493.200 11.10823848      11.64943634      0.03844611       0.12169174       7.76752579       72.40266481      2.58070432       2.93975339       72.79333142     
   10493.300 10.89768351      11.75516703      0.03390942       0.12720160       7.77100969       75.54134615      2.58899091       2.98653552       73.09859155     
   10493.400 10.67856684      11.86562347      0.02937273       0.13271147       7.77447045       79.00320996      2.59714677       3.03165632       73.05497501     
   10493.500 10.47046486      11.97831511      0.02256770       0.13822133       7.77796823       82.38760983      2.60554456       3.07239626       73.00253132     
   10493.600 10.26384645      12.08870769      0.02256770       0.14373119       7.78147819       85.96486230      2.61373612       3.11243363       72.95008762     
   10493.700 10.06165606      12.19782996      0.01865597       0.14924106       7.78497047       89.61062351      2.62072665       3.15484464       72.89764393     
   10493.800 9.86461649       12.30834721      0.01604814       0.15475092       7.78845694       92.70557005      2.62618872       3.19970618       72.84520023     
   10493.900 9.66939710       12.41913220      0.01344032       0.16026078       7.79195112       95.53149111      2.63073173       3.24242417       72.79275654     
   10494.000 9.48022144       12.52941151      0.01083250       0.16577065       7.79544784       98.88545629      2.63509172       3.27401970       72.74478263     
   10494.100 9.29264083       12.63956332      0.00840823       0.17128051       7.79894009       102.48071268     2.63960354       3.28950515       72.68881105     
   10494.200 9.11057710       12.75031273      0.00539616       0.17679037       7.80243088       105.97788961     2.64417706       3.29535620       72.63743196     
   10494.300 8.93107975       12.86109443      0.00180295       0.18505517       7.80592166       109.42627028     2.64885742       3.30220503       72.58452951     
   10494.400 8.75499190       12.97082473      -0.00085308      0.18505517       7.80941244       113.34840229     2.65279061       3.31177661       72.53149716     
