~Version Information Block
 VERS.                2.00:     CWLS LOG ASCII STANDARD - VERSION 2.000000
 WRAP.                  NO:     One Line Per Depth Step
#
~Well Information Block
#MNEM.UNIT                     Data                         Information
#----------   ------------------------------------------   ----------------
 STRT.FT                                     9000.0000:     START DEPTH
 STOP.FT                                    10600.0000:     STOP DEPTH
 STEP.FT                                        0.1000:     STEP
 NULL.                                       -999.2500:     NULL VALUE
 COMP.                            PRESIDIO OIL COMPANY:     COMPANY
 WELL.                          HAY RESERVIOR UNIT #58:     WELL
 FLD .                              HAY RESERVIOR UNIT:     FIELD
 LOC .                               1500' FSL 10' FWL:     LOCATION
 CNTY.                                      SWEETWATER:     COUNTY
 STAT.                                         WYOMING:     STATE
 CTRY.                                             USA:     COUNTRY
 SRVC.                                    SCHLUMBERGER:     SERVICE COMPANY
 DATE.                                      22/02/1994:     DATE
 API .                                      4903723301:     API NUMBER
 UWI .                                         3723301:     UWI NUMBER
 TVD .                                              NO:     TVD flag
 WSTA.                                             LOC:     Well status
 USGS.                                            E945:     USGS Number
 LATI.DEG                                     42.05082:     LATITUDE
 LONG.DEG                                   -108.37861:     LONGITUDE
 UTM-N.                                     4658743.82:     Northing
 UTM-E.                                      716932.37:     Easting
 CORE.FT                                          -9.2:     Core/Log Offset
#
~Curve Information Block
#MNEM.UNIT       API CODE      Curve Description
#----------    -------------   -------------------
 DEPT.FT                   :   Depth in Feet
 ILD .OHMM     05 120 46 01:   Deep Induction Standard Processed Resistivity
 SP  .MV       01 010 01 01:   Spontaneous Potential
 DPHI.DEC      42 890 03 01:   DPHI
 NPHI.DEC      42 890 03 01:   Neutron Porosity
 CALI.IN       70 280 01 01:   Caliper
 GR  .GAPI     35 310 01 01:   Gamma Ray
 RHOB.G/C3     42 350 01 01:   Bulk Density
 PEF .B/E                  :   Photo-Electric Factor
 DT4P.US/F                 :   
#
~Parameter Information Block
#MNEM.UNIT            Value               Description
#----------    --------------------    -------------------
 DATE.                  22-02-1994:    Date As Month-Day-Year
 RUN .                         ONE:    Run Number
 PDAT.                         UNK:    Permanent Datum
 EPD .FT                 6799.0000:    Elevation Of Perm. Datum
 LMF .                          KB:    Log Measured From
 FAPD.FT                   14.0000:    Feet Above Perm. Datum
 DMF .                          KB:    Drilling Measured From
 EKB .FT                 6813.0000:    Elevation Of Kelly Bushing
 EDF .FT                 6812.0000:    Elevation Of Derrick Floor
 EGL .FT                 6799.0000:    Elevation Of Ground Level
 TD  .FT                10600.0000:    Total Depth
 DD  .FT                10625.0000:    Depth Driller
 DL  .FT                10623.0000:    Depth Logger
 BLI .FT                 1061.0000:    Bottom Log Interval
 CSIZ.IN                     9.625:    Casing Size
 CBD1.                        1702:    Casing Bottom (Driller) 1
 CBL1.                        1700:    Casing Bottom (Logger) 1
 BS  .IN                     7.875:    Bit Size
 DFV .S                    45.0000:    Drilling Fluid Viscosity
 DFD .LB/G                 10.5000:    Drilling Fluid Density
 DFL .ML                    7.2000:    Drilling Fluid Loss
 DFPH.                      9.5000:    Drilling Fluid Ph
 MSS .                    MUD TANK:    Mud Sample Source
 RMS .OHMM                  4.6200:    Resistivity Of Mud Sample
 MST .DEGF                 50.0000:    Mud Sample Temperature
 RMF .OHMM                  3.0700:    Mud Filtrate Resistivity
 MFST.DEGF                 50.0000:    Mud Filtrate Sample Temperature
 RMC .OHMM                  7.1400:    Mud Cake Resistivity
 MCST.DEGF                 50.0000:    Mud Cake Sample Temperature
 RMB .OHMM                  1.0990:    Mud Resistivity At Bht
 BHT .DEGF                212.0000:    Bottom Hole Temperature
 MRT .DEGF                212.0000:    Maximum Recorded Temperature
 LUN .                        8415:    Logging Unit Number
 LUL .                      CASPER:    Logging Unit Location
 ENGI.               CHRIS PRESMYK:    Engineer'S Name
 WITN.                STEVE HEFNER:    Witness' Name
 DGBY.                         R2V:    
 WSTA.                         LOC:    
#
~Other Information Block
<DescLogPlotStart>   NEURALOG PLOT DEFINITION
PLOTDEFVERSION: 3
LASFILE: C:\nds\projects\mf-nov-13\las\3723301A.las
DEPTHSCALE: 240.000000
RESOLUTION: 200
DEPTHLABELFREQ: 100.000000
HEAVYGRIDFREQ: 100.000000
MEDIUMGRIDFREQ: 50.000000
LIGHTGRIDFREQ: 10.000000
#
#   TRACK 1
#
STARTTRACK: 
 LEFTX: 0.500000 inch
 RIGHTX: 3.000000 inch
 SCALETYPE: Log
 NUMCYCLES: 4
 STARTCYCLE: 2
CURVE: ILD   0.200000   2000.000000 (0,0,255)      Solid             2     N   
ENDTRACK: 
#
#   TRACK 2
#
STARTTRACK: 
 LEFTX: 3.500000 inch
 RIGHTX: 6.000000 inch
 SCALETYPE: Linear
 NUMCHARTDIVISIONS: 10
CURVE: SP    -80.000000 20.000000  (0,131,131)    Solid             2     Y    
BACKUP: -180.000000 -80.000000 (0,131,131)    Solid             2    
ENDTRACK: 
#
#   TRACK 3
#
STARTTRACK: 
 LEFTX: 6.000000 inch
 RIGHTX: 11.000000 inch
 SCALETYPE: Linear
 NUMCHARTDIVISIONS: 10
CURVE: DPHI  0.300000   -0.100000  (255,0,255)    Solid             2     N    
CURVE: NPHI  0.300000   -0.100000  (255,0,0)      Dot               2     Y    
BACKUP: 0.700000   0.300000   (255,0,0)      Dot               2    
ENDTRACK: 
#
#   TRACK 4
#
STARTTRACK: 
 LEFTX: 11.000000 inch
 RIGHTX: 13.500000 inch
 SCALETYPE: Linear
 NUMCHARTDIVISIONS: 10
CURVE: CALI  6.000000   16.000000  (255,131,0)    Solid             2     N    
CURVE: GR    0.000000   150.000000 (255,255,0)    Dot               2     Y    
BACKUP: 150.000000 300.000000 (255,255,0)    Dot               2    
ENDTRACK: 
#
#   TRACK 5
#
STARTTRACK: 
 LEFTX: 13.500000 inch
 RIGHTX: 18.500000 inch
 SCALETYPE: Linear
 NUMCHARTDIVISIONS: 10
CURVE: RHOB  2.000000   3.000000   (0,0,255)      Solid             2     Y    
BACKUP: 1.000000   2.000000   (0,0,255)      Solid             2    
CURVE: PEF   0.000000   10.000000  (0,131,131)    Dot               2     N    
ENDTRACK: 
#
#   TRACK 6
#
STARTTRACK: 
 LEFTX: 13.500000 inch
 RIGHTX: 18.500000 inch
 SCALETYPE: Linear
 NUMCHARTDIVISIONS: 10
CURVE: DT4P  240.000000 40.000000  (255,0,255)    Solid             2     N    
ENDTRACK: 
<DescLogPlotEnd>
~A DEPTH     ILD              SP               DPHI             NPHI             CALI             GR               RHOB             PEF              DT4P            
# ...
   10386.700 6.22291825       7.33266576       0.01788164       0.20402924       8.26689273       137.83784293     2.62757830       3.63625073       75.97140919     
   10386.800 6.19593687       7.35256614       0.01975928       0.20602520       8.26472566       137.65148847     2.62530296       3.64769623       76.17123231     
   10386.900 6.16907247       7.37541249       0.02024674       0.20813218       8.26256897       137.52972545     2.62262083       3.65328811       76.33415874     
   10387.000 6.14232454       7.39409544       0.02096289       0.21008084       8.26041321       137.45422750     2.62033080       3.65351830       76.51911469     
   10387.100 6.11569259       7.40170083       0.02096289       0.21223663       8.25825292       137.36128726     2.61954480       3.65435727       76.69796557     
   10387.200 6.08917612       7.40046831       0.02094148       0.21419157       8.25609224       137.23085942     2.62023599       3.65908871       76.87681645     
   10387.300 6.06277461       7.39833098       0.02041436       0.21622718       8.25393418       137.04800787     2.62109077       3.66252753       77.05566734     
   10387.400 6.03648757       7.39890809       0.01935408       0.21875627       8.25177637       136.74995422     2.62119460       3.65645088       77.32394366     
   10387.500 6.01031451       7.39994348       0.01815871       0.21875627       8.24961857       136.32204147     2.62127479       3.63951725       77.32394366     
   10387.600 5.98425494       7.39960402       0.01650933       0.21875627       8.24746077       135.89866091     2.62275450       3.61842961       77.25687458     
   10387.700 5.95830835       7.39901455       0.01486480       0.21875627       8.24530296       135.65339552     2.62598759       3.60020163       77.21216186     
   10387.800 5.93247426       7.39917511       0.01326642       0.21875627       8.24314516       135.60900857     2.62997903       3.58555968       77.16744914     
   10387.900 5.90675218       7.39946722       0.01157606       0.21875627       8.24098899       135.63790108     2.63355795       3.57017248       77.12273642     
   10388.000 5.88114163       7.39936467       0.01001511       0.21875627       8.23882752       135.64012455     2.63644275       3.55104314       77.07802370     
   10388.100 5.85564212       7.39919931       0.00829688       0.21783350       8.23666323       135.62190009     2.63932864       3.53096358       77.03331098     
   10388.200 5.83025317       7.39922240       0.00675594       0.21650953       8.23450809       135.62254826     2.64298186       3.51547695       76.98859826     
   10388.300 5.80497430       7.39927291       0.00502838       0.21518556       8.23235941       135.63400296     2.64704269       3.50541965       76.92152918     
   10388.400 5.77980504       7.39924116       0.00292530       0.21386158       8.23018976       135.62874974     2.65010697       3.49563817       76.92152918     
   10388.500 5.75474491       7.39919355       0.00257988       0.21253761       8.22800659       135.61394463     2.65134465       3.48293301       77.11359063     
   10388.600 5.72979343       7.39919355       0.00225373       0.21073220       8.22586734       135.61804697     2.65141735       3.47159430       77.24163161     
   10388.700 5.70495014       7.39919355       0.00164499       0.21052999       8.22375378       135.63746409     2.65119057       3.46728581       77.36967258     
   10388.800 5.68021456       7.39919355       0.00263156       0.21021224       8.22155674       135.62319404     2.65039786       3.46878819       77.49771355     
   10388.900 5.64591351       7.39919355       0.00408111       0.20989448       8.21931262       135.58269031     2.64848035       3.47016795       77.62575453     
   10389.000 5.63735942       7.39919355       0.00561080       0.20957673       8.21722152       135.64514118     2.64587404       3.46896263       77.75379550     
   10389.100 5.62327348       7.39919355       0.00707104       0.20925898       8.21522339       135.98847294     2.64347384       3.46803905       77.88183647     
   10389.200 5.60922274       7.39919355       0.00859919       0.20894122       8.21292312       136.63735788     2.64148709       3.47047919       78.00987745     
   10389.300 5.59520712       7.39919355       0.01006059       0.20862347       8.21032017       137.40469219     2.63957123       3.47585991       78.13791842     
   10389.400 5.58122651       7.39919355       0.01158787       0.20830572       8.20822066       138.09987784     2.63746723       3.48182482       78.32997988     
   10389.500 5.56728083       7.39919355       0.01372995       0.20798796       8.20737939       138.75389819     2.63511263       3.48705826       78.32997988     
   10389.600 5.55337000       7.39919355       0.01496323       0.20752257       8.20752186       139.55404157     2.63266236       3.49189099       78.29966372     
   10389.700 5.53949393       7.39919355       0.01559007       0.20712387       8.20775729       140.69933234     2.63063407       3.49685077       78.27945295     
   10389.800 5.52565253       7.39919355       0.01678528       0.20637914       8.20769058       142.38569741     2.62937486       3.50189420       78.25924218     
   10389.900 5.51184572       7.39919355       0.01800329       0.20563440       8.20757679       144.64056190     2.62849010       3.50705725       78.23903140     
   10390.000 5.49807340       7.39925140       0.01915366       0.20488967       8.20761602       147.01649882     2.62741154       3.51234859       78.21882063     
   10390.100 5.48433550       7.39929382       0.02042021       0.20414493       8.20768095       148.84284936     2.62626056       3.51728802       78.20116655     
   10390.200 5.47063192       7.39923631       0.02093867       0.20340020       8.20766239       149.99108869     2.62538544       3.52175039       78.18022455     
   10390.300 5.45696258       7.39920545       0.02081545       0.20264490       8.20763032       150.98254658     2.62445912       3.52701402       78.15883255     
   10390.400 5.44332740       7.39940356       0.02071615       0.20186988       8.20764217       152.11624240     2.62305297       3.53364096       78.13157839     
   10390.500 5.42972629       7.39954062       0.02061685       0.20151325       8.20766048       153.12068985     2.62184906       3.53895535       78.04417125     
   10390.600 5.41615917       7.39919816       0.02056169       0.20153045       8.20765781       153.91051958     2.62203644       3.53928691       77.89706567     
   10390.700 5.40262594       7.39898358       0.01830266       0.20170407       8.20765232       154.97207457     2.62352416       3.53469898       77.73657037     
   10390.800 5.38912653       7.39968028       0.01673872       0.20163536       8.20765599       156.51068166     2.62506805       3.52890395       77.59307708     
   10390.900 5.37566085       7.40013397       0.01517477       0.20186046       8.20766129       157.83266084     2.62624379       3.52451772       77.42913018     
   10391.000 5.36222882       7.39891721       0.01361083       0.20174985       8.20766129       158.12940409     2.62796816       3.52087462       77.28815862     
   10391.100 5.34883035       7.39814590       0.01204689       0.20197664       8.20766129       157.47163083     2.63091668       3.51665418       77.12254988     
   10391.200 5.34059140       7.40067264       0.01048295       0.20461780       8.20766129       156.65463894     2.63463016       3.51205252       76.92472658     
   10391.300 5.34695098       7.40231991       0.00891901       0.20682508       8.20766129       156.24068848     2.63838405       3.50775776       76.91260204     
   10391.400 5.35155131       7.39322911       0.00735507       0.20869370       8.20766129       155.99915847     2.64182498       3.50366966       76.92275235     
   10391.500 5.35615560       7.36995463       0.00579112       0.21085966       8.20766129       155.24338923     2.64470749       3.49941805       76.91382034     
