~Version ---------------------------------------------------
VERS.   2.0 : CWLS log ASCII Standard -VERSION 2.0
WRAP.    NO : One line per depth step
DLM . SPACE : Column Data Section Delimiter
~Well ------------------------------------------------------
STRT.FT   8950.0     : START DEPTH
STOP.FT  10550.0     : STOP DEPTH
STEP.FT      0.5     : STEP
NULL.    -999.25     : NULL VALUE
COMP.        HRM     : COMPANY
WELL.57 Hay Reservoir: WELL
FLD .  Hay Reservoir : FIELD
LOC .     24N 97W    : LOCATION
CNTY.     Sweetwater : COUNTY
STAT.         WY     : STATE
CTRY.          USA   : COUNTRY
SRVC.           SLB? : SERVICE COMPANY
DATE. 11/14/2019     : DATE
API . 4903723193     : API NUMBER
UWI .   3723193A     : UWI NUMBER
TVD .         NO     : TVD flag
WSTA.        LOC     : Well status
USGS.            E952: USGS Number
LATI.DEG     42.04063: LATITUDE
LONG.DEG   -108.36672: LONGITUDE
UTM-N.     4657642.54: Northing
UTM-E.      717951.25: Easting
CORE.              -4: Core/Log Offset
~Curve Information -----------------------------------------
DEPT.FT                : Depth in Feet
DPHI.V/V  45 890 01 01 : Density Porosity
NPHI.V/V  42 890 03 01 : Neutron Porosity
GR  .API  35 310 01 01 : Gamma Ray
CALI.IN   70 280 01 01 : Caliper
RHOB.G/CC 42 350 01 01 : Bulk Density
PEF .BARN              : Photoelectric Effect
ILD .                  : Deep Induction
SP  .                  : Spontaneous Potential
~Params ----------------------------------------------------
~Other -----------------------------------------------------
~ASCII -----------------------------------------------------
# ...
 10510.00000    0.02300    0.24300  137.19900    8.17200    2.60300    3.79000    4.42800   -3.89400
 10510.50000    0.02100    0.23700  137.99400    8.17200    2.60900    3.61500    4.47900   -3.83200
 10511.00000    0.01900    0.23300  135.56600    8.17200    2.61400    3.61200    4.53100   -3.77000
 10511.50000    0.01800    0.23800  130.95000    8.17200    2.61800    3.72900    4.58400   -3.70800
 10512.00000    0.01900    0.24400  126.37200    8.16400    2.61700    3.83900    4.60500   -3.64400
 10512.50000    0.02000    0.24900  126.33500    8.12100    2.61700    3.83000    4.71800   -3.58200
 10513.00000    0.02100    0.24900  129.90000    8.08000    2.61600    3.72300    4.83200   -3.51700
 10513.50000    0.02100    0.24500  133.61500    8.04900    2.61500    3.61600    4.91400   -3.44900
 10514.00000    0.02000    0.24000  133.12700    8.04700    2.61400    3.54600    4.82000   -3.53000
 10514.50000    0.01900    0.23900  131.93000    8.04500    2.61400    3.54100    4.72000   -3.64200
 10515.00000    0.01700    0.24600  133.16100    8.04200    2.61500    3.55100    4.62200   -3.75400
 10515.50000    0.01600    0.25100  135.61700    8.04000    2.62000    3.59200    4.52600   -3.86500
 10516.00000    0.01600    0.25300  137.56600    8.03700    2.62200    3.66300    4.43200   -3.97700
 10516.50000    0.01500    0.25400  139.07900    8.03400    2.62300    3.68100    4.34000   -4.08800
 10517.00000    0.01500    0.25300  139.52800    8.03200    2.62300    3.59500    4.25000   -4.20300
 10517.50000    0.01400    0.25200  139.64500    8.02900    2.62400    3.48600    4.16100   -4.03800
 10518.00000    0.01200    0.24900  139.74200    8.02700    2.62600    3.40900    4.07500   -3.69800
 10518.50000    0.01100    0.24500  139.87000    8.02400    2.62800    3.46600    4.00700   -3.42700
 10519.00000    0.01100    0.24500  140.72100    8.02200    2.62900    3.52200    4.00900   -3.39200
 10519.50000    0.01000    0.24700  141.97400    8.01900    2.63000    3.56400    4.01600   -3.35400
 10520.00000    0.00800    0.24800  142.28500    8.01700    2.63100    3.57700    4.02200   -3.31600
 10520.50000    0.00500    0.24800  142.26800    8.01400    2.63400    3.57400    4.02900   -3.27800
 10521.00000    0.00000    0.25000  141.67600    8.01100    2.63700    3.55300    4.03700   -3.24000
 10521.50000    0.00100    0.25100  139.89800    8.00900    2.64200    3.62700    4.04000   -3.20200
 10522.00000    0.00600    0.25300  138.14800    8.00600    2.64800    3.82500    4.11900   -3.16300
 10522.50000    0.01300    0.25400  136.83900    8.00400    2.64500    3.85300    4.20500   -3.12500
 10523.00000    0.01800    0.25400  137.12900    8.00100    2.63500    3.71800    4.29400   -3.08700
 10523.50000    0.02300    0.25400  135.86600    7.99900    2.62400    3.58000    4.38600   -3.04600
 10524.00000    0.02900    0.24900  134.42200    7.99600    2.61800    3.52800    4.47900   -3.10700
 10524.50000    0.03400    0.23800  134.53000    7.99400    2.61200    3.63900    4.57400   -3.20000
 10525.00000    0.03600    0.22400  136.30200    7.99100    2.60000    3.80300    4.67200   -3.29500
 10525.50000    0.03300    0.21000  138.61200    7.98800    2.59200    3.82300    4.70400   -3.38700
 10526.00000    0.02700    0.20300  139.78700    7.98600    2.59000    3.70500    4.72100   -3.39600
 10526.50000    0.02000    0.20600  139.79500    7.98300    2.59500    3.55000    4.73800   -3.29200
 10527.00000    0.01500    0.20900  138.38800    7.98100    2.60700    3.39900    4.75400   -3.18900
 10527.50000    0.01200    0.21200  136.21300    7.97800    2.61800    3.30600    4.77100   -3.08600
 10528.00000    0.01300    0.21500  134.45000    7.97600    2.62600    3.27800    4.77700   -2.98200
 10528.50000    0.01500    0.21500  132.68800    7.97300    2.62700    3.34700    4.77700   -2.87900
 10529.00000    0.01600    0.21500  131.85800    7.97100    2.62600    3.54500    4.89100   -2.77600
 10529.50000    0.01600    0.21400  132.87500    7.97100    2.62300    3.66200    4.95700   -2.67000
 10530.00000    0.01600    0.21400  133.94600    7.97200    2.62200    3.58700    5.02500   -2.73700
 10530.50000    0.01800    0.21300  135.06200    7.97400    2.62200    3.48400    5.09400   -2.89000
 10531.00000    0.02100    0.21500  135.31600    7.97600    2.62200    3.44500    5.16400   -3.04500
 10531.50000    0.02600    0.21800  134.90700    7.97700    2.61600    3.51700    5.23500   -3.20500
 10532.00000    0.02900    0.21900  132.57800    7.97900    2.60700    3.58600    5.34100   -3.25900
 10532.50000    0.03100    0.21700  131.00500    7.98100    2.60100    3.55900    5.39000   -3.28500
 10533.00000    0.03200    0.21400  130.03900    7.98200    2.59900    3.47000    5.35000   -3.31000
 10533.50000    0.03100    0.21200  127.10100    7.98400    2.59700    3.38300    5.31900   -3.33600
 10534.00000    0.02400    0.21300  123.96500    7.98600    2.60100    3.29500    5.28700   -3.36200
 10534.50000    0.01600    0.21600  120.74800    7.98700    2.61200    3.21700    5.25600   -3.38800
 10535.00000    0.00900    0.21900  120.97600    7.99000    2.62500    3.20100    5.24300   -3.41400
 10535.50000    0.00600    0.21900  125.04900    8.02000    2.63600    3.22700    5.24300   -3.43800
 10536.00000    0.00200    0.21700  129.28100    8.02400    2.64000    3.23700    5.29100   -3.34100
 10536.50000   -0.01800    0.21400  133.51000    8.01700    2.65600    3.07900    5.42700   -3.23500
 10537.00000   -0.04800    0.21200  137.74900    8.00900    2.70700    2.48100    5.52900   -3.12900
 10537.50000   -0.07100    0.20700  141.96100    8.00200    2.75400    1.90600    5.63200   -3.02300
 10538.00000   -0.06100    0.20000  144.34100    7.99400    2.76300    1.60000    5.69800   -2.91700
 10538.50000   -0.02600    0.19300  135.47100    7.98700    2.70400    1.93800    5.60900   -2.81100
 10539.00000    0.00800    0.18600  127.89000    7.98000    2.64100    2.45100    5.51700   -2.70600
 10539.50000    0.03000    0.17900  123.09200    7.97200    2.59900    2.86000    5.42700   -2.62300
 10540.00000    0.03600    0.17600  122.90600    7.96500    2.59100    2.99800    5.33800   -2.58800
 10540.50000    0.03700    0.17800  133.87900    7.95700    2.58600    2.98400    5.25000   -2.55200
 10541.00000    0.03600    0.19000  140.63400    7.95000    2.58800    2.93600    5.19400   -2.51700
 10541.50000    0.03500    0.20100  142.05100    7.95900    2.58900    2.88600    5.36900   -2.48100
 10542.00000    0.03600    0.21000  138.69600    7.96900    2.58400    2.89600    5.50400   -2.44600
 10542.50000    0.03800    0.20900  134.25700    7.97900    2.58100    2.94800    5.64200   -2.41000
 10543.00000    0.03800    0.19800  130.06200    7.99100    2.58900    3.01400    5.78400   -2.37400
 10543.50000    0.03700    0.18400  128.17200    7.92500    2.59600    3.15500    5.94400   -2.33900
 10544.00000    0.03400    0.18300  127.23200    7.85200    2.60100    3.30400    6.23400   -2.30300
 10544.50000    0.03100    0.18300  126.30600    7.77800    2.59800    3.45400    6.53900   -2.26900
 10545.00000    0.02800    0.18000  124.67500    7.74800    2.59600    3.57500    6.85900   -2.22800
 10545.50000    0.02500    0.17700  121.99800    7.74700    2.60600    3.67700    6.98700   -2.06300
 10546.00000    0.02200    0.17500  120.04200    7.74700    2.62000    3.77700    6.98700   -1.89700
 10546.50000    0.01900    0.18000  117.73800    7.74700    2.62900    3.84400    6.90600   -1.73100
 10547.00000    0.01600    0.19100  117.52900    7.74700    2.62800    3.81300    6.79500   -1.56600
 10547.50000    0.01300    0.20200  117.64500    7.74700    2.62800    3.75400    6.86700   -1.44000
 10548.00000    0.01000    0.20500  119.59000    7.74800    2.63600    3.68000    7.00300   -1.54300
 10548.50000    0.00700    0.19500  122.41800    7.75400    2.64500    3.60000    7.14200   -1.64200
 10549.00000    0.00400    0.18600  125.86300    7.76000    2.65100    3.55800    7.26700   -1.74000
 10549.50000    0.00200    0.17900  128.08200    7.76600    2.65000    3.60800    7.33700   -1.83000
