~Version Information Block
 VERS.                2.00:     CWLS LOG ASCII STANDARD - VERSION 2.000000
 WRAP.                  NO:     One Line Per Depth Step
#
~Well Information Block
#MNEM.UNIT                     Data                         Information
#----------   ------------------------------------------   ----------------
 STRT.FT                                    12600.0000:     START DEPTH
 STOP.FT                                    13950.0000:     STOP DEPTH
 STEP.FT                                        0.1000:     STEP
 NULL.                                       -999.2500:     NULL VALUE
 COMP.                        PRESIDIO EXPLORATION INC:     COMPANY
 WELL.                          PICKETLAKE UNIT #40-13:     WELL
 FLD .                                         WILDCAT:     FIELD
 LOC .                           1320' FSL & 1320' FEL:     LOCATION
 CNTY.                                      SWEETWATER:     COUNTY
 STAT.                                         WYOMING:     STATE
 CTRY.                                             USA:     COUNTRY
 SRVC.                                                :     SERVICE COMPANY
 DATE.                                      15/05/1995:     DATE
 API .                                      4903723472:     API NUMBER
 UWI .                                         3723472:     UWI NUMBER
 TVD .                                              NO:     TVD flag
 WSTA.                                             LOC:     Well status
 USGS.                                            F042:     USGS Number
 LATI.DEG                                     42.22387:     LATITUDE
 LONG.DEG                                   -108.34765:     LONGITUDE
 UTM-N.                                     4678038.95:     Northing
 UTM-E.                                       718897.4:     Easting
 CORE.                                              +5:     Core/Log Offset
#
~Curve Information Block
#MNEM.UNIT       API CODE      Curve Description
#----------    -------------   -------------------
 DEPT.FT                   :   Depth in Feet
 DTCO.US/F     60 520 08 01:   DTCO
 SPHI.V/V      61 890 01 01:   Sonic Porosity
 GR  .GAPI     35 310 01 01:   Gamma Ray
 CALI.IN       70 280 01 01:   Caliper
 ILD .OHMM     05 120 46 01:   Deep Induction Standard Processed Resistivity
 SP  .MV       01 010 01 01:   Spontaneous Potential
 PEF .b/e                  :   Photo-Electric Factor
 RHOB.G/C3     42 350 01 01:   Bulk Density
 DPHI.V/V      45 890 01 01:   Density Porosity
 NPHI.V/V      42 890 03 01:   Neutron Porosity
#
~Parameter Information Block
#MNEM.UNIT            Value               Description
#----------    --------------------    -------------------
 DATE.                  15-05-1995:    Date As Month-Day-Year
 RUN .                         ONE:    Run Number
 PDAT.                         UNK:    Permanent Datum
 EPD .FT                 7224.0000:    Elevation Of Perm. Datum
 LMF .                          KB:    Log Measured From
 FAPD.FT                   15.0000:    Feet Above Perm. Datum
 DMF .                          KB:    Drilling Measured From
 EKB .FT                 7240.0000:    Elevation Of Kelly Bushing
 EDF .FT                 7239.0000:    Elevation Of Derrick Floor
 EGL .FT                 7224.0000:    Elevation Of Ground Level
 TD  .FT                13950.0000:    Total Depth
 DD  .FT                13957.0000:    Depth Driller
 DL  .FT                13952.0000:    Depth Logger
 BLI .FT                13925.0000:    Bottom Log Interval
 TLI .FT                10000.0000:    Top Log Interval
 CSIZ.IN                   9.625IN:    Casing Size
 CBD1.                        2520:    Casing Bottom (Driller) 1
 CBL1.                        2518:    Casing Bottom (Logger) 1
 BS  .IN                   7.875IN:    Bit Size
 DFT .                         WTD:    Drilling Fluid Type
 DFV .S                    74.0000:    Drilling Fluid Viscosity
 DFD .LB/G                 10.8000:    Drilling Fluid Density
 DFL .ML                    7.2000:    Drilling Fluid Loss
 DFPH.                      9.5000:    Drilling Fluid Ph
 MSS .                     MUDTANK:    Mud Sample Source
 RMS .OHMM                  4.3300:    Resistivity Of Mud Sample
 MST .DEGF                 65.0000:    Mud Sample Temperature
 RMF .OHMM                  3.3800:    Mud Filtrate Resistivity
 MFST.DEGF                 65.0000:    Mud Filtrate Sample Temperature
 RMC .OHMM                  4.5000:    Mud Cake Resistivity
 MCST.DEGF                 65.0000:    Mud Cake Sample Temperature
 RMB .OHMM                  1.3760:    Mud Resistivity At Bht
 BHT .DEGF                219.0000:    Bottom Hole Temperature
 MRT .DEGF                219.0000:    Maximum Recorded Temperature
 LUN .                        8415:    Logging Unit Number
 LUL .                      CASPER:    Logging Unit Location
 ENGI.               T.CHRISTENSEN:    Engineer'S Name
 WITN.                STEVE HEFNER:    Witness' Name
 DGBY.                         R2V:    
 WSTA.                         LOC:    
#
~Other Information Block
<DescLogPlotStart>   NEURALOG PLOT DEFINITION
PLOTDEFVERSION: 3
LASFILE: C:\nds\projects\mf-nov-13\las\3723472C.las
DEPTHSCALE: 240.000000
RESOLUTION: 200
DEPTHLABELFREQ: 100.000000
HEAVYGRIDFREQ: 100.000000
MEDIUMGRIDFREQ: 50.000000
LIGHTGRIDFREQ: 10.000000
#
#   TRACK 1
#
STARTTRACK: 
 LEFTX: 0.500000 inch
 RIGHTX: 3.000000 inch
 SCALETYPE: Linear
 NUMCHARTDIVISIONS: 10
CURVE: DTCO  140.000000 40.000000  (0,0,255)      Solid             2     N    
CURVE: SPHI  0.300000   -0.100000  (0,131,131)    Dot               2     N    
ENDTRACK: 
#
#   TRACK 2
#
STARTTRACK: 
 LEFTX: 3.500000 inch
 RIGHTX: 6.000000 inch
 SCALETYPE: Linear
 NUMCHARTDIVISIONS: 10
CURVE: GR    0.000000   150.000000 (255,0,255)    Solid             2     Y    
BACKUP: 150.000000 300.000000 (255,0,255)    Solid             2    
CURVE: CALI  6.000000   16.000000  (255,0,0)      Dot               2     N    
ENDTRACK: 
#
#   TRACK 3
#
STARTTRACK: 
 LEFTX: 6.000000 inch
 RIGHTX: 11.000000 inch
 SCALETYPE: Log
 NUMCYCLES: 4
 STARTCYCLE: 2
CURVE: ILD   0.200000   2000.000000 (255,131,0)    Solid             2     N   
ENDTRACK: 
#
#   TRACK 4
#
STARTTRACK: 
 LEFTX: 11.000000 inch
 RIGHTX: 13.500000 inch
 SCALETYPE: Linear
 NUMCHARTDIVISIONS: 10
CURVE: SP    -80.000000 20.000000  (255,255,0)    Solid             2     N    
ENDTRACK: 
#
#   TRACK 5
#
STARTTRACK: 
 LEFTX: 13.500000 inch
 RIGHTX: 18.500000 inch
 SCALETYPE: Linear
 NUMCHARTDIVISIONS: 10
CURVE: PEF   0.000000   10.000000  (0,0,255)      Solid             2     N    
CURVE: RHOB  2.000000   3.000000   (0,131,131)    Dot               2     Y    
BACKUP: 1.000000   2.000000   (0,131,131)    Dot               2    
ENDTRACK: 
#
#   TRACK 6
#
STARTTRACK: 
 LEFTX: 18.500000 inch
 RIGHTX: 23.500000 inch
 SCALETYPE: Linear
 NUMCHARTDIVISIONS: 10
CURVE: DPHI  0.300000   -0.100000  (255,0,255)    Solid             2     N    
CURVE: NPHI  0.300000   -0.100000  (255,0,0)      Dot               2     Y    
BACKUP: 0.700000   0.300000   (255,0,0)      Dot               2    
ENDTRACK: 
<DescLogPlotEnd>
~A DEPTH     DTCO             SPHI             GR               CALI             ILD              SP               PEF              RHOB             DPHI             NPHI            
# ...
   13946.400 66.97171029      0.11466126       178.33333333     7.07540231       -999.25000000    -9.88126592      2.72495275       2.46087295       0.11372492       0.15005768      
   13946.500 66.97363340      0.11465319       178.33333333     7.10903736       -999.25000000    -9.92691785      2.72466336       2.46080139       0.11371740       0.15004503      
   13946.600 66.97851854      0.11465836       178.33333333     7.14043252       -999.25000000    -9.97250171      2.72437397       2.46072983       0.11370988       0.15003238      
   13946.700 66.98135314      0.11465619       178.33333333     7.17054586       -999.25000000    -10.01808599     2.72408457       2.46065827       0.11370237       0.15001974      
   13946.800 66.98544737      0.11465731       178.33333333     7.20508150       -999.25000000    -10.06370968     2.72379518       2.46058671       0.11369485       0.15000709      
   13946.900 66.98917894      0.11465863       178.33333333     7.24379062       -999.25000000    -10.10933180     2.72350579       2.46051515       0.11368733       0.14999444      
   13947.000 66.99278596      0.11465863       178.33333333     7.27472349       -999.25000000    -10.15495392     2.72321639       2.46044359       0.11367981       0.14998180      
   13947.100 66.99639298      0.11465863       178.33333333     7.28698306       -999.25000000    -10.20057604     2.72292700       2.46037203       0.11367230       0.14996915      
   13947.200 67.00000000      0.11465863       178.33333333     7.28484411       -999.25000000    -10.24616916     2.72263761       2.46030047       0.11366478       0.14995650      
   13947.300 67.00360702      0.11465863       178.33333333     7.28142333       -999.25000000    -10.29118322     2.72234822       2.46022892       0.11365726       0.14994385      
   13947.400 67.00721404      0.11465863       178.33333333     7.28242486       -999.25000000    -10.33693299     2.72205882       2.46015736       0.11364975       0.14993121      
   13947.500 67.01082106      0.11465863       178.33333333     7.28407564       -999.25000000    -10.38334027     2.72176943       2.46008580       0.11364223       0.14991856      
   13947.600 67.01442808      0.11465863       178.33333333     7.28348653       -999.25000000    -10.42879120     2.72148004       2.46001424       0.11363471       0.14990591      
   13947.700 67.01803510      0.11473829       178.33333333     7.28254323       -999.25000000    -10.47219957     2.72119064       2.45994268       0.11362720       0.14989327      
   13947.800 67.02164212      0.11480321       178.33333333     7.28282187       -999.25000000    -10.51831261     2.72090125       2.45987112       0.11361968       0.14988059      
   13947.900 67.02524914      0.11486814       178.33333333     7.28328687       -999.25000000    -10.56777505     2.72061186       2.45979956       0.11361216       0.14986796      
   13948.000 67.02885617      0.11493307       178.33333333     7.28310891       -999.25000000    -10.61254808     2.72032267       2.45972800       0.11360465       0.14985527      
   13948.100 67.03246319      0.11499799       178.33333333     7.28284196       -999.25000000    -10.65086844     2.72003278       2.45965644       0.11359713       0.14984264      
   13948.200 67.03607021      0.11506292       178.33333333     7.28288203       -999.25000000    -10.69781451     2.71974255       2.45958488       0.11358961       0.14982998      
   13948.300 67.03967723      0.11512784       178.33333333     7.28296094       -999.25000000    -10.75620894     2.71945352       2.45951333       0.11358210       0.14981729      
   13948.400 67.04348692      0.11519421       178.33333333     7.28290585       -999.25000000    -10.79918517     2.71916528       2.45944183       0.11357455       0.14980474      
   13948.500 67.04543295      0.11525039       178.33333333     7.28282828       -999.25000000    -10.81968023     2.71887429       2.45937015       0.11356705       0.14979186      
   13948.600 67.05103996      0.11532687       178.33333333     7.28282828       -999.25000000    -10.87264117     2.71858165       2.45929836       0.11355952       0.14977956      
   13948.700 67.05231885      0.11537715       178.33333333     7.28282828       -999.25000000    -11.02057693     2.71829474       2.45922689       0.11355197       0.14976638      
   13948.800 67.05914194      0.11547030       178.33333333     7.28282828       -999.25000000    -11.24143386     2.71801100       2.45915566       0.11354452       0.14975443      
   13948.900 67.12095221      0.11582866       178.33333333     7.28282828       -999.25000000    -11.43310811     2.71771635       2.45908371       0.11353686       0.14974089      
   13949.000 67.20042594      0.11630255       178.33333333     7.28282828       -999.25000000    -11.52546147     2.71741589       2.45901126       0.11352956       0.14972926      
   13949.100 67.27210735      0.11671597       178.33333333     7.28282828       -999.25000000    -11.56911236     2.71713545       2.45894032       0.11352171       0.14971547      
   13949.200 67.35281831      0.11719843       178.33333333     7.28282828       -999.25000000    -11.67947420     2.71686645       2.45887031       0.11351462       0.14969861      
   13949.300 67.42316293      0.11760473       178.33333333     7.28282828       -999.25000000    -11.88245056     2.71655795       2.45879745       0.11350656       0.14969747      
   13949.400 67.50520369      0.11809182       178.33333333     7.28282828       -999.25000000    -12.06860752     2.71621217       2.45872287       0.11349967       0.14969856      
   13949.500 67.57436794      0.11865742       178.33333333     7.28282828       -999.25000000    -12.15122790     2.71593585       2.45865352       0.11349145       0.14969761      
   13949.600 67.65728342      0.11869685       178.33333333     7.28282828       -999.25000000    -12.20552612     2.71582634       2.45858757       0.11348115       0.14969842      
   13949.700 67.75809069      0.11866063       178.33333333     7.28282828       -999.25000000    -12.35093910     2.71584545       2.45851129       0.11348044       0.14969781      
   13949.800 67.76501142      0.11869212       178.33333333     7.28282828       -999.25000000    -12.54762893     2.71587600       2.45842394       0.11348112       0.14969827      
   13949.900 67.75858714      0.11866603       178.33333333     7.28282828       -999.25000000    -12.64488543     2.71586706       2.45835269       0.11348053       0.14969799      
   13950.000 67.76424526      0.11868615       178.33333333     7.28282828       -999.25000000    -12.60640635     2.71585231       2.45832377       0.11348089       0.14969816      
