~Version ---------------------------------------------------
VERS.   2.0 : CWLS log ASCII Standard -VERSION 2.0
WRAP.    NO : One line per depth step
DLM . SPACE : Column Data Section Delimiter
~Well ------------------------------------------------------
STRT.FT       8390.0 : START DEPTH
STOP.FT       9710.0 : STOP DEPTH
STEP.FT          0.5 : STEP
NULL.        -999.25 : NULL VALUE
COMP.  HRM Resources : COMPANY
WELL.  23-12 Hay Dam : WELL
FLD .        Hay Dam : FIELD
LOC . 23N R97W Sec12 : LOCATION
CNTY.     Sweetwater : COUNTY
STAT.             WY : STATE
CTRY.            USA : COUNTRY
SRVC.            SLB : SERVICE COMPANY
DATE.     11/14/2019 : DATE
API .     4903723253 : API NUMBER
UWI .       3723253A : UWI NUMBER
TVD .             NO : TVD flag
WSTA.            LOC : Well status
USGS.           E974 : USGS Number
LATI.DEG     41.97803: LATITUDE
LONG.DEG    -108.3282: LONGITUDE
UTM-N.     4650790.25: Northing
UTM-E.       721356.8: Easting
CORE.             -13: Core/Log Offset
~Curve Information -----------------------------------------
DEPT.FT               : Depth in Feet
GR  .API 35 310 01 01 : Gamma Ray
CALI.IN  70 280 01 01 : Caliper
PEF .BARN             : Photoelectric Effect
NPHI.V/V 42 890 03 01 : Neutron Porosity
DPHI.V/V 45 890 01 01 : Density Porosity
SP  .                 : 
ILD .                 : 
~Params ----------------------------------------------------
~Other -----------------------------------------------------
~ASCII -----------------------------------------------------
# ...
 8885.00000  132.73600    8.89800    3.16200    0.13200   -0.02200   -2.97300   31.66200
 8885.50000  130.95300    8.89700    3.18700    0.13300   -0.02500   -3.00300   31.61300
 8886.00000  130.61300    8.89600    3.21400    0.13700   -0.02500   -3.03300   31.72700
 8886.50000  131.88000    8.89500    3.31500    0.14100   -0.02300   -3.06300   31.84400
 8887.00000  133.22100    8.89400    3.42000    0.14300   -0.01800   -3.06800   31.96000
 8887.50000  133.78500    8.89300    3.47400    0.13600   -0.01300   -2.99400   32.07700
 8888.00000  133.33800    8.89200    3.48500    0.12800   -0.01100   -2.92300   32.19400
 8888.50000  132.82100    8.89100    3.49700    0.12200   -0.01500   -2.88600   32.31100
 8889.00000  130.34800    8.89000    3.61200    0.11600   -0.02200   -2.96400   32.42900
 8889.50000  124.85000    8.88900    3.80400    0.11100   -0.03400   -3.04200   32.54800
 8890.00000  118.38700    8.88800    3.95700    0.10800   -0.04800   -3.12100   32.66600
 8890.50000  114.13800    8.89300    3.87000    0.11100   -0.04700   -3.19900   32.80100
 8891.00000  117.96300    8.90400    3.73700    0.12000   -0.04300   -3.27900   32.52700
 8891.50000  125.33200    8.91400    3.60500    0.12900   -0.03700   -3.21600   32.20000
 8892.00000  134.13800    8.92500    3.47200    0.13600   -0.03100   -3.13400   31.46700
 8892.50000  141.67800    8.93600    3.35300    0.14400   -0.02600   -3.05300   30.71700
 8893.00000  147.73900    8.94600    3.32400    0.15000   -0.02200   -2.97200   29.98400
 8893.50000  150.98900    8.95700    3.29700    0.15200   -0.02200   -2.89100   29.26900
 8894.00000  150.55000    8.96800    3.34200    0.15300   -0.02500   -2.81000   28.55300
 8894.50000  149.46900    8.97800    3.40400    0.15400   -0.02600   -2.72800   28.08700
 8895.00000  147.55500    8.98800    3.46600    0.15600   -0.02300   -2.63600   27.61700
 8895.50000  145.65200    8.99000    3.52800    0.15500   -0.02000   -2.52800   27.15400
 8896.00000  143.75000    8.99300    3.55700    0.15300   -0.02000   -2.42000   26.70000
 8896.50000  142.23900    8.99500    3.45700    0.15600   -0.02000   -2.31200   26.25700
 8897.00000  142.40400    8.99700    3.33300    0.15900   -0.02200   -2.20300   25.82200
 8897.50000  142.55200    8.99900    3.20300    0.16100   -0.02500   -2.09500   25.39400
 8898.00000  142.95600    9.00100    3.20400    0.15900   -0.02700   -1.98600   24.97400
 8898.50000  144.42900    9.00300    3.27900    0.15800   -0.02800   -1.87900   24.62700
 8899.00000  146.83400    9.00600    3.35600    0.16000   -0.02800   -1.87400   24.87600
 8899.50000  149.03900    9.00800    3.41800    0.16100   -0.02700   -1.87500   25.08800
 8900.00000  146.52100    9.00800    3.47500    0.16300   -0.02500   -1.87500   25.72200
 8900.50000  143.31400    9.00800    3.41600    0.16100   -0.02300   -1.87500   26.35000
 8901.00000  140.09300    9.00800    3.33100    0.15400   -0.02200   -1.87500   27.50900
 8901.50000  137.36800    9.00800    3.31500    0.14800   -0.02200   -1.87400   28.92500
 8902.00000  137.35000    9.00800    3.38300    0.14300   -0.02300   -1.88100   30.41200
 8902.50000  134.78300    9.00800    3.45300    0.13900   -0.02400   -2.06100   31.97400
 8903.00000  131.63700    9.00800    3.39300    0.13500   -0.02300   -2.24700   33.61700
 8903.50000  129.41600    9.00800    3.28900    0.13000   -0.02200   -2.43200   35.34400
 8904.00000  129.71000    9.00800    3.23400    0.12500   -0.02200   -2.61700   37.16000
 8904.50000  128.61200    9.00700    3.34700    0.12000   -0.02700   -2.80200   38.09700
 8905.00000  122.26400    8.99900    3.45900    0.11500   -0.03100   -2.98700   38.21700
 8905.50000  116.75800    8.99100    3.54100    0.11200   -0.03200   -3.17300   38.33900
 8906.00000  117.12000    8.99200    3.40000    0.11800   -0.03200   -3.35800   38.38500
 8906.50000  120.04100    8.99900    3.39300    0.12300   -0.02700   -3.54300   37.63700
 8907.00000  121.85700    9.00600    3.39400    0.12300   -0.02100   -3.72800   36.92800
 8907.50000  123.28400    9.01300    3.39400    0.12300   -0.01500   -3.90200   36.23300
 8908.00000  126.67200    9.02000    3.40000    0.12400   -0.01400   -3.94700   35.55000
 8908.50000  129.47200    9.02800    3.40600    0.12600   -0.01700   -3.99600   34.88100
 8909.00000  130.49100    9.02900    3.41200    0.12500   -0.02300   -4.04700   34.22400
 8909.50000  130.24000    9.03200    3.41300    0.12500   -0.02800   -4.08400   33.57900
 8910.00000  132.96700    9.03400    3.46200    0.13100   -0.03100   -3.85700   32.94700
 8910.50000  135.91600    9.03700    3.44000    0.13700   -0.03000   -3.62500   32.46600
 8911.00000  138.84300    9.03900    3.39200    0.14100   -0.02500   -3.39500   32.34700
 8911.50000  141.08000    9.04100    3.34400    0.14200   -0.02000   -3.16400   32.22900
 8912.00000  140.03400    9.04400    3.31300    0.14100   -0.01700   -2.92800   32.11200
 8912.50000  137.83000    9.04600    3.32400    0.13700   -0.01400   -2.88300   31.99500
 8913.00000  135.66600    9.04900    3.33500    0.13500   -0.01100   -2.88200   31.90400
 8913.50000  134.19900    9.05000    3.34600    0.13500   -0.00900   -2.88300   32.04700
 8914.00000  135.42600    9.05100    3.35700    0.13600   -0.00900   -2.88300   32.19900
 8914.50000  138.88700    9.05300    3.36900    0.13700   -0.01100   -2.88300   32.16800
 8915.00000  142.33300    9.05400    3.38000    0.13900   -0.01200   -2.88300   32.11900
 8915.50000  145.83100    9.05500    3.39100    0.14000   -0.01300   -2.88300   32.07200
 8916.00000  145.37300    9.05700    3.37400    0.14100   -0.01500   -2.88300   32.02400
 8916.50000  142.21300    9.05800    3.31100    0.14100   -0.01900   -2.88300   31.97500
 8917.00000  139.37800    9.06000    3.25000    0.14100   -0.02200   -2.88700   31.92900
 8917.50000  136.77000    9.06100    3.19200    0.13900   -0.02500   -2.89700   31.90400
 8918.00000  133.92200    9.06200    3.20100    0.13700   -0.02700   -2.90600   32.25600
 8918.50000  129.72800    9.06400    3.24700    0.13600   -0.02300   -2.91600   32.79800
 8919.00000  128.66000    9.06500    3.22800    0.13200   -0.01800   -2.92500   33.34800
 8919.50000  131.18800    9.06700    3.19800    0.12600   -0.01300   -2.93500   33.90700
 8920.00000  133.77800    9.06800    3.17200    0.11500   -0.01000   -2.94400   34.65600
 8920.50000  132.71400    9.06800    3.22500    0.11400   -0.01100   -2.95400   34.48800
 8921.00000  129.63400    9.06800    3.30700    0.12100   -0.01100   -2.96300   34.28800
 8921.50000  126.71400    9.06800    3.41000    0.12900   -0.01000   -2.97300   34.07800
 8922.00000  129.63200    9.06800    3.49100    0.13600   -0.00800   -2.98200   33.86900
 8922.50000  136.45400    9.06800    3.45500    0.14300   -0.00500   -2.99200   33.66200
 8923.00000  142.55400    9.06800    3.42600    0.14300   -0.00300   -3.00100   33.45600
 8923.50000  145.44200    9.06800    3.39800    0.14400   -0.00500   -3.01100   32.66500
 8924.00000  146.28300    9.06800    3.36900    0.14200   -0.00800   -3.02000   31.74700
 8924.50000  147.05400    9.06800    3.34100    0.14100   -0.01100   -3.03000   30.85200
 8925.00000  147.79900    9.06800    3.31300    0.13800   -0.01400   -3.03900   29.94000
 8925.50000  146.04300    9.07500    3.27300    0.13500   -0.01500   -3.04900   30.22600
 8926.00000  143.96700    9.08700    3.20900    0.13500   -0.01600   -3.05800   30.58800
 8926.50000  143.17600    9.09900    3.14400    0.13500   -0.01800   -3.06800   30.95300
 8927.00000  143.33500    9.11200    3.09300    0.13900   -0.02000   -3.07800   31.31900
 8927.50000  143.15200    9.12400    3.11500    0.14200   -0.02300   -3.06300   30.44900
 8928.00000  140.85000    9.13700    3.15800    0.14000   -0.02600   -2.95300   29.61200
 8928.50000  136.08400    9.14900    3.29400    0.13700   -0.03200   -2.84500   28.79800
 8929.00000  132.96100    9.16100    3.31400    0.13300   -0.03700   -2.73900   28.00700
 8929.50000  132.96800    9.17400    3.33200    0.13200   -0.04000   -2.63000   27.23700
