~Version ---------------------------------------------------
VERS.   2.0 : CWLS log ASCII Standard -VERSION 2.0
WRAP.    NO : One line per depth step
DLM . SPACE : Column Data Section Delimiter
~Well ------------------------------------------------------
STRT.FT       8390.0 : START DEPTH
STOP.FT       9710.0 : STOP DEPTH
STEP.FT          0.5 : STEP
NULL.        -999.25 : NULL VALUE
COMP.  HRM Resources : COMPANY
WELL.  23-12 Hay Dam : WELL
FLD .        Hay Dam : FIELD
LOC . 23N R97W Sec12 : LOCATION
CNTY.     Sweetwater : COUNTY
STAT.             WY : STATE
CTRY.            USA : COUNTRY
SRVC.            SLB : SERVICE COMPANY
DATE.     11/14/2019 : DATE
API .     4903723253 : API NUMBER
UWI .       3723253A : UWI NUMBER
TVD .             NO : TVD flag
WSTA.            LOC : Well status
USGS.           E974 : USGS Number
LATI.DEG     41.97803: LATITUDE
LONG.DEG    -108.3282: LONGITUDE
UTM-N.     4650790.25: Northing
UTM-E.       721356.8: Easting
CORE.             -13: Core/Log Offset
~Curve Information -----------------------------------------
DEPT.FT               : Depth in Feet
GR  .API 35 310 01 01 : Gamma Ray
CALI.IN  70 280 01 01 : Caliper
PEF .BARN             : Photoelectric Effect
NPHI.V/V 42 890 03 01 : Neutron Porosity
DPHI.V/V 45 890 01 01 : Density Porosity
SP  .                 : 
ILD .                 : 
~Params ----------------------------------------------------
~Other -----------------------------------------------------
~ASCII -----------------------------------------------------
# ...
 9245.00000  114.01300    9.26200    3.37300    0.16400   -0.02600    7.91500   19.54300
 9245.50000  110.67100    9.26600    3.47100    0.15900   -0.02200    7.89100   19.18200
 9246.00000  111.32600    9.27000    3.54400    0.15100   -0.01800    7.86700   18.85100
 9246.50000  115.22800    9.27400    3.56700    0.14600   -0.01400    7.84400   18.65800
 9247.00000  119.30100    9.27700    3.57500    0.14800   -0.01300    7.81900   18.66000
 9247.50000  120.65900    9.28100    3.58600    0.15800   -0.01300    7.77300   18.66000
 9248.00000  120.88800    9.28500    3.60200    0.16600   -0.01300    7.65200   18.61800
 9248.50000  121.26700    9.28900    3.61800    0.17000   -0.01100    7.53600   18.30900
 9249.00000  121.79500    9.29200    3.54400    0.16900   -0.00900    7.41700   18.00600
 9249.50000  122.05200    9.29600    3.45900    0.16800   -0.00600    7.40900   17.70700
 9250.00000  123.74200    9.30000    3.41400    0.16800   -0.00400    7.42100   17.41300
 9250.50000  125.39500    9.30400    3.41400    0.16600   -0.00500    7.43300   17.21300
 9251.00000  125.37400    9.30800    3.41400    0.16400   -0.01000    7.44500   17.04700
 9251.50000  123.20900    9.31000    3.41400    0.16100   -0.01500    7.45700   16.88500
 9252.00000  119.53300    9.31200    3.41400    0.15900   -0.01800    7.46900   16.72400
 9252.50000  116.14800    9.31400    3.40900    0.16400   -0.01400    7.48100   16.54600
 9253.00000  116.78200    9.31500    3.40200    0.16800   -0.01000    7.49300   16.61700
 9253.50000  119.82700    9.31700    3.39500    0.17000   -0.00800    7.50500   16.69600
 9254.00000  122.72100    9.31800    3.32600    0.16900   -0.00800    7.51700   16.77800
 9254.50000  125.14500    9.32000    3.27200    0.16600   -0.01000    7.52900   16.85400
 9255.00000  126.69700    9.32200    3.40200    0.16600   -0.01400    7.54100   16.58400
 9255.50000  127.54600    9.32300    3.52800    0.16800   -0.01800    7.55300   16.32000
 9256.00000  128.13300    9.32500    3.59700    0.17100   -0.01400    7.56500   16.06100
 9256.50000  127.42800    9.32600    3.51100    0.17300   -0.00900    7.57700   15.79900
 9257.00000  126.72900    9.32800    3.39400    0.17500   -0.00500    7.58900   15.46400
 9257.50000  126.01400    9.33000    3.27800    0.17800   -0.00500    7.60200   15.12600
 9258.00000  126.57100    9.33400    3.26500    0.17800   -0.00700    7.63200   14.79500
 9258.50000  132.24900    9.33800    3.33300    0.17800   -0.01000    7.66200   14.47100
 9259.00000  138.43900    9.34300    3.39400    0.17600   -0.01200    7.69100   14.13900
 9259.50000  142.28300    9.34800    3.41700    0.17300   -0.01200    7.72100   13.59900
 9260.00000  142.28400    9.35300    3.42900    0.17100   -0.01100    7.75100   13.05100
 9260.50000  139.71700    9.35700    3.43000    0.17300   -0.00900    7.78100   12.52600
 9261.00000  137.09300    9.36200    3.40500    0.17800   -0.00500    7.84000   12.02300
 9261.50000  135.65100    9.36700    3.38100    0.18700   -0.00100    8.00100   11.35300
 9262.00000  134.84300    9.37100    3.35600    0.19400    0.00200    8.15500   10.70100
 9262.50000  134.51100    9.37600    3.32700    0.19700    0.00400    8.31000   10.08600
 9263.00000  139.49600    9.38000    3.26000    0.20200    0.00600    8.46600    9.76800
 9263.50000  148.08600    9.38400    3.19300    0.21000    0.00600    8.60700    9.78700
 9264.00000  156.81200    9.38800    3.26100    0.21800    0.00400    8.61000    9.80600
 9264.50000  162.11000    9.39300    3.35000    0.21800    0.00200    8.60900    9.82400
 9265.00000  159.74000    9.39700    3.43300    0.20900   -0.00300    8.60900    9.84300
 9265.50000  153.71500    9.40100    3.44700    0.20100   -0.00800    8.60900    9.89600
 9266.00000  148.51000    9.40500    3.46500    0.20000   -0.01100    8.60900   10.07800
 9266.50000  145.61100    9.40900    3.48300    0.20200   -0.01000    8.60900   10.26400
 9267.00000  146.21000    9.42300    3.49400    0.20200   -0.00900    8.60900   10.45300
 9267.50000  147.01800    9.43900    3.49600    0.19500   -0.00800    8.60900   10.61500
 9268.00000  146.85500    9.45500    3.55700    0.18700   -0.00700    8.60900   10.63200
 9268.50000  145.39300    9.47100    3.61800    0.18500   -0.00600    8.61000   10.66100
 9269.00000  144.52700    9.48700    3.68000    0.18800   -0.00600    8.60600   10.69000
 9269.50000  144.20600    9.50300    3.74400    0.19600   -0.00500    8.52600   10.72000
 9270.00000  143.43700    9.51900    3.75400    0.20100   -0.00400    8.44700   10.74900
 9270.50000  140.80700    9.53200    3.64500    0.19500   -0.00300    8.36900   10.77800
 9271.00000  138.17800    9.53400    3.53000    0.18800   -0.00100    8.29000   10.80800
 9271.50000  138.62900    9.53600    3.41500    0.18500    0.00100    8.21200   10.95600
 9272.00000  140.42900    9.53800    3.31000    0.18800    0.00200    8.13300   11.13200
 9272.50000  142.18400    9.54000    3.34200    0.19300    0.00000    8.05700   11.31300
 9273.00000  142.29700    9.54200    3.37500    0.20000   -0.00400    8.07100   11.43000
 9273.50000  141.24800    9.54400    3.41600    0.20200   -0.01000    8.16800   11.36900
 9274.00000  139.72500    9.54600    3.41400    0.19600   -0.01600    8.05800   11.32500
 9274.50000  137.20600    9.54900    3.41400    0.18600   -0.02000    7.95100   11.05000
 9275.00000  134.73300    9.55100    3.41300    0.18500   -0.02300    7.84400   10.78800
 9275.50000  132.50400    9.55900    3.43500    0.18900   -0.02300    7.73700   10.51800
 9276.00000  132.26400    9.56900    3.43300    0.19400   -0.01900    7.62900   10.02200
 9276.50000  135.28900    9.57900    3.50000    0.19400   -0.01300    7.52200    9.51900
 9277.00000  138.54100    9.58900    3.61300    0.19300   -0.00800    7.41100    9.04200
 9277.50000  141.81600    9.59900    3.69200    0.20600   -0.00500    7.50900    8.58800
 9278.00000  144.64300    9.60900    3.56000    0.21400   -0.00300    7.64000    8.15800
 9278.50000  143.58300    9.61900    3.42800    0.21500   -0.00100    7.77100    7.98800
 9279.00000  137.91700    9.63000    3.29700    0.21000    0.00100    7.90200    7.91200
 9279.50000  132.29300    9.63700    3.29500    0.20700    0.00300    8.04500    7.82300
 9280.00000  129.35200    9.64300    3.39500    0.20800    0.00300    8.24600    7.84400
 9280.50000  127.73600    9.65000    3.50000    0.20900    0.00300    8.44600    7.87700
 9281.00000  128.73200    9.65600    3.57400    0.20900    0.00300    8.64500    7.91000
 9281.50000  133.79100    9.66300    3.56100    0.21000   -0.00100    8.79900    7.94300
 9282.00000  138.66500    9.66900    3.48500    0.21200   -0.00300    8.68300    7.97000
 9282.50000  143.14800    9.67200    3.35800    0.21400   -0.00200    8.57300    7.76900
 9283.00000  143.95000    9.67100    3.37800    0.21700    0.00100    8.46300    7.60500
 9283.50000  140.47200    9.67000    3.39000    0.21900    0.00500    8.39400    7.44500
 9284.00000  136.29200    9.67000    3.28600    0.22400    0.00900    8.36600    7.28800
 9284.50000  133.40600    9.66900    3.18100    0.22800    0.01000    8.33900    7.13200
 9285.00000  135.88300    9.66800    3.07300    0.23100    0.00700    8.31100    7.06800
 9285.50000  139.90300    9.66800    3.14200    0.23500    0.00400    8.28400    7.00200
 9286.00000  143.94300    9.66700    3.24100    0.23900    0.00300    8.25600    6.93800
 9286.50000  146.18600    9.66600    3.25100    0.23400    0.00400    8.22900    6.87400
 9287.00000  147.83600    9.66600    3.27200    0.22800    0.00800    8.20500    6.81000
 9287.50000  146.95700    9.66500    3.27100    0.22200    0.01000    8.20600    6.74700
 9288.00000  144.74300    9.66500    3.37100    0.22300    0.00800    8.20600    6.76700
 9288.50000  142.02300    9.66400    3.52400    0.23100    0.00700    8.20500    6.79800
 9289.00000  139.27200    9.66300    3.67100    0.23900    0.01300    8.20500    6.83000
 9289.50000  138.27500    9.66300    3.67700    0.24300    0.01900    8.20700    6.86100
