~Version Information Block
 VERS.                2.00:     CWLS LOG ASCII STANDARD - VERSION 2.000000
 WRAP.                  NO:     One Line Per Depth Step
#
~Well Information Block
#MNEM.UNIT                     Data                         Information
#----------   ------------------------------------------   ----------------
 STRT.FT                                     9000.0000:     START DEPTH
 STOP.FT                                    10600.0000:     STOP DEPTH
 STEP.FT                                        0.1000:     STEP
 NULL.                                       -999.2500:     NULL VALUE
 COMP.                            PRESIDIO OIL COMPANY:     COMPANY
 WELL.                          HAY RESERVIOR UNIT #58:     WELL
 FLD .                              HAY RESERVIOR UNIT:     FIELD
 LOC .                               1500' FSL 10' FWL:     LOCATION
 CNTY.                                      SWEETWATER:     COUNTY
 STAT.                                         WYOMING:     STATE
 CTRY.                                             USA:     COUNTRY
 SRVC.                                    SCHLUMBERGER:     SERVICE COMPANY
 DATE.                                      22/02/1994:     DATE
 API .                                      4903723301:     API NUMBER
 UWI .                                         3723301:     UWI NUMBER
 TVD .                                              NO:     TVD flag
 WSTA.                                             LOC:     Well status
 USGS.                                            E945:     USGS Number
 LATI.DEG                                     42.05082:     LATITUDE
 LONG.DEG                                   -108.37861:     LONGITUDE
 UTM-N.                                     4658743.82:     Northing
 UTM-E.                                      716932.37:     Easting
 CORE.FT                                          -9.2:     Core/Log Offset
#
~Curve Information Block
#MNEM.UNIT       API CODE      Curve Description
#----------    -------------   -------------------
 DEPT.FT                   :   Depth in Feet
 ILD .OHMM     05 120 46 01:   Deep Induction Standard Processed Resistivity
 SP  .MV       01 010 01 01:   Spontaneous Potential
 DPHI.DEC      42 890 03 01:   DPHI
 NPHI.DEC      42 890 03 01:   Neutron Porosity
 CALI.IN       70 280 01 01:   Caliper
 GR  .GAPI     35 310 01 01:   Gamma Ray
 RHOB.G/C3     42 350 01 01:   Bulk Density
 PEF .B/E                  :   Photo-Electric Factor
 DT4P.US/F                 :   
#
~Parameter Information Block
#MNEM.UNIT            Value               Description
#----------    --------------------    -------------------
 DATE.                  22-02-1994:    Date As Month-Day-Year
 RUN .                         ONE:    Run Number
 PDAT.                         UNK:    Permanent Datum
 EPD .FT                 6799.0000:    Elevation Of Perm. Datum
 LMF .                          KB:    Log Measured From
 FAPD.FT                   14.0000:    Feet Above Perm. Datum
 DMF .                          KB:    Drilling Measured From
 EKB .FT                 6813.0000:    Elevation Of Kelly Bushing
 EDF .FT                 6812.0000:    Elevation Of Derrick Floor
 EGL .FT                 6799.0000:    Elevation Of Ground Level
 TD  .FT                10600.0000:    Total Depth
 DD  .FT                10625.0000:    Depth Driller
 DL  .FT                10623.0000:    Depth Logger
 BLI .FT                 1061.0000:    Bottom Log Interval
 CSIZ.IN                     9.625:    Casing Size
 CBD1.                        1702:    Casing Bottom (Driller) 1
 CBL1.                        1700:    Casing Bottom (Logger) 1
 BS  .IN                     7.875:    Bit Size
 DFV .S                    45.0000:    Drilling Fluid Viscosity
 DFD .LB/G                 10.5000:    Drilling Fluid Density
 DFL .ML                    7.2000:    Drilling Fluid Loss
 DFPH.                      9.5000:    Drilling Fluid Ph
 MSS .                    MUD TANK:    Mud Sample Source
 RMS .OHMM                  4.6200:    Resistivity Of Mud Sample
 MST .DEGF                 50.0000:    Mud Sample Temperature
 RMF .OHMM                  3.0700:    Mud Filtrate Resistivity
 MFST.DEGF                 50.0000:    Mud Filtrate Sample Temperature
 RMC .OHMM                  7.1400:    Mud Cake Resistivity
 MCST.DEGF                 50.0000:    Mud Cake Sample Temperature
 RMB .OHMM                  1.0990:    Mud Resistivity At Bht
 BHT .DEGF                212.0000:    Bottom Hole Temperature
 MRT .DEGF                212.0000:    Maximum Recorded Temperature
 LUN .                        8415:    Logging Unit Number
 LUL .                      CASPER:    Logging Unit Location
 ENGI.               CHRIS PRESMYK:    Engineer'S Name
 WITN.                STEVE HEFNER:    Witness' Name
 DGBY.                         R2V:    
 WSTA.                         LOC:    
#
~Other Information Block
<DescLogPlotStart>   NEURALOG PLOT DEFINITION
PLOTDEFVERSION: 3
LASFILE: C:\nds\projects\mf-nov-13\las\3723301A.las
DEPTHSCALE: 240.000000
RESOLUTION: 200
DEPTHLABELFREQ: 100.000000
HEAVYGRIDFREQ: 100.000000
MEDIUMGRIDFREQ: 50.000000
LIGHTGRIDFREQ: 10.000000
#
#   TRACK 1
#
STARTTRACK: 
 LEFTX: 0.500000 inch
 RIGHTX: 3.000000 inch
 SCALETYPE: Log
 NUMCYCLES: 4
 STARTCYCLE: 2
CURVE: ILD   0.200000   2000.000000 (0,0,255)      Solid             2     N   
ENDTRACK: 
#
#   TRACK 2
#
STARTTRACK: 
 LEFTX: 3.500000 inch
 RIGHTX: 6.000000 inch
 SCALETYPE: Linear
 NUMCHARTDIVISIONS: 10
CURVE: SP    -80.000000 20.000000  (0,131,131)    Solid             2     Y    
BACKUP: -180.000000 -80.000000 (0,131,131)    Solid             2    
ENDTRACK: 
#
#   TRACK 3
#
STARTTRACK: 
 LEFTX: 6.000000 inch
 RIGHTX: 11.000000 inch
 SCALETYPE: Linear
 NUMCHARTDIVISIONS: 10
CURVE: DPHI  0.300000   -0.100000  (255,0,255)    Solid             2     N    
CURVE: NPHI  0.300000   -0.100000  (255,0,0)      Dot               2     Y    
BACKUP: 0.700000   0.300000   (255,0,0)      Dot               2    
ENDTRACK: 
#
#   TRACK 4
#
STARTTRACK: 
 LEFTX: 11.000000 inch
 RIGHTX: 13.500000 inch
 SCALETYPE: Linear
 NUMCHARTDIVISIONS: 10
CURVE: CALI  6.000000   16.000000  (255,131,0)    Solid             2     N    
CURVE: GR    0.000000   150.000000 (255,255,0)    Dot               2     Y    
BACKUP: 150.000000 300.000000 (255,255,0)    Dot               2    
ENDTRACK: 
#
#   TRACK 5
#
STARTTRACK: 
 LEFTX: 13.500000 inch
 RIGHTX: 18.500000 inch
 SCALETYPE: Linear
 NUMCHARTDIVISIONS: 10
CURVE: RHOB  2.000000   3.000000   (0,0,255)      Solid             2     Y    
BACKUP: 1.000000   2.000000   (0,0,255)      Solid             2    
CURVE: PEF   0.000000   10.000000  (0,131,131)    Dot               2     N    
ENDTRACK: 
#
#   TRACK 6
#
STARTTRACK: 
 LEFTX: 13.500000 inch
 RIGHTX: 18.500000 inch
 SCALETYPE: Linear
 NUMCHARTDIVISIONS: 10
CURVE: DT4P  240.000000 40.000000  (255,0,255)    Solid             2     N    
ENDTRACK: 
<DescLogPlotEnd>
~A DEPTH     ILD              SP               DPHI             NPHI             CALI             GR               RHOB             PEF              DT4P            
# ...
    9426.300 14.78777922      -55.89757259     -0.01189165      0.16988151       8.63016860       115.40107454     2.67444751       3.70843629       -999.25000000   
    9426.400 14.66048705      -55.87054582     -0.01156733      0.17133062       8.62975991       115.55511166     2.67376614       3.68331408       -999.25000000   
    9426.500 14.54726489      -55.84328468     -0.01150986      0.17151195       8.62962586       115.76401604     2.67323200       3.66443366       -999.25000000   
    9426.600 14.46413465      -55.81740044     -0.01126541      0.17200317       8.62954674       115.97673976     2.67266489       3.65781886       -999.25000000   
    9426.700 14.35894363      -55.79197538     -0.01100992      0.17256563       8.62932302       116.18312718     2.67195406       3.65822125       -999.25000000   
    9426.800 14.27029487      -55.76381753     -0.01075541      0.17289915       8.62907271       116.40519843     2.67135185       3.65701751       -999.25000000   
    9426.900 14.12554567      -55.73408062     -0.01071710      0.17340662       8.62889156       116.66482598     2.67115882       3.65241627       -999.25000000   
    9427.000 14.12723899      -55.71107270     -0.01086413      0.17379286       8.62872219       116.98882882     2.67130935       3.64989909       -999.25000000   
    9427.100 14.22474119      -55.70217239     -0.01093066      0.17425096       8.62852257       117.39223300     2.67151256       3.65390363       -999.25000000   
    9427.200 14.29272607      -55.70470107     -0.01101463      0.17467613       8.62831641       117.83004288     2.67163205       3.66328774       -999.25000000   
    9427.300 14.35533629      -55.70817734     -0.01114353      0.17511419       8.62812767       118.23584027     2.67170645       3.67527088       -999.25000000   
    9427.400 14.42877807      -55.70421401     -0.01112931      0.17553783       8.62793940       118.59101551     2.67177940       3.68795024       -999.25000000   
    9427.500 14.48575879      -55.69171407     -0.01082690      0.17600270       8.62775098       118.95378594     2.67191537       3.69792830       -999.25000000   
    9427.600 14.56679113      -55.67424319     -0.01058841      0.17637286       8.62756256       119.35917901     2.67213532       3.70396752       -999.25000000   
    9427.700 14.62901571      -55.65552796     -0.01036747      0.17713163       8.62737413       119.76193872     2.67225997       3.71344397       -999.25000000   
    9427.800 14.69694872      -55.63728845     -0.01014863      0.17697714       8.62718571       120.10562661     2.67202889       3.73221657       -999.25000000   
    9427.900 14.79944017      -55.61939957     -0.00992979      0.17672808       8.62699729       120.44965380     2.67149540       3.74559111       -999.25000000   
    9428.000 14.79944017      -55.60128662     -0.00971095      0.17618968       8.62680886       120.92090024     2.67087575       3.72722686       -999.25000000   
    9428.100 15.06927540      -55.58300821     -0.00949211      0.17601583       8.62662044       121.41125319     2.67019753       3.67206799       -999.25000000   
    9428.200 15.25189330      -55.56482836     -0.00927327      0.17573027       8.62643202       121.53119193     2.66949651       3.60429975       -999.25000000   
    9428.300 15.43672426      -55.54671782     -0.00905444      0.17170193       8.62624359       121.20614755     2.66905327       3.54597885       -999.25000000   
    9428.400 15.62379511      -55.52860139     -0.00872618      0.16853221       8.62605517       120.98981695     2.66874182       3.49555746       -999.25000000   
    9428.500 15.81313298      -55.51050258     -0.00872618      0.16594352       8.62586675       121.22878003     2.66771357       3.44290428       -999.25000000   
    9428.600 16.00476536      -55.49222677     -0.00692076      0.16275917       8.62567832       121.18329151     2.66567207       3.38670542       -999.25000000   
    9428.700 16.19872005      -55.47383028     -0.00571715      0.16022162       8.62548990       119.78527965     2.66362078       3.33011259       -999.25000000   
    9428.800 16.39502519      -55.45584390     -0.00391174      0.15693051       8.62530148       117.12812973     2.66214870       3.27462132       -999.25000000   
    9428.900 16.69395239      -55.43813632     -0.00391174      0.15456712       8.62511305       114.39669304     2.66011198       3.22202729       -999.25000000   
    9429.000 16.69395239      -55.41959597     0.00130391       0.15103428       8.62492463       112.39551192     2.65660026       3.17060465       -999.25000000   
    9429.100 17.08517899      -55.40052391     0.00478101       0.14896238       8.62473621       110.79851987     2.65272174       3.11206850       -999.25000000   
    9429.200 17.35107716      -55.38302122     0.00825811       0.14511173       8.62454778       108.87057035     2.64956779       3.04604560       -999.25000000   
    9429.300 17.60305679      -55.36656539     0.01173521       0.14132397       8.62435936       106.42049471     2.64588064       2.99131083       -999.25000000   
    9429.400 17.90870507      -55.34701109     0.01521230       0.14132397       8.62417094       103.97206890     2.64001002       2.96647438       -999.25000000   
    9429.500 18.16252329      -55.32434251     0.01868940       0.13350050       8.62398251       102.11251090     2.63277879       2.96477732       -999.25000000   
    9429.600 18.46418260      -55.30753987     0.02216650       0.12828485       8.62379409       100.64687620     2.62612135       2.96341412       -999.25000000   
    9429.700 18.73857787      -55.30555949     0.02564360       0.12046138       8.62360567       98.70103479      2.62020349       2.95316981       -999.25000000   
    9429.800 19.03837495      -55.31600901     0.02912070       0.12046138       8.62341724       95.93306877      2.61410854       2.94429374       -999.25000000   
    9429.900 19.33057047      -55.32875156     0.03259779       0.11917180       8.62322882       93.04811974      2.60792953       2.94539827       -999.25000000   
    9430.000 19.63281585      -55.33839563     0.03781344       0.11831208       8.62304040       90.58972790      2.60199262       2.95221899       -999.25000000   
    9430.100 19.93985068      -55.34716393     0.03781344       0.11745236       8.62285197       88.06604387      2.59553453       2.95821208       -999.25000000   
    9430.200 20.24585656      -55.35752727     0.03996275       0.11659264       8.62266355       85.09173540      2.58830424       2.96494064       -999.25000000   
    9430.300 20.56971329      -55.36839397     0.04139562       0.11573291       8.62247513       82.51559925      2.58203722       2.97754854       -999.25000000   
    9430.400 20.87537773      -55.37834912     0.04282849       0.11444333       8.62228670       81.36160586      2.57823796       2.99638910       -999.25000000   
    9430.500 21.22259168      -55.38796904     0.04426136       0.11444333       8.62209828       81.34337794      2.57588397       3.01769110       -999.25000000   
    9430.600 21.52293477      -55.39816014     0.04569423       0.11474423       8.62190986       81.35881538      2.57314959       3.03895466       -999.25000000   
    9430.700 21.89731369      -55.40867610     0.04784353       0.11494483       8.62172144       80.99427969      2.57013524       3.05976724       -999.25000000   
    9430.800 22.21452190      -55.41872044     0.04784353       0.11514544       8.62153301       80.63385081      2.56808538       3.07966052       -999.25000000   
    9430.900 22.56024849      -55.42829879     0.04964895       0.11534604       8.62134459       80.48629869      2.56709540       3.09922288       -999.25000000   
    9431.000 23.08895308      -55.43846699     0.05085256       0.11564694       8.62115617       80.31354961      2.56615009       3.12121459       -999.25000000   
    9431.100 23.08895308      -55.44943290     0.05205617       0.11564694       8.62096774       79.98457927      2.56475118       3.14498674       -999.25000000   
