~Version Information Block
 VERS.                2.00:     CWLS LOG ASCII STANDARD - VERSION 2.000000
 WRAP.                  NO:     One Line Per Depth Step
#
~Well Information Block
#MNEM.UNIT                     Data                         Information
#----------   ------------------------------------------   ----------------
 STRT.FT                                     9000.0000:     START DEPTH
 STOP.FT                                    10600.0000:     STOP DEPTH
 STEP.FT                                        0.1000:     STEP
 NULL.                                       -999.2500:     NULL VALUE
 COMP.                            PRESIDIO OIL COMPANY:     COMPANY
 WELL.                          HAY RESERVIOR UNIT #58:     WELL
 FLD .                              HAY RESERVIOR UNIT:     FIELD
 LOC .                               1500' FSL 10' FWL:     LOCATION
 CNTY.                                      SWEETWATER:     COUNTY
 STAT.                                         WYOMING:     STATE
 CTRY.                                             USA:     COUNTRY
 SRVC.                                    SCHLUMBERGER:     SERVICE COMPANY
 DATE.                                      22/02/1994:     DATE
 API .                                      4903723301:     API NUMBER
 UWI .                                         3723301:     UWI NUMBER
 TVD .                                              NO:     TVD flag
 WSTA.                                             LOC:     Well status
 USGS.                                            E945:     USGS Number
 LATI.DEG                                     42.05082:     LATITUDE
 LONG.DEG                                   -108.37861:     LONGITUDE
 UTM-N.                                     4658743.82:     Northing
 UTM-E.                                      716932.37:     Easting
 CORE.FT                                          -9.2:     Core/Log Offset
#
~Curve Information Block
#MNEM.UNIT       API CODE      Curve Description
#----------    -------------   -------------------
 DEPT.FT                   :   Depth in Feet
 ILD .OHMM     05 120 46 01:   Deep Induction Standard Processed Resistivity
 SP  .MV       01 010 01 01:   Spontaneous Potential
 DPHI.DEC      42 890 03 01:   DPHI
 NPHI.DEC      42 890 03 01:   Neutron Porosity
 CALI.IN       70 280 01 01:   Caliper
 GR  .GAPI     35 310 01 01:   Gamma Ray
 RHOB.G/C3     42 350 01 01:   Bulk Density
 PEF .B/E                  :   Photo-Electric Factor
 DT4P.US/F                 :   
#
~Parameter Information Block
#MNEM.UNIT            Value               Description
#----------    --------------------    -------------------
 DATE.                  22-02-1994:    Date As Month-Day-Year
 RUN .                         ONE:    Run Number
 PDAT.                         UNK:    Permanent Datum
 EPD .FT                 6799.0000:    Elevation Of Perm. Datum
 LMF .                          KB:    Log Measured From
 FAPD.FT                   14.0000:    Feet Above Perm. Datum
 DMF .                          KB:    Drilling Measured From
 EKB .FT                 6813.0000:    Elevation Of Kelly Bushing
 EDF .FT                 6812.0000:    Elevation Of Derrick Floor
 EGL .FT                 6799.0000:    Elevation Of Ground Level
 TD  .FT                10600.0000:    Total Depth
 DD  .FT                10625.0000:    Depth Driller
 DL  .FT                10623.0000:    Depth Logger
 BLI .FT                 1061.0000:    Bottom Log Interval
 CSIZ.IN                     9.625:    Casing Size
 CBD1.                        1702:    Casing Bottom (Driller) 1
 CBL1.                        1700:    Casing Bottom (Logger) 1
 BS  .IN                     7.875:    Bit Size
 DFV .S                    45.0000:    Drilling Fluid Viscosity
 DFD .LB/G                 10.5000:    Drilling Fluid Density
 DFL .ML                    7.2000:    Drilling Fluid Loss
 DFPH.                      9.5000:    Drilling Fluid Ph
 MSS .                    MUD TANK:    Mud Sample Source
 RMS .OHMM                  4.6200:    Resistivity Of Mud Sample
 MST .DEGF                 50.0000:    Mud Sample Temperature
 RMF .OHMM                  3.0700:    Mud Filtrate Resistivity
 MFST.DEGF                 50.0000:    Mud Filtrate Sample Temperature
 RMC .OHMM                  7.1400:    Mud Cake Resistivity
 MCST.DEGF                 50.0000:    Mud Cake Sample Temperature
 RMB .OHMM                  1.0990:    Mud Resistivity At Bht
 BHT .DEGF                212.0000:    Bottom Hole Temperature
 MRT .DEGF                212.0000:    Maximum Recorded Temperature
 LUN .                        8415:    Logging Unit Number
 LUL .                      CASPER:    Logging Unit Location
 ENGI.               CHRIS PRESMYK:    Engineer'S Name
 WITN.                STEVE HEFNER:    Witness' Name
 DGBY.                         R2V:    
 WSTA.                         LOC:    
#
~Other Information Block
<DescLogPlotStart>   NEURALOG PLOT DEFINITION
PLOTDEFVERSION: 3
LASFILE: C:\nds\projects\mf-nov-13\las\3723301A.las
DEPTHSCALE: 240.000000
RESOLUTION: 200
DEPTHLABELFREQ: 100.000000
HEAVYGRIDFREQ: 100.000000
MEDIUMGRIDFREQ: 50.000000
LIGHTGRIDFREQ: 10.000000
#
#   TRACK 1
#
STARTTRACK: 
 LEFTX: 0.500000 inch
 RIGHTX: 3.000000 inch
 SCALETYPE: Log
 NUMCYCLES: 4
 STARTCYCLE: 2
CURVE: ILD   0.200000   2000.000000 (0,0,255)      Solid             2     N   
ENDTRACK: 
#
#   TRACK 2
#
STARTTRACK: 
 LEFTX: 3.500000 inch
 RIGHTX: 6.000000 inch
 SCALETYPE: Linear
 NUMCHARTDIVISIONS: 10
CURVE: SP    -80.000000 20.000000  (0,131,131)    Solid             2     Y    
BACKUP: -180.000000 -80.000000 (0,131,131)    Solid             2    
ENDTRACK: 
#
#   TRACK 3
#
STARTTRACK: 
 LEFTX: 6.000000 inch
 RIGHTX: 11.000000 inch
 SCALETYPE: Linear
 NUMCHARTDIVISIONS: 10
CURVE: DPHI  0.300000   -0.100000  (255,0,255)    Solid             2     N    
CURVE: NPHI  0.300000   -0.100000  (255,0,0)      Dot               2     Y    
BACKUP: 0.700000   0.300000   (255,0,0)      Dot               2    
ENDTRACK: 
#
#   TRACK 4
#
STARTTRACK: 
 LEFTX: 11.000000 inch
 RIGHTX: 13.500000 inch
 SCALETYPE: Linear
 NUMCHARTDIVISIONS: 10
CURVE: CALI  6.000000   16.000000  (255,131,0)    Solid             2     N    
CURVE: GR    0.000000   150.000000 (255,255,0)    Dot               2     Y    
BACKUP: 150.000000 300.000000 (255,255,0)    Dot               2    
ENDTRACK: 
#
#   TRACK 5
#
STARTTRACK: 
 LEFTX: 13.500000 inch
 RIGHTX: 18.500000 inch
 SCALETYPE: Linear
 NUMCHARTDIVISIONS: 10
CURVE: RHOB  2.000000   3.000000   (0,0,255)      Solid             2     Y    
BACKUP: 1.000000   2.000000   (0,0,255)      Solid             2    
CURVE: PEF   0.000000   10.000000  (0,131,131)    Dot               2     N    
ENDTRACK: 
#
#   TRACK 6
#
STARTTRACK: 
 LEFTX: 13.500000 inch
 RIGHTX: 18.500000 inch
 SCALETYPE: Linear
 NUMCHARTDIVISIONS: 10
CURVE: DT4P  240.000000 40.000000  (255,0,255)    Solid             2     N    
ENDTRACK: 
<DescLogPlotEnd>
~A DEPTH     ILD              SP               DPHI             NPHI             CALI             GR               RHOB             PEF              DT4P            
# ...
    9637.000 28.66606121      -41.79435484     0.04503511       0.11944294       8.83266129       70.90053616      2.57461932       2.92066680       -999.25000000   
    9637.100 28.58648649      -41.79435484     0.04297177       0.11870226       8.83266129       71.09638043      2.57794112       2.92664829       -999.25000000   
    9637.200 28.50713267      -41.79431528     0.04159622       0.11796158       8.83266129       71.17815141      2.58124555       2.93562190       -999.25000000   
    9637.300 28.42799913      -41.79428891     0.04022066       0.11685055       8.83266129       71.25045125      2.58499686       2.94790799       -999.25000000   
    9637.400 28.30971050      -41.79433087     0.03884511       0.11685055       8.83266129       71.38656753      2.58890496       2.96250710       -999.25000000   
    9637.500 28.30971050      -41.79435005     0.03746955       0.11659264       8.83266129       71.50794317      2.59182932       2.97861820       -999.25000000   
    9637.600 28.24856956      -41.79421268     0.03540622       0.11642069       8.83266129       71.50203096      2.59309019       2.99489906       -999.25000000   
    9637.700 28.20788231      -41.79412748     0.03540622       0.11624875       8.83266129       71.39136797      2.59308412       3.00977300       -999.25000000   
    9637.800 28.16725367      -41.79437016     0.03580742       0.11607680       8.83266129       71.26929117      2.59228778       3.02414221       -999.25000000   
    9637.900 28.12668354      -41.79450355     0.03580742       0.11590486       8.83266129       71.13828144      2.59059893       3.04092531       -999.25000000   
    9638.000 28.08617185      -41.79401383     0.03799581       0.11564694       8.83266129       70.93731347      2.58803345       3.05937671       -999.25000000   
    9638.100 28.04571850      -41.79373182     0.03945473       0.11564694       8.83266129       70.67089079      2.58509640       3.07341188       -999.25000000   
    9638.200 28.00532343      -41.79459199     0.04091365       0.11639920       8.83266129       70.40379034      2.58209710       3.07942315       -999.25000000   
    9638.300 27.96498653      -41.79505825     0.04237257       0.11690070       8.83266129       70.17454815      2.57898926       3.08176270       -999.25000000   
    9638.400 27.92470773      -41.79330899     0.04383149       0.11740221       8.83266129       69.99443736      2.57610168       3.08487214       -999.25000000   
    9638.500 27.88448695      -41.79222945     0.04529042       0.11790371       8.83266129       69.88437863      2.57402405       3.08443192       -999.25000000   
    9638.600 27.84432410      -41.79845875     0.04674934       0.11840522       8.83266129       69.85927011      2.57257847       3.07281780       -999.25000000   
    9638.700 27.80421910      -41.81401972     0.04820826       0.11890672       8.83266129       69.92655238      2.57088206       3.05051791       -999.25000000   
    9638.800 27.76417186      -41.83313576     0.04966718       0.11965898       8.83266129       70.11529553      2.56868421       3.02529772       -999.25000000   
    9638.900 27.72418230      -41.84949906     0.05185557       0.11965898       8.83266129       70.43795878      2.56683246       3.00219291       -999.25000000   
    9639.000 27.68425034      -41.86341762     0.05185557       0.12146439       8.83266129       70.82512347      2.56614542       2.98032617       -999.25000000   
    9639.100 27.64437590      -41.87874842     0.05100301       0.12266800       8.83266129       71.17571763      2.56649536       2.95756530       -999.25000000   
    9639.200 27.60455889      -41.89555509     0.05043464       0.12387161       8.83266129       71.47777819      2.56726752       2.93368599       -999.25000000   
    9639.300 27.56479923      -41.91071169     0.04986627       0.12507523       8.83266129       71.79846597      2.56823395       2.90991391       -999.25000000   
    9639.400 27.52509683      -41.92465303     0.04929789       0.12627884       8.83266129       72.15279036      2.56951477       2.88757818       -999.25000000   
    9639.500 27.48545162      -41.94107506     0.04872952       0.12748245       8.83266129       72.47948022      2.57098225       2.86598296       -999.25000000   
    9639.600 27.44586351      -41.95907181     0.04816115       0.12928786       8.83266129       72.77009914      2.57217564       2.84188412       -999.25000000   
    9639.700 27.40633243      -41.97343491     0.04759278       0.12928786       8.83266129       73.11268765      2.57276788       2.81450017       -999.25000000   
    9639.800 27.36685828      -41.98617321     0.04702441       0.12988967       8.83266129       73.53035083      2.57286315       2.78963583       -999.25000000   
    9639.900 27.32744098      -42.00920422     0.04645603       0.13029087       8.83266129       73.86810649      2.57282791       2.77359764       -999.25000000   
    9640.000 27.28808046      -42.04933192     0.04588766       0.13069208       8.83266129       73.95256312      2.57300446       2.76351204       -999.25000000   
    9640.100 27.24877663      -42.09784463     0.04503511       0.13115454       8.83266129       73.81209348      2.57343466       2.75027303       -999.25000000   
    9640.200 27.20952941      -42.14209173     0.04503511       0.13167252       8.83266129       73.63053834      2.57367411       2.73181535       -999.25000000   
    9640.300 27.17033872      -42.18076097     0.04674022       0.13173324       8.83266423       73.51507260      2.57309503       2.71674035       -999.25000000   
    9640.400 27.13120448      -42.22027860     0.04787696       0.13134508       8.83266619       73.42402139      2.57154692       2.71206975       -999.25000000   
    9640.500 27.09212661      -42.26261323     0.04901371       0.13113641       8.83266307       73.30338420      2.56959015       2.71377067       -999.25000000   
    9640.600 27.05310502      -42.30456273     0.05015045       0.13089205       8.83266165       73.16964393      2.56788846       2.71396746       -999.25000000   
    9640.700 27.01413963      -42.34497145     0.05185557       0.13066226       8.83267185       73.05207242      2.56651565       2.71262527       -999.25000000   
    9640.800 26.97523037      -42.38560233     0.05185557       0.13043186       8.83267818       72.94151945      2.56505804       2.71611078       -999.25000000   
    9640.900 26.93637715      -42.42704926     0.05305918       0.13019464       8.83266015       72.82228166      2.56328394       2.72659416       -999.25000000   
    9641.000 26.89757989      -42.46836333     0.05386158       0.12996719       8.83265024       72.69951688      2.56146725       2.73928855       -999.25000000   
    9641.100 26.85883851      -42.50928559     0.05506520       0.12972953       8.83268662       72.58154874      2.56000671       2.74982029       -999.25000000   
    9641.200 26.82015293      -42.55027771     0.05506520       0.12950048       8.83270757       72.46507942      2.55894393       2.75896536       -999.25000000   
    9641.300 26.78152307      -42.59143760     0.05578736       0.12926695       8.83264367       72.34523320      2.55800714       2.76893789       -999.25000000   
    9641.400 26.74294885      -42.63257673     0.05626881       0.12903522       8.83260806       72.22521478      2.55699508       2.77944995       -999.25000000   
    9641.500 26.70443019      -42.67361111     0.05675025       0.12880250       8.83273996       72.10925245      2.55590486       2.78950768       -999.25000000   
    9641.600 26.66596701      -42.71468041     0.05745708       0.12857024       8.83281603       71.99192918      2.55479576       2.79952540       -999.25000000   
    9641.700 26.62755923      -42.75574970     0.05750702       0.12833764       8.83234666       71.86845138      2.55373111       2.80987681       -999.25000000   
    9641.800 26.58920677      -42.79681900     0.05848651       0.12810562       8.83119366       71.74817072      2.55278946       2.81974584       -999.25000000   
