~Version ---------------------------------------------------
VERS.   2.0 : CWLS log ASCII Standard -VERSION 2.0
WRAP.    NO : One line per depth step
DLM . SPACE : Column Data Section Delimiter
~Well ------------------------------------------------------
STRT.FT   8950.0     : START DEPTH
STOP.FT  10550.0     : STOP DEPTH
STEP.FT      0.5     : STEP
NULL.    -999.25     : NULL VALUE
COMP.        HRM     : COMPANY
WELL.57 Hay Reservoir: WELL
FLD .  Hay Reservoir : FIELD
LOC .     24N 97W    : LOCATION
CNTY.     Sweetwater : COUNTY
STAT.         WY     : STATE
CTRY.          USA   : COUNTRY
SRVC.           SLB? : SERVICE COMPANY
DATE. 11/14/2019     : DATE
API . 4903723193     : API NUMBER
UWI .   3723193A     : UWI NUMBER
TVD .         NO     : TVD flag
WSTA.        LOC     : Well status
USGS.            E952: USGS Number
LATI.DEG     42.04063: LATITUDE
LONG.DEG   -108.36672: LONGITUDE
UTM-N.     4657642.54: Northing
UTM-E.      717951.25: Easting
CORE.              -4: Core/Log Offset
~Curve Information -----------------------------------------
DEPT.FT                : Depth in Feet
DPHI.V/V  45 890 01 01 : Density Porosity
NPHI.V/V  42 890 03 01 : Neutron Porosity
GR  .API  35 310 01 01 : Gamma Ray
CALI.IN   70 280 01 01 : Caliper
RHOB.G/CC 42 350 01 01 : Bulk Density
PEF .BARN              : Photoelectric Effect
ILD .                  : Deep Induction
SP  .                  : Spontaneous Potential
~Params ----------------------------------------------------
~Other -----------------------------------------------------
~ASCII -----------------------------------------------------
 8950.00000    0.00500    0.21300  125.90900    9.70700    2.64600    3.28800   16.38700  -44.48700
 8950.50000    0.00800    0.19500  124.38600    9.70700    2.63500    3.35900   16.50500  -44.88900
 8951.00000    0.01100    0.17000  121.36400    9.70400    2.63000    3.43900   16.86400  -45.24800
 8951.50000    0.01400    0.15000  110.36100    9.69900    2.63000    3.50300   17.16700  -45.55200
 8952.00000    0.02100    0.12600   96.01100    9.69400    2.61300    3.50000   17.53000  -45.93000
 8952.50000    0.03400    0.10500   81.58300    9.68800    2.59500    3.36500   17.91100  -46.31000
 8953.00000    0.04000    0.10100   65.85900    9.68200    2.58600    3.23300   18.48500  -46.64900
 8953.50000    0.03500    0.10000   68.01900    9.67700    2.58800    3.10000   18.22700  -46.87700
 8954.00000    0.02700    0.11900   73.98100    9.67100    2.60200    3.06000   17.75200  -46.64300
 8954.50000    0.01700    0.13700   82.38900    9.66500    2.61700    3.11900   17.29000  -46.41500
 8955.00000    0.00600    0.15600   90.84800    9.65900    2.63100    3.31600   16.83900  -46.18900
 8955.50000   -0.00100    0.16800   96.37800    9.65400    2.64500    3.54600   16.69400  -45.95100
 8956.00000   -0.00700    0.18000  100.17700    9.64800    2.66000    3.77800   16.69400  -45.94200
 8956.50000   -0.00800    0.19400  103.94900    9.64200    2.66100    3.89100   17.09500  -46.00500
 8957.00000    0.00600    0.20900  107.76600    9.63700    2.64200    3.78600   17.65100  -46.07300
 8957.50000    0.04100    0.19400  111.53500    9.63100    2.61400    3.62700   18.22400  -46.01700
 8958.00000    0.08600    0.18000  111.22100    9.62900    2.56200    3.46800   19.11500  -45.89300
 8958.50000    0.10100    0.16600   99.23000    9.64500    2.48000    3.31000   20.93500  -45.76600
 8959.00000    0.09300    0.16000   88.86300    9.66100    2.49900    3.15100   22.92800  -45.63900
 8959.50000    0.06900    0.15500   78.54700    9.67100    2.53000    2.99300   25.11100  -45.51200
 8960.00000    0.04300    0.15000   69.99000    9.67700    2.56000    2.86300   26.67600  -45.38700
 8960.50000    0.03900    0.13500   63.60300    9.68300    2.58100    2.88900   27.53400  -45.35200
 8961.00000    0.03300    0.11800   57.12100    9.68900    2.58900    3.07000   27.28000  -45.65500
 8961.50000    0.02400    0.10200   50.67800    9.69500    2.59800    3.24700   25.72400  -45.94700
 8962.00000    0.01500    0.08600   45.33600    9.70100    2.61300    3.42400   24.61700  -46.23900
 8962.50000    0.00300    0.08500   44.94400    9.70700    2.62700    3.59500   23.18200  -46.53200
 8963.00000    0.00500    0.11900   53.26400    9.71300    2.64200    3.56900   21.27900  -46.86700
 8963.50000    0.01600    0.15200   64.64400    9.72000    2.64300    3.51500   19.53300  -47.26500
 8964.00000    0.02800    0.18800   76.06000    9.72600    2.62400    3.46200   17.93100  -47.66200
 8964.50000    0.03400    0.18400   85.48500    9.72700    2.60400    3.47500   16.45900  -48.05600
 8965.00000    0.03100    0.17600   90.67100    9.72700    2.59400    3.54000   15.10900  -48.31400
 8965.50000    0.02600    0.17300   91.10700    9.74900    2.59600    3.59700   13.87300  -48.30300
 8966.00000    0.02100    0.18400   90.12800    9.78300    2.60500    3.62000   12.98200  -48.10000
 8966.50000    0.01800    0.19100   88.67300    9.81700    2.61300    3.64700   12.77100  -47.89000
 8967.00000    0.01500    0.19500   87.10600    9.85300    2.61700    3.71200   12.93000  -47.68100
 8967.50000    0.01300    0.20000   87.34100    9.88800    2.62200    3.79700   13.04700  -47.47300
 8968.00000    0.01900    0.20300   91.57400    9.88900    2.62600    3.88300   13.30500  -47.26500
 8968.50000    0.03000    0.20900   95.99000    9.88900    2.62700    3.92900   13.80000  -47.03400
 8969.00000    0.07000    0.23200  100.14400    9.89500    2.62000    3.93000   14.31400  -46.70300
 8969.50000    0.12100    0.29800   99.27200    9.90900    2.59900    3.94700   14.84700  -46.37600
 8970.00000    0.16700    0.32400   88.73700    9.92300    2.52000    3.96900   15.64000  -46.11400
 8970.50000    0.18600    0.32400   78.47100    9.94100    2.43300    3.87100   17.88600  -46.32300
 8971.00000    0.13300    0.24000   68.34500    9.96500    2.34700    3.59900   20.46100  -46.52400
 8971.50000    0.09500    0.18100   60.55900    9.98800    2.34600    3.32900   23.40600  -46.72400
 8972.00000    0.06500    0.13800   57.12100   10.01200    2.42500    3.10000   26.77300  -46.92400
 8972.50000    0.06200    0.13800   57.99600   10.03500    2.49200    3.11100   30.62400  -47.17300
 8973.00000    0.10500    0.15900   60.43100   10.06100    2.55000    3.35900   35.02900  -47.72700
 8973.50000    0.14800    0.18200   62.90900   10.15600    2.54800    3.62400   38.86600  -48.29000
 8974.00000    0.20200    0.20400   65.36900   10.32400    2.49000    3.89800   38.76400  -48.86500
 8974.50000    0.20200    0.22700   67.84300   10.42700    2.43600    3.96300   33.25100  -49.44700
 8975.00000    0.16800    0.28400   71.51700   10.40000    2.37300    3.89100   27.66100  -49.40700
 8975.50000    0.10400    0.33700   80.88400   10.37500    2.32300    3.81700   23.00300  -49.27600
 8976.00000    0.04000    0.40000   90.17400   10.35000    2.32300    3.74300   19.16200  -49.15200
 8976.50000    0.02800    0.34700   97.08300   10.32500    2.44100    3.68200   16.10200  -48.60700
 8977.00000    0.02600    0.27900  102.82600   10.30000    2.52100    3.55800   14.93700  -48.00800
 8977.50000    0.02600    0.24900  108.09900   10.27500    2.59800    3.38900   14.03200  -47.56800
 8978.00000    0.02900    0.23800  109.62000   10.25000    2.60400    3.38000   13.21400  -47.13100
 8978.50000    0.03900    0.24300  111.25500   10.22500    2.60900    3.42900   12.41000  -46.69400
 8979.00000    0.05100    0.25800  112.90000   10.20000    2.60900    3.48000   12.41000  -46.25700
 8979.50000    0.06100    0.27300  113.87600   10.17500    2.59500    3.48900   13.25000  -45.82000
 8980.00000    0.06100    0.27600  110.85400   10.17900    2.57700    3.49700   14.38600  -45.44700
 8980.50000    0.04900    0.26300  107.44700   10.18800    2.56000    3.48500   15.62000  -45.26900
 8981.00000    0.05400    0.22700  106.31100   10.19700    2.54900    3.46000   16.95900  -45.09100
 8981.50000    0.06200    0.18900  111.35400   10.20700    2.56400    3.43400   17.32400  -44.91200
 8982.00000    0.06600    0.15500  114.35400   10.21900    2.56900    3.46400   16.80600  -44.73300
 8982.50000    0.04400    0.13100  106.48500   10.23500    2.55600    3.52900   16.43400  -44.55400
 8983.00000    0.02700    0.13100   98.29200   10.24700    2.54200    3.50100   16.23600  -44.38100
 8983.50000    0.00800    0.13500   90.39600   10.26000    2.54100    3.24300   16.23600  -44.52500
 8984.00000    0.00900    0.14200   88.73300   10.27700    2.58900    3.00300   16.32900  -45.01000
 8984.50000    0.02200    0.14900   85.12700   10.29300    2.61900    2.95700   16.50700  -45.49200
 8985.00000    0.04000    0.15600   78.63700   10.30000    2.63600    3.32000   16.68700  -45.97700
 8985.50000    0.05600    0.15700   70.06000   10.30800    2.63100    3.65400   16.86800  -46.46100
 8986.00000    0.07100    0.14500   66.79100   10.31600    2.60100    3.83300   17.05100  -46.90700
 8986.50000    0.07700    0.13500   66.65500   10.32300    2.57200    3.69400   17.23700  -47.09100
 8987.00000    0.07500    0.13000   68.31000   10.33100    2.54100    3.51700   17.42400  -47.26500
 8987.50000    0.07000    0.13400   66.70800   10.33800    2.52100    3.34000   17.61400  -47.43900
 8988.00000    0.06800    0.13800   64.07000   10.34600    2.52300    3.16300   17.80500  -47.61000
 8988.50000    0.07000    0.13900   61.01200   10.35300    2.52800    2.98300   17.99900  -47.60200
 8989.00000    0.07700    0.13400   59.65200   10.34300    2.53600    2.90900   18.19500  -47.36100
 8989.50000    0.08500    0.12800   58.83200   10.33300    2.54200    2.93400   18.39300  -47.19800
