~Version ---------------------------------------------------
VERS. 2.0 : CWLS log ASCII Standard -VERSION 2.0
WRAP.  NO : One Line Per Depth Step
~Well ------------------------------------------------------
STRT .FT              12000.0 : START DEPTH
STOP .FT              13400.0 : STOP DEPTH
STEP .FT   0.1000000000003638 : STEP
NULL .                -999.25 : NULL VALUE
COMP . ENRON OIL &GAS COMPANY : COMPANY
WELL .       CEPO-LEWIS 21-38 : WELL
FLD  .             CEPO-LEWIS : FIELD
LOC  .   1205' FWL &1300' FSL : LOCATION
CNTY .             SWEETWATER : COUNTY
STAT .                WYOMING : STATE
CTRY .                    USA : COUNTRY
SRVC .                        : SERVICE COMPANY
DATE .             25/05/1998 : DATE
API  .             4903724185 : API NUMBER
UWI  .                3724185 : UWI NUMBER
TVD  .                     NO : TVD flag
WSTA .                    LOC : Well status
USGS .                   CEPO : USGS Number
LATI .DEG            41.18194 : LATITUDE
LONG .DEG          -108.14139 : LONGITUDE
UTM-N.             4562894.53 : Northing
UTM-E.              739764.57 : Easting
CORE .FT                 -3.9 : Core/Log Offset
~Curve Information -----------------------------------------
DEPT .FT                : Depth in Feet
GR   .GAPI 35 310 01 01 : Gamma Ray
SP   .MV   01 010 01 01 : Spontaneous Potential
CALI .IN   70 280 01 01 : Caliper
AHT90.OHMM              : 
ILD  .OHMM 05 120 46 01 : Deep Induction Standard Processed Resistivity
HCAL .IN                : 
DPHI .V/V  45 890 01 01 : Density Porosity
NPOR .V/V               : Neutron Porosity Output From An Application Program
RHOB .G/C3 42 350 01 01 : Bulk Density
PEF  .b/e               : Photo-Electric Factor
DT   .US/F 60 520 08 01 : Delta-T
SPHI .V/V  61 890 01 01 : Sonic Porosity
RESD .OHMM              : Deep Resistivity - Merged AHT90 & ILD
~Params ----------------------------------------------------
DATE.  25-05-1998 : Date As Month-Day-Year
RUN .         ONE : Run Number
PDAT.         UNK : Permanent Datum
EPD .FT    6416.0 : Elevation Of Perm. Datum
LMF .          KB : Log Measured From
FAPD.FT      21.0 : Feet Above Perm. Datum
DMF .          KB : Drilling Measured From
EKB .FT    6437.0 : Elevation Of Kelly Bushing
EDF .FT    6436.0 : Elevation Of Derrick Floor
EGL .FT    6416.0 : Elevation Of Ground Level
TD  .FT   13400.0 : Total Depth
DD  .FT   12587.0 : Depth Driller
DL  .FT   12616.0 : Depth Logger
BLI .FT   12602.0 : Bottom Log Interval
TLI .FT    2346.0 : Top Log Interval
DFT .    GEL-CHEM : Drilling Fluid Type
LUN .        8269 : Logging Unit Number
LUL . ROCK SPRING : Logging Unit Location
DGBY.         R2V : 
WSTA.         LOC : 
~Other -----------------------------------------------------
<DescLogPlotStart>   NEURALOG PLOT DEFINITION
PLOTDEFVERSION: 3
LASFILE: C:\nds\projects\mf-nov-13\las\3724185G.las
DEPTHSCALE: 240.000000
RESOLUTION: 200
DEPTHLABELFREQ: 100.000000
HEAVYGRIDFREQ: 100.000000
MEDIUMGRIDFREQ: 50.000000
LIGHTGRIDFREQ: 10.000000
#
#   TRACK 1
#
STARTTRACK:
LEFTX: 0.500000 inch
RIGHTX: 3.000000 inch
SCALETYPE: Linear
NUMCHARTDIVISIONS: 10
CURVE: GR    0.000000   150.000000 (0,0,255)      Solid             2     N
CURVE: SP    -100.000000 0.000000   (0,131,131)    Dot               2     Y
BACKUP: 0.000000   100.000000 (0,131,131)    Dot               2
BACKUP: 100.000000 200.000000 (0,131,131)    Dot               2
BACKUP: 200.000000 300.000000 (0,131,131)    Dot               2
BACKUP: 300.000000 400.000000 (0,131,131)    Dot               2
CURVE: CALI  4.000000   14.000000  (255,0,255)    Short_Dash        2     N
CURVE: HCAL  4.000000   14.000000  (255,0,0)      Medium_Dash       2     Y
BACKUP: -6.000000  4.000000   (255,0,0)      Medium_Dash       2
ENDTRACK:
#
#   TRACK 2
#
STARTTRACK:
LEFTX: 3.500000 inch
RIGHTX: 8.500000 inch
SCALETYPE: Log
NUMCYCLES: 4
STARTCYCLE: 2
CURVE: AHT90 0.200000   2000.000000 (255,131,0)    Solid             2     N
CURVE: ILD   0.200000   2000.000000 (255,255,0)    Dot               2     N
ENDTRACK:
#
#   TRACK 3
#
STARTTRACK:
LEFTX: 3.500000 inch
RIGHTX: 8.500000 inch
SCALETYPE: Linear
NUMCHARTDIVISIONS: 10
CURVE: DPHI  0.300000   -0.100000  (0,0,255)      Solid             2     Y
BACKUP: 0.700000   0.300000   (0,0,255)      Solid             2
CURVE: NPOR  0.300000   -0.100000  (0,131,131)    Dot               2     Y
BACKUP: 0.700000   0.300000   (0,131,131)    Dot               2
ENDTRACK:
#
#   TRACK 4
#
STARTTRACK:
LEFTX: 3.500000 inch
RIGHTX: 8.500000 inch
SCALETYPE: Linear
NUMCHARTDIVISIONS: 10
CURVE: RHOB  2.000000   3.000000   (255,0,255)    Solid             2     Y
BACKUP: 1.000000   2.000000   (255,0,255)    Solid             2
BACKUP: 3.000000   4.000000   (255,0,255)    Solid             2
CURVE: PEF   0.000000   20.000000  (255,0,0)      Dot               2     N
ENDTRACK:
#
#   TRACK 5
#
STARTTRACK:
LEFTX: 3.500000 inch
RIGHTX: 8.500000 inch
SCALETYPE: Linear
NUMCHARTDIVISIONS: 10
CURVE: DT    140.000000 40.000000  (255,131,0)    Solid             2     Y
BACKUP: 240.000000 140.000000 (255,131,0)    Solid             2
ENDTRACK:
<DescLogPlotEnd>
~ASCII -----------------------------------------------------
# ...
 12275.60000  -40.02904  -25.08051    8.59432   20.80151    -999.25    -999.25    0.02743    0.09789    2.63088    2.87460   62.57294    0.08233   20.80151
 12275.70000  -40.22287  -25.03466    8.59432   19.73454    -999.25    -999.25    0.02792    0.09728    2.63016    2.90175   62.70498    0.08318   19.73454
 12275.80000  -40.28694  -25.11056    8.59432   18.72150    -999.25    -999.25    0.02840    0.09668    2.62904    2.93169   62.78672    0.08385   18.72150
 12275.90000  -39.85224  -25.20589    8.59432   17.76288    -999.25    -999.25    0.02889    0.09658    2.62728    2.95641   63.22435    0.08461   17.76288
 12276.00000  -38.66469  -25.27362    8.59432   16.85030    -999.25    -999.25    0.02939    0.09879    2.62553    2.96855   63.54125    0.08770   16.85030
 12276.10000  -37.01677  -25.33589    8.59432   15.98778    -999.25    -999.25    0.02988    0.10282    2.62449    2.97153   63.85815    0.09028   15.98778
 12276.20000  -35.40212  -25.41181    8.59432   15.16632    -999.25    -999.25    0.03037    0.10685    2.62385    2.97462   64.17505    0.09244   15.16632
 12276.30000  -33.94759  -25.49008    8.59432   14.38992    -999.25    -999.25    0.03086    0.11088    2.62267    2.98167   64.49195    0.09493   14.38992
 12276.40000  -32.48024  -25.56116    8.59432   13.64990    -999.25    -999.25    0.03180    0.11479    2.62073    2.99031   64.80885    0.09718   13.64990
 12276.50000  -30.93830  -25.63121    8.59432   13.25142    -999.25    -999.25    0.03319    0.11860    2.61861    2.99877   65.12575    0.09957   13.25142
 12276.60000  -29.40744  -25.70447    8.59432   13.15556    -999.25    -999.25    0.03458    0.12240    2.61671    3.00792   65.44266    0.10192   13.15556
 12276.70000  -27.90345  -25.77804    8.59432   13.06927    -999.25    -999.25    0.03597    0.12621    2.61488    3.01783   65.75956    0.10423   13.06927
 12276.80000  -26.38720  -25.85120    8.59432   12.97136    -999.25    -999.25    0.03736    0.13001    2.61290    3.02734   66.10664    0.10665   12.97136
 12276.90000  -24.92155  -25.92454    8.59432   12.88996    -999.25    -999.25    0.03875    0.13381    2.61089    3.03644   66.25683    0.10903   12.88996
 12277.00000  -23.64420  -25.99589    8.59432   12.78965    -999.25    -999.25    0.04014    0.13762    2.60897    3.04607   66.42282    0.10999   12.78965
 12277.10000  -22.61688  -26.06680    8.59432   12.71237    -999.25    -999.25    0.04153    0.14142    2.60704    3.05593   66.58882    0.11082   12.71237
 12277.20000  -21.75902  -26.14284    8.59432   12.61209    -999.25    -999.25    0.04292    0.14523    2.60494    3.06490   66.75481    0.11181   12.61209
 12277.30000  -20.90802  -26.21743    8.59432   12.46503    -999.25    -999.25    0.04388    0.14864    2.60284    3.07374   66.92081    0.11268   12.46503
 12277.40000  -19.97839  -26.26548    8.59432   12.39296    -999.25    -999.25    0.04441    0.15170    2.60115    3.08425   67.08928    0.11359   12.39296
 12277.50000  -19.10677  -26.26779    8.59432   12.25579    -999.25    -999.25    0.04495    0.15341    2.60006    3.09483   67.21645    0.11450   12.25579
 12277.60000  -18.56146  -26.23514    8.59432   12.12013    -999.25    -999.25    0.04549    0.15382    2.59941    3.09997   67.27381    0.11542   12.12013
 12277.70000  -18.43415  -26.19588    8.59432   11.98598    -999.25    -999.25    0.04602    0.15420    2.59907    3.09653   67.31570    0.11633   11.98598
 12277.80000  -18.50286  -26.16504    8.59432   11.85331    -999.25    -999.25    0.04656    0.15462    2.59904    3.08785   67.36531    0.11725   11.85331
 12277.90000  -18.50715  -26.13700    8.59432   11.72211    -999.25    -999.25    0.04703    0.15501    2.59929    3.07942   67.40509    0.11817   11.72211
 12278.00000  -18.45890  -26.10436    8.59432   11.59236    -999.25    -999.25    0.04743    0.15543    2.59959    3.07259   67.45587    0.11952   11.59236
 12278.10000  -18.55247  -26.07033    8.59432   11.46405    -999.25    -999.25    0.04783    0.15642    2.59981    3.06546   67.51477    0.11933   11.46405
 12278.20000  -18.85008  -26.04022    8.59433   11.33716    -999.25    -999.25    0.04771    0.15804    2.60001    3.05757   67.48336    0.11897   11.33716
 12278.30000  -19.21777  -26.01091    8.59433   11.21167    -999.25    -999.25    0.04707    0.15965    2.60025    3.05017   67.41508    0.11861   11.21167
 12278.40000  -19.53590  -25.97693    8.59432   11.09787    -999.25    -999.25    0.04642    0.16126    2.60049    3.04306   67.35491    0.11826   11.09787
 12278.50000  -19.82158  -25.94239    8.59432   11.04652    -999.25    -999.25    0.04578    0.16287    2.60069    3.03511   67.28875    0.11790   11.04652
 12278.60000  -20.12946  -25.91555    8.59433   11.06361    -999.25    -999.25    0.04514    0.16368    2.60091    3.02746   67.22662    0.11754   11.06361
 12278.70000  -20.45191  -25.89048    8.59435   11.09787    -999.25    -999.25    0.04481    0.16368    2.60118    3.02302   67.16231    0.11718   11.09787
 12278.80000  -20.75869  -25.84788    8.59432   11.13223    -999.25    -999.25    0.04481    0.16367    2.60145    3.02208   67.09863    0.11683   11.13223
 12278.90000  -21.05981  -25.77986    8.59429   11.26495    -999.25    -999.25    0.04481    0.16351    2.60170    3.02151   67.03521    0.11647   11.26495
 12279.00000  -21.37689  -25.70161    8.59436   11.49955    -999.25    -999.25    0.04481    0.16318    2.60198    3.01928   66.97183    0.11611   11.49955
 12279.10000  -21.67478  -25.63065    8.59440   11.73904    -999.25    -999.25    0.04481    0.16286    2.60225    3.01655   66.91147    0.11575   11.73904
 12279.20000  -21.87275  -25.56672    8.59417   11.98351    -999.25    -999.25    0.04481    0.16254    2.60246    3.01413   66.88934    0.11540   11.98351
 12279.30000  -21.94816  -25.50060    8.59356   12.23307    -999.25    -999.25    0.04481    0.16221    2.60269    3.01098   66.86821    0.11509   12.23307
 12279.40000  -21.98989  -25.43095    8.59280   12.48783    -999.25    -999.25    0.04481    0.16109    2.60303    3.00787   66.84708    0.11509   12.48783
 12279.50000  -22.08497  -25.36248    8.59213   12.74790    -999.25    -999.25    0.04481    0.15912    2.60333    3.00703   66.82596    0.11509   12.74790
 12279.60000  -22.16926  -25.29591    8.59155   13.01338    -999.25    -999.25    0.04481    0.15723    2.60340    3.00594   66.81087    0.11529   13.01338
 12279.70000  -22.08158  -25.22860    8.59093   13.28439    -999.25    -999.25    0.04481    0.15521    2.60354    2.99725   66.86373    0.11545   13.28439
 12279.80000  -21.78081  -25.16039    8.59028   13.33927    -999.25    -999.25    0.04424    0.15336    2.60447    2.97823   66.90484    0.11561   13.33927
 12279.90000  -21.40388  -25.09261    8.58964   13.17532    -999.25    -999.25    0.04310    0.15129    2.60647    2.95499   66.94595    0.11577   13.17532
 12280.00000  -21.08339  -25.02517    8.58902   13.01338    -999.25    -999.25    0.04196    0.14950    2.60911    2.93439   66.98707    0.11593   13.01338
 12280.10000  -20.80618  -24.95738    8.58839   12.85344    -999.25    -999.25    0.04082    0.14739    2.61165    2.91646   67.02818    0.11609   12.85344
 12280.20000  -20.50138  -24.88972    8.58775   12.69546    -999.25    -999.25    0.03967    0.14478    2.61360    2.89773   67.06929    0.11625   12.69546
 12280.30000  -20.19457  -24.82238    8.58712   12.53942    -999.25    -999.25    0.03853    0.14462    2.61487    2.87744   67.11041    0.11641   12.53942
 12280.40000  -20.00782  -24.75471    8.58649   12.38530    -999.25    -999.25    0.03739    0.14478    2.61583    2.85745   67.15152    0.11657   12.38530
 12280.50000  -20.00422  -24.68614    8.58586   12.23307    -999.25    -999.25    0.03625    0.14471    2.61710    2.83878   67.19264    0.11673   12.23307
 12280.60000  -20.08834  -24.61838    8.58523   12.08272    -999.25    -999.25    0.03510    0.14493    2.61889    2.82011   67.23375    0.11689   12.08272
 12280.70000  -20.13175  -24.55204    8.58459   12.00823    -999.25    -999.25    0.03396    0.14526    2.62094    2.79988   67.27486    0.11705   12.00823
