~Version ---------------------------------------------------
VERS.   2.0 : CWLS log ASCII Standard -VERSION 2.0
WRAP.    NO : One line per depth step
DLM . SPACE : Column Data Section Delimiter
~Well ------------------------------------------------------
STRT.FT       8390.0 : START DEPTH
STOP.FT       9710.0 : STOP DEPTH
STEP.FT          0.5 : STEP
NULL.        -999.25 : NULL VALUE
COMP.  HRM Resources : COMPANY
WELL.  23-12 Hay Dam : WELL
FLD .        Hay Dam : FIELD
LOC . 23N R97W Sec12 : LOCATION
CNTY.     Sweetwater : COUNTY
STAT.             WY : STATE
CTRY.            USA : COUNTRY
SRVC.            SLB : SERVICE COMPANY
DATE.     11/14/2019 : DATE
API .     4903723253 : API NUMBER
UWI .       3723253A : UWI NUMBER
TVD .             NO : TVD flag
WSTA.            LOC : Well status
USGS.           E974 : USGS Number
LATI.DEG     41.97803: LATITUDE
LONG.DEG    -108.3282: LONGITUDE
UTM-N.     4650790.25: Northing
UTM-E.       721356.8: Easting
CORE.             -13: Core/Log Offset
~Curve Information -----------------------------------------
DEPT.FT               : Depth in Feet
GR  .API 35 310 01 01 : Gamma Ray
CALI.IN  70 280 01 01 : Caliper
PEF .BARN             : Photoelectric Effect
NPHI.V/V 42 890 03 01 : Neutron Porosity
DPHI.V/V 45 890 01 01 : Density Porosity
SP  .                 : 
ILD .                 : 
~Params ----------------------------------------------------
~Other -----------------------------------------------------
~ASCII -----------------------------------------------------
 8390.00000   96.37800    9.23000    2.80300    0.11200    0.02000  -25.06000   22.03900
 8390.50000  103.21900    9.23500    2.93500    0.11700    0.02300  -25.18100   22.65900
 8391.00000  107.34800    9.24100    3.06600    0.12300    0.02300  -25.34900   22.20500
 8391.50000  110.82800    9.24500    3.17100    0.12800    0.01600  -25.48300   22.04400
 8392.00000  115.43500    9.25100    3.30200    0.13400    0.00600  -25.65700   21.38000
 8392.50000  121.43000    9.25600    3.43300    0.14000   -0.00200  -25.69800   20.93500
 8393.00000  127.30600    9.26100    3.56400    0.15500    0.00500  -25.73100   20.49900
 8393.50000  133.19000    9.26700    3.65800    0.18300    0.01700  -25.76400   20.09300
 8394.00000  139.07000    9.27200    3.64500    0.21300    0.02800  -25.79900   19.88900
 8394.50000  144.01700    9.27800    3.57900    0.24300    0.04100  -25.83300   19.69700
 8395.00000  143.62100    9.28300    3.43200    0.26800    0.04900  -25.86700   19.54300
 8395.50000  132.24000    9.28900    3.24800    0.27600    0.05400  -25.90100   19.73200
 8396.00000  120.14600    9.28700    3.14900    0.23400    0.05300  -25.93500   19.89200
 8396.50000  108.14700    9.28300    3.11300    0.17100    0.03800  -25.96900   20.05400
 8397.00000   99.09000    9.27800    3.12900    0.13200    0.02400  -26.00400   20.09300
 8397.50000   96.68600    9.27400    3.14600    0.12500    0.00900  -26.03700   19.83100
 8398.00000  102.12600    9.27000    3.15200    0.13300    0.00200  -26.07100   19.24500
 8398.50000  109.64800    9.26600    3.15200    0.14300   -0.00200  -26.12300   18.54900
 8399.00000  117.19300    9.26200    3.17500    0.15600   -0.00300  -26.17300   17.87700
 8399.50000  124.73000    9.25800    3.32400    0.16900   -0.00500  -26.22300   17.23000
 8400.00000  132.23400    9.25400    3.44800    0.18100    0.00800  -26.27200   16.60600
 8400.50000  139.99500    9.24900    3.33900    0.19500    0.02000  -26.32200   16.24300
 8401.00000  143.75300    9.24500    3.23200    0.19900    0.03300  -26.37200   15.95500
 8401.50000  145.57800    9.24100    3.12500    0.19300    0.03600  -26.42000   16.16900
 8402.00000  141.34000    9.23700    3.01900    0.17100    0.02500  -26.47700   16.70500
 8402.50000  128.38000    9.23300    2.91100    0.14700    0.01000  -26.72700   18.32900
 8403.00000  115.03200    9.22900    2.80900    0.12900    0.02300  -26.98700   20.09500
 8403.50000  101.72600    9.22500    2.72900    0.12000    0.04000  -27.24500   22.03100
 8404.00000   93.62700    9.22000    2.80600    0.11800    0.05700  -27.50300   24.15400
 8404.50000   88.09400    9.21600    2.88400    0.11600    0.06300  -27.76100   26.48200
 8405.00000   84.27300    9.21200    2.89500    0.11300    0.06200  -28.01900   29.08600
 8405.50000   83.11600    9.20900    2.87100    0.11100    0.06100  -28.27700   29.51300
 8406.00000   83.28400    9.20900    2.85000    0.11200    0.06100  -28.53500   29.62900
 8406.50000   85.51700    9.20900    2.84900    0.11800    0.05900  -28.79400   28.12500
 8407.00000   91.08400    9.20900    2.89600    0.12600    0.04800  -29.05300   27.12600
 8407.50000   99.72000    9.20400    2.95900    0.13400    0.03700  -29.28800   26.05700
 8408.00000  107.84500    9.19400    3.02400    0.13800    0.02600  -29.22900   25.04400
 8408.50000  107.58400    9.18400    3.05100    0.13600    0.02100  -29.16400   24.06300
 8409.00000  105.83200    9.17500    3.05200    0.13300    0.02000  -29.10000   23.11800
 8409.50000  107.65600    9.16500    3.08000    0.13200    0.02000  -29.03700   22.24000
 8410.00000  117.14800    9.15500    3.11900    0.13800    0.01200  -28.97300   22.24300
 8410.50000  126.69400    9.14600    3.15800    0.14100    0.00300  -28.90900   22.62000
 8411.00000  131.79100    9.13600    3.17900    0.14100   -0.00600  -28.84600   22.90000
 8411.50000  125.39500    9.12600    3.21100    0.13400   -0.00600  -28.78200   22.99900
 8412.00000  118.52000    9.11700    3.24100    0.12700    0.00100  -28.71900   23.08200
 8412.50000  115.69700    9.10700    3.27200    0.12300    0.00300  -28.65500   22.78300
 8413.00000  123.69300    9.09700    3.28700    0.13300   -0.00100  -28.59200   22.34100
 8413.50000  129.42200    9.08800    3.23200    0.14200   -0.00600  -28.52900   21.90800
 8414.00000  132.56200    9.07800    3.17600    0.15100   -0.01000  -28.48700   21.48400
 8414.50000  131.63800    9.06800    3.16500    0.15200   -0.01100  -28.48800   20.98900
 8415.00000  131.77700    9.05900    3.25000    0.14600   -0.01100  -28.48800   20.49600
 8415.50000  135.70400    9.04900    3.33100    0.14300   -0.01200  -28.48800   20.01300
 8416.00000  140.55600    9.05600    3.33500    0.15200   -0.01200  -28.48700   19.71900
 8416.50000  145.42800    9.06500    3.25500    0.16300   -0.00600  -28.48700   20.09300
 8417.00000  147.05000    9.07400    3.13000    0.17100    0.00200  -28.51800   21.18800
 8417.50000  142.72000    9.08300    3.00300    0.16300    0.00800  -28.78300   22.31500
 8418.00000  128.84600    9.07800    2.96700    0.13300    0.00800  -29.05100   23.75600
 8418.50000  111.86000    9.05200    3.14500    0.10600   -0.00500  -29.31700   25.32600
 8419.00000   94.88500    9.02700    3.37300    0.08100   -0.02000  -29.58400   26.99900
 8419.50000   80.00900    9.00100    3.55100    0.06900   -0.03600  -29.85000   28.78300
 8420.00000   71.40400    8.97400    3.63000    0.06900   -0.04400  -30.11600   30.68500
 8420.50000   71.03600    8.96800    3.70200    0.07800   -0.03300  -30.38300   31.12300
 8421.00000   75.82000    8.97200    3.52000    0.09100   -0.01500  -30.64900   31.31900
 8421.50000   84.08800    9.00700    3.28900    0.10500    0.00300  -30.91600   30.41900
 8422.00000   92.43400    9.04100    3.05600    0.12000    0.01500  -31.18200   28.36600
 8422.50000  100.76400    9.07700    2.83600    0.12300    0.01700  -31.45100   25.99900
 8423.00000  107.11100    9.12400    2.80900    0.12300    0.01800  -31.70500   24.09500
 8423.50000  105.36700    9.16800    2.82900    0.12400    0.01900  -31.64900   22.74400
 8424.00000  103.67500    9.16900    2.87300    0.12500    0.02000  -31.58100   21.46800
 8424.50000  106.92400    9.16900    2.91700    0.12600    0.01900  -31.51400   21.04400
 8425.00000  111.80300    9.16900    2.96000    0.12700    0.01300  -31.44700   21.04400
 8425.50000  117.16600    9.16900    2.99700    0.12800    0.00500  -31.38100   21.04400
 8426.00000  122.59000    9.16900    3.01500    0.13300   -0.00400  -31.31000   21.23000
 8426.50000  127.96400    9.16900    3.03400    0.13900   -0.01200  -31.13000   21.43600
 8427.00000  132.38300    9.16900    3.05200    0.14400   -0.01700  -30.93800   21.31100
 8427.50000  132.81400    9.16900    3.07400    0.14500   -0.02000  -30.74700   21.18500
 8428.00000  131.87700    9.16900    3.17100    0.14500   -0.02200  -30.55600   21.06000
 8428.50000  131.11200    9.16900    3.25800    0.14500   -0.02200  -30.36100   20.93500
 8429.00000  133.98600    9.16900    3.34400    0.14900   -0.01900  -30.38200   20.85000
 8429.50000  136.93600    9.16900    3.43000    0.15600   -0.01600  -30.49400   20.85000
 8430.00000  139.25100    9.16900    3.51600    0.16000   -0.01200  -30.60900   20.99800
 8430.50000  139.75600    9.16900    3.59500    0.15900   -0.01100  -30.71100   21.15400
 8431.00000  138.85000    9.16900    3.56800    0.15600   -0.01100  -30.84700   21.31200
 8431.50000  137.95100    9.16900    3.43200    0.15300   -0.01200  -30.99500   21.47100
 8432.00000  137.05700    9.16900    3.14700    0.14900   -0.01500  -31.14300   21.63100
 8432.50000  136.16800    9.16900    3.07300    0.14700   -0.01800  -31.29000   21.79200
 8433.00000  135.00300    9.16900    3.14500    0.14700   -0.02000  -31.43800   21.83600
 8433.50000  133.66600    9.16900    3.21400    0.14700   -0.02100  -31.50100   21.59400
 8434.00000  132.34800    9.16900    3.18700    0.14800   -0.02100  -31.47800   21.27800
 8434.50000  132.12900    9.18000    3.15200    0.14800   -0.02200  -31.45500   20.96500
